"{'name': '首都银行(南京分行)', 'location': {'lat': 32.00828906998985, 'lng': 118.70743514067493}, 'address': '南京市建邺区乐山路189号碧瑶花园32幢', 'province': '江苏省', 'city': '南京市', 'area': '建邺区', 'street_id': '28f8c66f0250af075d0d023f', 'telephone': '(025)89667881', 'detail': 1, 'uid': '28f8c66f0250af075d0d023f', 'detail_info': {'tag': '金融;银行', 'navi_location': {'lng': 118.71938450955, 'lat': 32.012296233873}, 'type': 'life', 'detail_url': 'http://api.map.baidu.com/place/detail?uid=28f8c66f0250af075d0d023f&output=html&source=placeapi_v2', 'overall_rating': '5.0', 'image_num': '13', 'comment_num': '4', 'children': [], 'lat': 32.00828906998985, 'lng': 118.70743514067493}}"
"{'name': '臻煜投资(臻舍资本)', 'location': {'lat': 32.01153716868995, 'lng': 118.70283885301602}, 'address': '扬子江大道万景园路8号金陵江滨酒店2号别墅', 'province': '江苏省', 'city': '南京市', 'area': '建邺区', 'street_id': 'b17e1810ed0271d18bfc06d6', 'detail': 1, 'uid': 'b17e1810ed0271d18bfc06d6', 'detail_info': {'tag': '金融;投资理财', 'type': 'life', 'detail_url': 'http://api.map.baidu.com/place/detail?uid=b17e1810ed0271d18bfc06d6&output=html&source=placeapi_v2', 'image_num': '1', 'children': [], 'lat': 32.01153716868995, 'lng': 118.70283885301602}}"
"{'name': '紫金农商银行(江心洲支行)', 'location': {'lat': 32.02754959969731, 'lng': 118.70026753494926}, 'address': '江苏省南京市建邺区江岛新天地环岛东路99号', 'province': '江苏省', 'city': '南京市', 'area': '建邺区', 'street_id': '4b3537de90d145df79f796b6', 'detail': 1, 'uid': '4b3537de90d145df79f796b6', 'detail_info': {'tag': '金融;信用社', 'navi_location': {'lng': 118.71173826275, 'lat': 32.031695659746}, 'detail_url': 'http://api.map.baidu.com/place/detail?uid=4b3537de90d145df79f796b6&output=html&source=placeapi_v2', 'children': [], 'lat': 32.02754959969731, 'lng': 118.70026753494926}}"
"{'name': '紫金农商银行24小时自助银行(红星街)', 'location': {'lat': 32.02810891256773, 'lng': 118.69082346455158}, 'address': '南京市建邺区红星街(洲岛家园-绿洲苑)', 'province': '江苏省', 'city': '南京市', 'area': '建邺区', 'street_id': 'ec796001dc9e51333310af2b', 'detail': 1, 'uid': 'ec796001dc9e51333310af2b', 'detail_info': {'tag': '金融;atm', 'type': 'life', 'detail_url': 'http://api.map.baidu.com/place/detail?uid=ec796001dc9e51333310af2b&output=html&source=placeapi_v2', 'image_num': '1', 'children': [], 'lat': 32.02810891256773, 'lng': 118.69082346455158}}"
"{'name': '南京银行(江心洲支行)', 'location': {'lat': 32.043245788877385, 'lng': 118.70181912873792}, 'address': '南京市建邺区绿水街21号', 'province': '江苏省', 'city': '南京市', 'area': '建邺区', 'street_id': 'ee31b7c5af75fc53ec74f8e2', 'telephone': '(025)85203160', 'detail': 1, 'uid': 'ee31b7c5af75fc53ec74f8e2', 'detail_info': {'tag': '金融;银行', 'navi_location': {'lng': 118.71376600024, 'lat': 32.047103019141}, 'type': 'life', 'detail_url': 'http://api.map.baidu.com/place/detail?uid=ee31b7c5af75fc53ec74f8e2&output=html&source=placeapi_v2', 'overall_rating': '5.0', 'image_num': '1', 'comment_num': '2', 'children': [], 'lat': 32.043245788877385, 'lng': 118.70181912873792}}"
"{'name': '交通银行(南京江东中路支行)', 'location': {'lat': 32.007014894136766, 'lng': 118.72576201412735}, 'address': '南京市建邺区江东中路与牡丹江街交叉路口往南约100米(南京市政服务大厅)', 'province': '江苏省', 'city': '南京市', 'area': '建邺区', 'telephone': '(025)85367627,(025)85363795', 'detail': 1, 'uid': 'c560252f359d94eb9122e01d', 'detail_info': {'tag': '金融;银行', 'type': 'life', 'detail_url': 'http://api.map.baidu.com/place/detail?uid=c560252f359d94eb9122e01d&output=html&source=placeapi_v2', 'overall_rating': '3.0', 'image_num': '1', 'comment_num': '2', 'children': [], 'lat': 32.007014894136766, 'lng': 118.72576201412735}}"
"{'name': '上海银行(南京建邺支行)', 'location': {'lat': 32.014726583029855, 'lng': 118.72224561880155}, 'address': '江苏省南京市建邺区梦都大街150号', 'province': '江苏省', 'city': '南京市', 'area': '建邺区', 'street_id': 'a2aa128f5b8b4087a2046487', 'telephone': '(025)89611278', 'detail': 1, 'uid': 'a2aa128f5b8b4087a2046487', 'detail_info': {'tag': '金融;银行', 'navi_location': {'lng': 118.73443824052, 'lat': 32.018532026463}, 'type': 'life', 'detail_url': 'http://api.map.baidu.com/place/detail?uid=a2aa128f5b8b4087a2046487&output=html&source=placeapi_v2', 'overall_rating': '5.0', 'image_num': '5', 'comment_num': '3', 'children': [], 'lat': 32.014726583029855, 'lng': 118.72224561880155}}"
"{'name': '中国建设银行(南京奥体支行)', 'location': {'lat': 32.01727418620939, 'lng': 118.71608738129515}, 'address': '江苏省南京市建邺区梦都大街176号', 'province': '江苏省', 'city': '南京市', 'area': '建邺区', 'street_id': '3ad5a4488684f91c3362126c', 'detail': 1, 'uid': '3ad5a4488684f91c3362126c', 'detail_info': {'tag': '金融;银行', 'navi_location': {'lng': 118.72793539077, 'lat': 32.021008805887}, 'type': 'life', 'detail_url': 'http://api.map.baidu.com/place/detail?uid=3ad5a4488684f91c3362126c&output=html&source=placeapi_v2', 'overall_rating': '1.3', 'image_num': '8', 'comment_num': '3', 'children': [], 'lat': 32.01727418620939, 'lng': 118.71608738129515}}"
"{'name': '紫金农商银行(河西支行)', 'location': {'lat': 32.01392208658033, 'lng': 118.72360845616585}, 'address': '南京市建邺区梦都大街136号', 'province': '江苏省', 'city': '南京市', 'area': '建邺区', 'street_id': '0d387c1b5c7aa8e16fc02c48', 'telephone': '(025)86808666', 'detail': 1, 'uid': '0d387c1b5c7aa8e16fc02c48', 'detail_info': {'tag': '金融;银行', 'navi_location': {'lng': 118.73504585527, 'lat': 32.017224429844}, 'type': 'life', 'detail_url': 'http://api.map.baidu.com/place/detail?uid=0d387c1b5c7aa8e16fc02c48&output=html&source=placeapi_v2', 'overall_rating': '3.9', 'image_num': '2', 'comment_num': '9', 'children': [], 'lat': 32.01392208658033, 'lng': 118.72360845616585}}"
"{'name': '南京银行(南京分行乐山路支行)', 'location': {'lat': 32.01680249639058, 'lng': 118.71549977027834}, 'address': '江苏省南京市建邺区梦都大街176-121号', 'province': '江苏省', 'city': '南京市', 'area': '建邺区', 'street_id': '1c5f85215b269af9c9c3db12', 'detail': 1, 'uid': '1c5f85215b269af9c9c3db12', 'detail_info': {'tag': '金融;银行', 'navi_location': {'lng': 118.72728845449, 'lat': 32.02068670329}, 'type': 'life', 'detail_url': 'http://api.map.baidu.com/place/detail?uid=1c5f85215b269af9c9c3db12&output=html&source=placeapi_v2', 'overall_rating': '4.0', 'image_num': '16', 'comment_num': '6', 'children': [], 'lat': 32.01680249639058, 'lng': 118.71549977027834}}"
"{'name': '利安人寿', 'location': {'lat': 32.01002918185854, 'lng': 118.72738459396771}, 'address': '江东中路235号雨润国际广场B1楼8-13层、15-16层', 'province': '江苏省', 'city': '南京市', 'area': '建邺区', 'street_id': '2afd78121dd2c6505bf6be5f', 'telephone': '(025)86785555', 'detail': 1, 'uid': '2afd78121dd2c6505bf6be5f', 'detail_info': {'tag': '金融;投资理财', 'navi_location': {'lng': 118.73871783986, 'lat': 32.013475319369}, 'type': 'life', 'detail_url': 'http://api.map.baidu.com/place/detail?uid=2afd78121dd2c6505bf6be5f&output=html&source=placeapi_v2', 'overall_rating': '4.0', 'image_num': '4', 'comment_num': '1', 'children': [], 'lat': 32.01002918185854, 'lng': 118.72738459396771}}"
"{'name': '江苏金财投资有限公司', 'location': {'lat': 32.01381268303314, 'lng': 118.72388744486383}, 'address': '江苏省南京市建邺区梦都大街136号金财大楼', 'province': '江苏省', 'city': '南京市', 'area': '建邺区', 'telephone': '(025)86385959', 'detail': 1, 'uid': '6d2b1de7af8bbb38d8ecedd2', 'detail_info': {'tag': '金融;投资理财', 'type': 'life', 'detail_url': 'http://api.map.baidu.com/place/detail?uid=6d2b1de7af8bbb38d8ecedd2&output=html&source=placeapi_v2', 'overall_rating': '0.0', 'image_num': '2', 'comment_num': '1', 'children': [], 'lat': 32.01381268303314, 'lng': 118.72388744486383}}"
"{'name': '渣打银行(中国南京河西支行)', 'location': {'lat': 32.00875438106374, 'lng': 118.72700755050836}, 'address': '江东中路237号南京中央商场河西店1F-15-1', 'province': '江苏省', 'city': '南京市', 'area': '建邺区', 'street_id': 'c96751c6397cbc00f33cba54', 'telephone': '(025)83763788', 'detail': 1, 'uid': 'c96751c6397cbc00f33cba54', 'detail_info': {'tag': '金融;银行', 'type': 'life', 'detail_url': 'http://api.map.baidu.com/place/detail?uid=c96751c6397cbc00f33cba54&output=html&source=placeapi_v2', 'image_num': '4', 'children': [], 'lat': 32.00875438106374, 'lng': 118.72700755050836}}"
"{'name': '江苏华夏投资实业有限公司', 'location': {'lat': 32.0091012835423, 'lng': 118.71670722252279}, 'address': '江苏省南京市建邺区清江南路89号南大苏富特科技创新园5F', 'province': '江苏省', 'city': '南京市', 'area': '建邺区', 'detail': 1, 'uid': '3813bb48ca3eee64afee7a88', 'detail_info': {'tag': '金融;投资理财', 'type': 'life', 'detail_url': 'http://api.map.baidu.com/place/detail?uid=3813bb48ca3eee64afee7a88&output=html&source=placeapi_v2', 'image_num': '1', 'children': [], 'lat': 32.0091012835423, 'lng': 118.71670722252279}}"
"{'name': '阳光保险', 'location': {'lat': 32.010995966301294, 'lng': 118.71721956449022}, 'address': '江苏省南京市建邺区河西中央商务区中泰国际广场315号6栋', 'province': '江苏省', 'city': '南京市', 'area': '建邺区', 'detail': 1, 'uid': '7ec05a19bfba87743b13fd8d', 'detail_info': {'tag': '金融;投资理财', 'type': 'life', 'detail_url': 'http://api.map.baidu.com/place/detail?uid=7ec05a19bfba87743b13fd8d&output=html&source=placeapi_v2', 'image_num': '1', 'children': [], 'lat': 32.010995966301294, 'lng': 118.71721956449022}}"
"{'name': '交通银行ATM(江东中路店)', 'location': {'lat': 32.00703939843692, 'lng': 118.72569722336584}, 'address': '江苏省南京市建邺区江东中路265号', 'province': '江苏省', 'city': '南京市', 'area': '建邺区', 'street_id': '0e8d785220e95e2421f017f2', 'detail': 1, 'uid': '0e8d785220e95e2421f017f2', 'detail_info': {'tag': '金融;atm', 'navi_location': {'lng': 118.73559866439, 'lat': 32.010138146973}, 'type': 'life', 'detail_url': 'http://api.map.baidu.com/place/detail?uid=0e8d785220e95e2421f017f2&output=html&source=placeapi_v2', 'image_num': '1', 'children': [], 'lat': 32.00703939843692, 'lng': 118.72569722336584}}"
"{'name': '江苏盛堃投资管理有限公司', 'location': {'lat': 32.013807218685265, 'lng': 118.72383762832722}, 'address': '江苏省南京市建邺区梦都大街136号301室', 'province': '江苏省', 'city': '南京市', 'area': '建邺区', 'detail': 1, 'uid': '123d8aee9a7d1b9f5b109335', 'detail_info': {'tag': '金融;投资理财', 'type': 'life', 'detail_url': 'http://api.map.baidu.com/place/detail?uid=123d8aee9a7d1b9f5b109335&output=html&source=placeapi_v2', 'image_num': '1', 'children': [], 'lat': 32.013807218685265, 'lng': 118.72383762832722}}"
"{'name': '中国建设银行24小时自助银行(南京奥体支行)', 'location': {'lat': 32.01722834140718, 'lng': 118.71602971142454}, 'address': '乐山路170附近', 'province': '江苏省', 'city': '南京市', 'area': '建邺区', 'street_id': 'b2819e2eed5c6c5208f5eb48', 'detail': 1, 'uid': 'b2819e2eed5c6c5208f5eb48', 'detail_info': {'tag': '金融;atm', 'type': 'life', 'detail_url': 'http://api.map.baidu.com/place/detail?uid=b2819e2eed5c6c5208f5eb48&output=html&source=placeapi_v2', 'image_num': '2', 'children': [], 'lat': 32.01722834140718, 'lng': 118.71602971142454}}"
"{'name': '渤海期货', 'location': {'lat': 32.010990365232665, 'lng': 118.71724841411711}, 'address': '江苏省南京市建邺区河西中央商务区联强国际大厦', 'province': '江苏省', 'city': '南京市', 'area': '建邺区', 'detail': 1, 'uid': 'c329b0710f73cb7954bfff0f', 'detail_info': {'tag': '金融;投资理财', 'type': 'life', 'detail_url': 'http://api.map.baidu.com/place/detail?uid=c329b0710f73cb7954bfff0f&output=html&source=placeapi_v2', 'image_num': '1', 'children': [], 'lat': 32.010990365232665, 'lng': 118.71724841411711}}"
"{'name': '南京佰易达投资管理有限公司', 'location': {'lat': 32.014884017559936, 'lng': 118.72200158625176}, 'address': '梦都大街150号建筑师工社710室', 'province': '江苏省', 'city': '南京市', 'area': '建邺区', 'detail': 1, 'uid': '7b18493c7aaf8d77fe0eb09c', 'detail_info': {'tag': '金融;投资理财', 'detail_url': 'http://api.map.baidu.com/place/detail?uid=7b18493c7aaf8d77fe0eb09c&output=html&source=placeapi_v2', 'children': [], 'lat': 32.014884017559936, 'lng': 118.72200158625176}}"
"{'name': '捷顺投资担保有限公司', 'location': {'lat': 32.014884017559936, 'lng': 118.72200158625176}, 'address': '梦都大街150号建筑师工社603室', 'province': '江苏省', 'city': '南京市', 'area': '建邺区', 'detail': 1, 'uid': '32dcabb52a8dada8616858b4', 'detail_info': {'tag': '金融;投资理财', 'type': 'life', 'detail_url': 'http://api.map.baidu.com/place/detail?uid=32dcabb52a8dada8616858b4&output=html&source=placeapi_v2', 'image_num': '1', 'children': [], 'lat': 32.014884017559936, 'lng': 118.72200158625176}}"
"{'name': '南京一颗松投资管理有限公司', 'location': {'lat': 32.00917248466234, 'lng': 118.71664953489865}, 'address': '江东中路222号科技中心大楼7层7028、7030', 'province': '江苏省', 'city': '南京市', 'area': '建邺区', 'detail': 1, 'uid': '1a62520e70e56d8088fc0696', 'detail_info': {'tag': '金融;投资理财', 'type': 'life', 'detail_url': 'http://api.map.baidu.com/place/detail?uid=1a62520e70e56d8088fc0696&output=html&source=placeapi_v2', 'image_num': '1', 'children': [], 'lat': 32.00917248466234, 'lng': 118.71664953489865}}"
"{'name': '上海银行24小时自助银行(南京建邺支行)', 'location': {'lat': 32.01471459248917, 'lng': 118.72205838975232}, 'address': '南京市建邺区梦都大街150号建筑师工社内', 'province': '江苏省', 'city': '南京市', 'area': '建邺区', 'street_id': '03b536b655b3bc5dd1f49e90', 'detail': 1, 'uid': '03b536b655b3bc5dd1f49e90', 'detail_info': {'tag': '金融;atm', 'navi_location': {'lng': 118.73379127011, 'lat': 32.018352394861}, 'type': 'life', 'detail_url': 'http://api.map.baidu.com/place/detail?uid=03b536b655b3bc5dd1f49e90&output=html&source=placeapi_v2', 'overall_rating': '5.0', 'image_num': '12', 'comment_num': '5', 'children': [], 'lat': 32.01471459248917, 'lng': 118.72205838975232}}"
"{'name': '中国共赢投资集团', 'location': {'lat': 32.01121035610521, 'lng': 118.71246641041604}, 'address': '乐山路180号富士达电梯2楼', 'province': '江苏省', 'city': '南京市', 'area': '建邺区', 'telephone': '(025)83113888', 'detail': 1, 'uid': '6fc01ab5f331f179d23ce35a', 'detail_info': {'tag': '公司企业;公司', 'type': 'enterprise', 'detail_url': 'http://api.map.baidu.com/place/detail?uid=6fc01ab5f331f179d23ce35a&output=html&source=placeapi_v2', 'children': [], 'lat': 32.01121035610521, 'lng': 118.71246641041604}}"
"{'name': '紫金农商银行24小时自助银行服务(河西支行)', 'location': {'lat': 32.014079056542116, 'lng': 118.72339323634665}, 'address': '梦都大街136号', 'province': '江苏省', 'city': '南京市', 'area': '建邺区', 'street_id': '7f13579f313a546f54bfff3a', 'detail': 1, 'uid': 'f19ff5e0349b9dbfca1b9575', 'detail_info': {'tag': '金融;atm', 'type': 'life', 'detail_url': 'http://api.map.baidu.com/place/detail?uid=f19ff5e0349b9dbfca1b9575&output=html&source=placeapi_v2', 'overall_rating': '0.0', 'image_num': '4', 'comment_num': '1', 'children': [], 'lat': 32.014079056542116, 'lng': 118.72339323634665}}"
"{'name': '招商银行(奥体支行)', 'location': {'lat': 32.02060683692089, 'lng': 118.72074282527379}, 'address': '兴隆大街188-5号2楼', 'province': '江苏省', 'city': '南京市', 'area': '建邺区', 'street_id': 'c5ddcc087f4b08b8d81318f0', 'telephone': '(025)89617998,(025)89617961', 'detail': 1, 'uid': 'c5ddcc087f4b08b8d81318f0', 'detail_info': {'tag': '金融;银行', 'navi_location': {'lng': 118.73241541641, 'lat': 32.024068332969}, 'type': 'life', 'detail_url': 'http://api.map.baidu.com/place/detail?uid=c5ddcc087f4b08b8d81318f0&output=html&source=placeapi_v2', 'overall_rating': '4.1', 'image_num': '15', 'comment_num': '18', 'children': [], 'lat': 32.02060683692089, 'lng': 118.72074282527379}}"
"{'name': '中国民生银行(南京建邺支行)', 'location': {'lat': 32.019623151043454, 'lng': 118.72104100062504}, 'address': '江苏省南京市建邺区兴隆大街187号', 'province': '江苏省', 'city': '南京市', 'area': '建邺区', 'street_id': '15ad4e84edc657025e0d028f', 'telephone': '(025)84098818', 'detail': 1, 'uid': '15ad4e84edc657025e0d028f', 'detail_info': {'tag': '金融;银行', 'navi_location': {'lng': 118.73313242411, 'lat': 32.02315842528}, 'type': 'life', 'detail_url': 'http://api.map.baidu.com/place/detail?uid=15ad4e84edc657025e0d028f&output=html&source=placeapi_v2', 'overall_rating': '4.0', 'image_num': '3', 'comment_num': '6', 'children': [], 'lat': 32.019623151043454, 'lng': 118.72104100062504}}"
"{'name': '恒丰银行(南京河西支行)', 'location': {'lat': 32.0235060147385, 'lng': 118.7209920152587}, 'address': '江苏省南京市建邺区月安街36号', 'province': '江苏省', 'city': '南京市', 'area': '建邺区', 'street_id': '6cbbb36f88902dba41d63e63', 'telephone': '(025)86827610', 'detail': 1, 'uid': '6cbbb36f88902dba41d63e63', 'detail_info': {'tag': '金融;银行', 'navi_location': {'lng': 118.73266838823, 'lat': 32.027039101346}, 'type': 'life', 'detail_url': 'http://api.map.baidu.com/place/detail?uid=6cbbb36f88902dba41d63e63&output=html&source=placeapi_v2', 'overall_rating': '4.0', 'image_num': '5', 'comment_num': '4', 'children': [], 'lat': 32.0235060147385, 'lng': 118.7209920152587}}"
"{'name': '中国人寿保险(南京市中心支公司)', 'location': {'lat': 32.01948168223587, 'lng': 118.72399822211456}, 'address': '江苏省南京市建邺区兴隆大街170-1号', 'province': '江苏省', 'city': '南京市', 'area': '建邺区', 'street_id': 'dbf39d75cae23d00210262d7', 'telephone': '(025)68165692', 'detail': 1, 'uid': 'dbf39d75cae23d00210262d7', 'detail_info': {'tag': '金融;投资理财', 'navi_location': {'lng': 118.73578818889, 'lat': 32.022833178155}, 'type': 'life', 'detail_url': 'http://api.map.baidu.com/place/detail?uid=dbf39d75cae23d00210262d7&output=html&source=placeapi_v2', 'overall_rating': '0.0', 'image_num': '10', 'comment_num': '1', 'children': [], 'lat': 32.01948168223587, 'lng': 118.72399822211456}}"
"{'name': '兴业银行(海棠园社区支行)', 'location': {'lat': 32.02065162852336, 'lng': 118.71885261326068}, 'address': '江苏省南京市建邺区兴隆大街203-5号', 'province': '江苏省', 'city': '南京市', 'area': '建邺区', 'street_id': 'c64f1b0007d002780d3dda5a', 'telephone': '(025)87795979', 'detail': 1, 'uid': 'c64f1b0007d002780d3dda5a', 'detail_info': {'tag': '金融;银行', 'navi_location': {'lng': 118.73073952328, 'lat': 32.024400958463}, 'type': 'life', 'detail_url': 'http://api.map.baidu.com/place/detail?uid=c64f1b0007d002780d3dda5a&output=html&source=placeapi_v2', 'overall_rating': '5.0', 'image_num': '7', 'comment_num': '5', 'children': [], 'lat': 32.02065162852336, 'lng': 118.71885261326068}}"
"{'name': '东方财富证券(南京兴隆大街营业部)', 'location': {'lat': 32.01962696872183, 'lng': 118.72318518834135}, 'address': '江苏省南京市建邺区兴隆大街170-10号', 'province': '江苏省', 'city': '南京市', 'area': '建邺区', 'street_id': '1c06a4a8643a69ab950319c2', 'telephone': '(025)69783965', 'detail': 1, 'uid': '1c06a4a8643a69ab950319c2', 'detail_info': {'tag': '金融;投资理财', 'navi_location': {'lng': 118.73483183308, 'lat': 32.023387020745}, 'type': 'life', 'detail_url': 'http://api.map.baidu.com/place/detail?uid=1c06a4a8643a69ab950319c2&output=html&source=placeapi_v2', 'overall_rating': '5.0', 'image_num': '11', 'comment_num': '6', 'children': [], 'lat': 32.01962696872183, 'lng': 118.72318518834135}}"
"{'name': '金葵花理财中心', 'location': {'lat': 32.020483334639955, 'lng': 118.7208733115451}, 'address': '兴隆大街188-5号2楼', 'province': '江苏省', 'city': '南京市', 'area': '建邺区', 'street_id': 'b1dd7a0b8ebf24f416c9051a', 'detail': 1, 'uid': 'b1dd7a0b8ebf24f416c9051a', 'detail_info': {'tag': '金融;投资理财', 'navi_location': {'lng': 118.73253861362, 'lat': 32.024025888746}, 'type': 'life', 'detail_url': 'http://api.map.baidu.com/place/detail?uid=b1dd7a0b8ebf24f416c9051a&output=html&source=placeapi_v2', 'image_num': '4', 'children': [], 'lat': 32.020483334639955, 'lng': 118.7208733115451}}"
"{'name': '阳光智恒保险公估有限公司', 'location': {'lat': 32.02698827741274, 'lng': 118.72686216710056}, 'address': '南苑街道燕山路118号长江之家二楼', 'province': '江苏省', 'city': '南京市', 'area': '建邺区', 'telephone': '(025)87781889', 'detail': 1, 'uid': '69fd8c610094add9d8ecedd4', 'detail_info': {'tag': '金融;投资理财', 'type': 'life', 'detail_url': 'http://api.map.baidu.com/place/detail?uid=69fd8c610094add9d8ecedd4&output=html&source=placeapi_v2', 'image_num': '1', 'children': [], 'lat': 32.02698827741274, 'lng': 118.72686216710056}}"
"{'name': '中国建设银行24小时自助银行', 'location': {'lat': 32.01907606069161, 'lng': 118.72340759408009}, 'address': '江苏省南京市建邺区兴隆大街173号附近', 'province': '江苏省', 'city': '南京市', 'area': '建邺区', 'detail': 1, 'uid': 'ad4ff9db0792009d7369d314', 'detail_info': {'tag': '金融;atm', 'type': 'life', 'detail_url': 'http://api.map.baidu.com/place/detail?uid=ad4ff9db0792009d7369d314&output=html&source=placeapi_v2', 'overall_rating': '5.0', 'image_num': '3', 'comment_num': '1', 'children': [], 'lat': 32.01907606069161, 'lng': 118.72340759408009}}"
"{'name': '中州期货', 'location': {'lat': 32.02067665245716, 'lng': 118.72038638755318}, 'address': '江苏省南京市建邺区兴隆大街188号8楼', 'province': '江苏省', 'city': '南京市', 'area': '建邺区', 'detail': 1, 'uid': '7525b34a4e4becd9dfee8b93', 'detail_info': {'tag': '金融;投资理财', 'type': 'life', 'detail_url': 'http://api.map.baidu.com/place/detail?uid=7525b34a4e4becd9dfee8b93&output=html&source=placeapi_v2', 'image_num': '1', 'children': [], 'lat': 32.02067665245716, 'lng': 118.72038638755318}}"
"{'name': '招商银行24小时自助服务(奥体支行)', 'location': {'lat': 32.02061959489493, 'lng': 118.7207219115952}, 'address': '兴隆大街188号', 'province': '江苏省', 'city': '南京市', 'area': '建邺区', 'street_id': 'e9ec1936dfe9e6859e82ea99', 'detail': 1, 'uid': 'e9ec1936dfe9e6859e82ea99', 'detail_info': {'tag': '金融;atm', 'navi_location': {'lng': 118.73236628449, 'lat': 32.024149959646}, 'type': 'life', 'detail_url': 'http://api.map.baidu.com/place/detail?uid=e9ec1936dfe9e6859e82ea99&output=html&source=placeapi_v2', 'overall_rating': '0.0', 'image_num': '9', 'comment_num': '3', 'children': [], 'lat': 32.02061959489493, 'lng': 118.7207219115952}}"
"{'name': '中国农业银行24小时自助银行服务(南京兴隆大街支行)', 'location': {'lat': 32.01943971048484, 'lng': 118.7223734760815}, 'address': '南京市建邺区兴隆大街175-9', 'province': '江苏省', 'city': '南京市', 'area': '建邺区', 'street_id': '100fbf8a1ee805f54354d763', 'detail': 1, 'uid': '100fbf8a1ee805f54354d763', 'detail_info': {'tag': '金融;atm', 'navi_location': {'lng': 118.73411049286, 'lat': 32.023137027847}, 'type': 'life', 'detail_url': 'http://api.map.baidu.com/place/detail?uid=100fbf8a1ee805f54354d763&output=html&source=placeapi_v2', 'overall_rating': '4.0', 'image_num': '8', 'comment_num': '4', 'children': [], 'lat': 32.01943971048484, 'lng': 118.7223734760815}}"
"{'name': '中国民生银行24小时自助银行(南京建邺支行)', 'location': {'lat': 32.019636675457534, 'lng': 118.72108679420532}, 'address': '兴隆大街196-8号', 'province': '江苏省', 'city': '南京市', 'area': '建邺区', 'street_id': 'd4b34758b6ecc8b0c91b9573', 'detail': 1, 'uid': 'd4b34758b6ecc8b0c91b9573', 'detail_info': {'tag': '金融;atm', 'type': 'life', 'detail_url': 'http://api.map.baidu.com/place/detail?uid=d4b34758b6ecc8b0c91b9573&output=html&source=placeapi_v2', 'image_num': '1', 'children': [], 'lat': 32.019636675457534, 'lng': 118.72108679420532}}"
"{'name': '中国光大银行24小时自助银行(月安花园社区支行)', 'location': {'lat': 32.02243758059769, 'lng': 118.72666194514788}, 'address': '江苏省南京市建邺区燕山路136号西北80米', 'province': '江苏省', 'city': '南京市', 'area': '建邺区', 'street_id': 'd678630de91301f728b97ca5', 'detail': 1, 'uid': 'd678630de91301f728b97ca5', 'detail_info': {'tag': '金融;atm', 'type': 'life', 'detail_url': 'http://api.map.baidu.com/place/detail?uid=d678630de91301f728b97ca5&output=html&source=placeapi_v2', 'image_num': '4', 'children': [], 'lat': 32.02243758059769, 'lng': 118.72666194514788}}"
"{'name': '兴业银行24小时自助银行(南京海棠园社区支行)', 'location': {'lat': 32.02051520166738, 'lng': 118.71882083942072}, 'address': '兴隆大街203-5号', 'province': '江苏省', 'city': '南京市', 'area': '建邺区', 'street_id': '21ee5a2f3ed3aa5f2bd7ab56', 'detail': 1, 'uid': '21ee5a2f3ed3aa5f2bd7ab56', 'detail_info': {'tag': '金融;atm', 'type': 'life', 'detail_url': 'http://api.map.baidu.com/place/detail?uid=21ee5a2f3ed3aa5f2bd7ab56&output=html&source=placeapi_v2', 'image_num': '4', 'children': [], 'lat': 32.02051520166738, 'lng': 118.71882083942072}}"
"{'name': '恒丰银行24小时自助银行(南京河西支行)', 'location': {'lat': 32.02347458025365, 'lng': 118.72086758306244}, 'address': '月安街41号', 'province': '江苏省', 'city': '南京市', 'area': '建邺区', 'street_id': 'b985cc27ccb7d1774afd3f2c', 'detail': 1, 'uid': 'b985cc27ccb7d1774afd3f2c', 'detail_info': {'tag': '金融;atm', 'type': 'life', 'detail_url': 'http://api.map.baidu.com/place/detail?uid=b985cc27ccb7d1774afd3f2c&output=html&source=placeapi_v2', 'image_num': '2', 'children': [], 'lat': 32.02347458025365, 'lng': 118.72086758306244}}"
"{'name': '中国平安财产保险股份有限公司(江苏分公司)', 'location': {'lat': 32.034162093540175, 'lng': 118.717124505667}, 'address': '集庆门大街272号', 'province': '江苏省', 'city': '南京市', 'area': '鼓楼区', 'telephone': '13216984450', 'detail': 1, 'uid': '1d4861656ffbc913b55f1e9b', 'detail_info': {'tag': '金融;投资理财', 'type': 'life', 'detail_url': 'http://api.map.baidu.com/place/detail?uid=1d4861656ffbc913b55f1e9b&output=html&source=placeapi_v2', 'overall_rating': '1.0', 'image_num': '3', 'comment_num': '2', 'children': [], 'lat': 32.034162093540175, 'lng': 118.717124505667}}"
"{'name': '南京银行(南京分行南京苏宁睿城小微支行)', 'location': {'lat': 32.03388822341346, 'lng': 118.72464383904378}, 'address': '南京市鼓楼区集贤路与清江南路交叉路口往东北约50米(苏宁睿城银河国际街区)', 'province': '江苏省', 'city': '南京市', 'area': '鼓楼区', 'street_id': '79ada69098ce9a6e2b11d1d8', 'detail': 1, 'uid': '79ada69098ce9a6e2b11d1d8', 'detail_info': {'tag': '金融;银行', 'type': 'life', 'detail_url': 'http://api.map.baidu.com/place/detail?uid=79ada69098ce9a6e2b11d1d8&output=html&source=placeapi_v2', 'image_num': '7', 'children': [], 'lat': 32.03388822341346, 'lng': 118.72464383904378}}"
"{'name': '民生人寿保险股份有限公司(江苏分公司)', 'location': {'lat': 32.03412440870135, 'lng': 118.71693255098812}, 'address': '江苏省南京市鼓楼区集庆门大街272号苏宁慧谷E07-1幢18楼', 'province': '江苏省', 'city': '南京市', 'area': '鼓楼区', 'street_id': '769e4a481c252420465726ed', 'detail': 1, 'uid': '769e4a481c252420465726ed', 'detail_info': {'tag': '金融;投资理财', 'type': 'life', 'detail_url': 'http://api.map.baidu.com/place/detail?uid=769e4a481c252420465726ed&output=html&source=placeapi_v2', 'image_num': '1', 'children': [], 'lat': 32.03412440870135, 'lng': 118.71693255098812}}"
"{'name': '平安银行(南京东宝花园社区支行)', 'location': {'lat': 32.04469118339013, 'lng': 118.72766300459428}, 'address': '锦江路29号', 'province': '江苏省', 'city': '南京市', 'area': '鼓楼区', 'street_id': 'e3d18207cdbc5de8ab175a4d', 'telephone': '(025)52629626', 'detail': 1, 'uid': 'e3d18207cdbc5de8ab175a4d', 'detail_info': {'tag': '金融;银行', 'type': 'life', 'detail_url': 'http://api.map.baidu.com/place/detail?uid=e3d18207cdbc5de8ab175a4d&output=html&source=placeapi_v2', 'overall_rating': '0.0', 'image_num': '12', 'comment_num': '3', 'children': [], 'lat': 32.04469118339013, 'lng': 118.72766300459428}}"
"{'name': '中国光大银行(汇文社区支行)', 'location': {'lat': 32.04233120354817, 'lng': 118.72490287113725}, 'address': '江苏省南京市鼓楼区清江路1号', 'province': '江苏省', 'city': '南京市', 'area': '鼓楼区', 'detail': 1, 'uid': '5a8ce05391bbfcf2c27da2e5', 'detail_info': {'tag': '金融;银行', 'type': 'life', 'detail_url': 'http://api.map.baidu.com/place/detail?uid=5a8ce05391bbfcf2c27da2e5&output=html&source=placeapi_v2', 'image_num': '1', 'children': [], 'lat': 32.04233120354817, 'lng': 118.72490287113725}}"
"{'name': '交通银行24小时自助银行(小微支行)', 'location': {'lat': 32.03383740743504, 'lng': 118.72478141876248}, 'address': '集贤路55', 'province': '江苏省', 'city': '南京市', 'area': '鼓楼区', 'street_id': '5c48ef3abebe745022026283', 'detail': 1, 'uid': '5c48ef3abebe745022026283', 'detail_info': {'tag': '金融;atm', 'navi_location': {'lng': 118.73638098527, 'lat': 32.037810284017}, 'type': 'life', 'detail_url': 'http://api.map.baidu.com/place/detail?uid=5c48ef3abebe745022026283&output=html&source=placeapi_v2', 'overall_rating': '0.0', 'image_num': '13', 'comment_num': '2', 'children': [], 'lat': 32.03383740743504, 'lng': 118.72478141876248}}"
"{'name': '聚合创意新兴产业投资基金', 'location': {'lat': 32.04068630724221, 'lng': 118.7251478743589}, 'address': '清江南路70号河海科技大厦11层', 'province': '江苏省', 'city': '南京市', 'area': '鼓楼区', 'detail': 1, 'uid': 'c59103c857810d0c2b3a9feb', 'detail_info': {'tag': '金融;投资理财', 'type': 'life', 'detail_url': 'http://api.map.baidu.com/place/detail?uid=c59103c857810d0c2b3a9feb&output=html&source=placeapi_v2', 'image_num': '1', 'children': [], 'lat': 32.04068630724221, 'lng': 118.7251478743589}}"
"{'name': '中信银行24小时自助银行(集庆门大街)', 'location': {'lat': 32.033243140395825, 'lng': 118.71607303648557}, 'address': '南京市建邺区集庆门大街与清河路交叉路口往东南约50米(江苏省老年公寓)', 'province': '江苏省', 'city': '南京市', 'area': '建邺区', 'detail': 1, 'uid': 'e2f0af82d8a116f5e5073894', 'detail_info': {'tag': '金融;atm', 'type': 'life', 'detail_url': 'http://api.map.baidu.com/place/detail?uid=e2f0af82d8a116f5e5073894&output=html&source=placeapi_v2', 'overall_rating': '1.0', 'image_num': '1', 'comment_num': '1', 'children': [], 'lat': 32.033243140395825, 'lng': 118.71607303648557}}"
"{'name': '南京银行24小时自助银行服务(南京分行南京苏宁睿城小微支行)', 'location': {'lat': 32.033924901783195, 'lng': 118.72449232723308}, 'address': '南京市鼓楼区集贤路与清江南路交叉路口往东北约100米(苏宁睿城银河国际街区)', 'province': '江苏省', 'city': '南京市', 'area': '鼓楼区', 'street_id': '5117593dc4a7f6f2631809ff', 'detail': 1, 'uid': '5117593dc4a7f6f2631809ff', 'detail_info': {'tag': '金融;atm', 'navi_location': {'lng': 118.73622499983, 'lat': 32.03763701741}, 'type': 'life', 'detail_url': 'http://api.map.baidu.com/place/detail?uid=5117593dc4a7f6f2631809ff&output=html&source=placeapi_v2', 'overall_rating': '4.0', 'image_num': '13', 'comment_num': '1', 'children': [], 'lat': 32.033924901783195, 'lng': 118.72449232723308}}"
"{'name': '南京国资置业公司', 'location': {'lat': 32.0399657039742, 'lng': 118.72415010474045}, 'address': '江苏省南京市鼓楼区清江南路19号南大苏富特科技创新园1号楼11楼东', 'province': '江苏省', 'city': '南京市', 'area': '鼓楼区', 'street_id': '1a3306938f1e989c0c0e6bbe', 'detail': 1, 'uid': '1a3306938f1e989c0c0e6bbe', 'detail_info': {'tag': '公司企业;公司', 'type': 'enterprise', 'detail_url': 'http://api.map.baidu.com/place/detail?uid=1a3306938f1e989c0c0e6bbe&output=html&source=placeapi_v2', 'children': [], 'lat': 32.0399657039742, 'lng': 118.72415010474045}}"
"{'name': '中国光大银行24小时自助银行(汇文社区支行)', 'location': {'lat': 32.04206615825456, 'lng': 118.7247785865065}, 'address': '江苏省南京市鼓楼区汉中门大街420附近', 'province': '江苏省', 'city': '南京市', 'area': '鼓楼区', 'detail': 1, 'uid': '20414109e0fde07b40afe65b', 'detail_info': {'tag': '金融;atm', 'type': 'life', 'detail_url': 'http://api.map.baidu.com/place/detail?uid=20414109e0fde07b40afe65b&output=html&source=placeapi_v2', 'image_num': '1', 'children': [], 'lat': 32.04206615825456, 'lng': 118.7247785865065}}"
"{'name': '中国人民保险', 'location': {'lat': 32.04906105050896, 'lng': 118.72734313952621}, 'address': '南京市鼓楼区清凉门大街与锦江路交叉路口西侧(苏宁馨瑰园)', 'province': '江苏省', 'city': '南京市', 'area': '鼓楼区', 'street_id': 'dc0713a4492dd185f942b2e7', 'detail': 1, 'uid': 'dc0713a4492dd185f942b2e7', 'detail_info': {'tag': '金融;投资理财', 'type': 'life', 'detail_url': 'http://api.map.baidu.com/place/detail?uid=dc0713a4492dd185f942b2e7&output=html&source=placeapi_v2', 'overall_rating': '0.0', 'image_num': '2', 'children': [], 'lat': 32.04906105050896, 'lng': 118.72734313952621}}"
"{'name': '招商银行24小时自助银行(苏宁环球商贸城)', 'location': {'lat': 32.046240741615925, 'lng': 118.72510389043056}, 'address': '南京市鼓楼区清江路99号苏宁环球商贸城F1', 'province': '江苏省', 'city': '南京市', 'area': '鼓楼区', 'street_id': '157fd2c04d5d9a433517dcb3', 'detail': 1, 'uid': '157fd2c04d5d9a433517dcb3', 'detail_info': {'tag': '金融;atm', 'navi_location': {'lng': 118.73707886616, 'lat': 32.049883415207}, 'indoor_floor': 'F1', 'type': 'life', 'detail_url': 'http://api.map.baidu.com/place/detail?uid=157fd2c04d5d9a433517dcb3&output=html&source=placeapi_v2', 'overall_rating': '4.0', 'image_num': '7', 'comment_num': '1', 'children': [], 'lat': 32.046240741615925, 'lng': 118.72510389043056}}"
"{'name': '江苏闳科投资管理有限公司', 'location': {'lat': 32.0824948617927, 'lng': 118.72785156042373}, 'address': '鼓楼区南通路118号茂悦港5幢905室', 'province': '江苏省', 'city': '南京市', 'area': '鼓楼区', 'street_id': 'cd455c2c4874107b7bf79674', 'telephone': '(025)83653899', 'detail': 1, 'uid': 'cd455c2c4874107b7bf79674', 'detail_info': {'tag': '金融;投资理财', 'type': 'life', 'detail_url': 'http://api.map.baidu.com/place/detail?uid=cd455c2c4874107b7bf79674&output=html&source=placeapi_v2', 'image_num': '1', 'children': [], 'lat': 32.0824948617927, 'lng': 118.72785156042373}}"
"{'name': '南京银行24小时自助银行(唐山路)', 'location': {'lat': 32.08175921106831, 'lng': 118.7277844388069}, 'address': '江苏省南京市鼓楼区南通路118号6号楼负101', 'province': '江苏省', 'city': '南京市', 'area': '鼓楼区', 'street_id': '423af72f6369e409441a32a0', 'detail': 1, 'uid': '423af72f6369e409441a32a0', 'detail_info': {'tag': '金融;atm', 'type': 'life', 'detail_url': 'http://api.map.baidu.com/place/detail?uid=423af72f6369e409441a32a0&output=html&source=placeapi_v2', 'image_num': '4', 'children': [], 'lat': 32.08175921106831, 'lng': 118.7277844388069}}"
"{'name': '宁波银行(南京分行)', 'location': {'lat': 32.01158557590392, 'lng': 118.72878209638532}, 'address': '江苏省南京市建邺区江东中路233号', 'province': '江苏省', 'city': '南京市', 'area': '建邺区', 'street_id': 'c368cb7a55bbf1ded6b74e6e', 'telephone': '(025)51808088', 'detail': 1, 'uid': 'c368cb7a55bbf1ded6b74e6e', 'detail_info': {'tag': '金融;银行', 'navi_location': {'lng': 118.74005520474, 'lat': 32.01472414385}, 'type': 'life', 'detail_url': 'http://api.map.baidu.com/place/detail?uid=c368cb7a55bbf1ded6b74e6e&output=html&source=placeapi_v2', 'overall_rating': '3.7', 'image_num': '3', 'comment_num': '3', 'children': [], 'lat': 32.01158557590392, 'lng': 118.72878209638532}}"
"{'name': '南京交通事故保险理赔服务中心', 'location': {'lat': 32.01772948198592, 'lng': 118.74239466845958}, 'address': '江苏省南京市建邺区新城科技园黄山路2号', 'province': '江苏省', 'city': '南京市', 'area': '建邺区', 'street_id': 'a96d27452bd2dd37c9c3dbf3', 'detail': 1, 'uid': 'a96d27452bd2dd37c9c3dbf3', 'detail_info': {'tag': '金融;投资理财', 'navi_location': {'lng': 118.7549409984, 'lat': 32.021340532891}, 'type': 'life', 'detail_url': 'http://api.map.baidu.com/place/detail?uid=a96d27452bd2dd37c9c3dbf3&output=html&source=placeapi_v2', 'overall_rating': '4.5', 'image_num': '8', 'comment_num': '8', 'children': [], 'lat': 32.01772948198592, 'lng': 118.74239466845958}}"
"{'name': '中国农业银行(南京建邺支行)', 'location': {'lat': 32.01902428044219, 'lng': 118.73230305388167}, 'address': '江苏省南京市建邺区江东中路207号', 'province': '江苏省', 'city': '南京市', 'area': '建邺区', 'street_id': '6d8c3b090ab0647b2d473386', 'telephone': '(025)85669058', 'detail': 1, 'uid': '6d8c3b090ab0647b2d473386', 'detail_info': {'tag': '金融;银行', 'navi_location': {'lng': 118.74354246805, 'lat': 32.022136436088}, 'type': 'life', 'detail_url': 'http://api.map.baidu.com/place/detail?uid=6d8c3b090ab0647b2d473386&output=html&source=placeapi_v2', 'overall_rating': '4.3', 'image_num': '13', 'comment_num': '12', 'children': [], 'lat': 32.01902428044219, 'lng': 118.73230305388167}}"
"{'name': '中国建设银行(南京兴隆大街支行)', 'location': {'lat': 32.01761840837804, 'lng': 118.73197304427184}, 'address': '江苏省南京市建邺区江东中路211号', 'province': '江苏省', 'city': '南京市', 'area': '建邺区', 'street_id': '0ba23b1ba7130407734b876f', 'telephone': '(025)88867360', 'detail': 1, 'uid': '0ba23b1ba7130407734b876f', 'detail_info': {'tag': '金融;银行', 'navi_location': {'lng': 118.74309302065, 'lat': 32.021422741551}, 'type': 'life', 'detail_url': 'http://api.map.baidu.com/place/detail?uid=0ba23b1ba7130407734b876f&output=html&source=placeapi_v2', 'overall_rating': '4.7', 'image_num': '10', 'comment_num': '3', 'children': [], 'lat': 32.01761840837804, 'lng': 118.73197304427184}}"
"{'name': '渤海银行(南京分行)', 'location': {'lat': 32.01708707125754, 'lng': 118.73145396324392}, 'address': '江苏省南京市建邺区江东中路213号', 'province': '江苏省', 'city': '南京市', 'area': '建邺区', 'street_id': '9de86b5d8736f262a8175a73', 'telephone': '(025)83659888', 'detail': 1, 'uid': '9de86b5d8736f262a8175a73', 'detail_info': {'tag': '金融;银行', 'navi_location': {'lng': 118.7426263177, 'lat': 32.020538356653}, 'type': 'life', 'detail_url': 'http://api.map.baidu.com/place/detail?uid=9de86b5d8736f262a8175a73&output=html&source=placeapi_v2', 'overall_rating': '3.3', 'image_num': '6', 'comment_num': '6', 'children': [], 'lat': 32.01708707125754, 'lng': 118.73145396324392}}"
"{'name': '南京银行(南京分行黄山路支行)', 'location': {'lat': 32.016984136555834, 'lng': 118.7422897459007}, 'address': '黄山路10-1号', 'province': '江苏省', 'city': '南京市', 'area': '建邺区', 'street_id': '0ef9344dda7d10f5cf06a4d8', 'telephone': '(025)58829557', 'detail': 1, 'uid': '0ef9344dda7d10f5cf06a4d8', 'detail_info': {'tag': '金融;银行', 'navi_location': {'lng': 118.75443728077, 'lat': 32.020372526622}, 'type': 'life', 'detail_url': 'http://api.map.baidu.com/place/detail?uid=0ef9344dda7d10f5cf06a4d8&output=html&source=placeapi_v2', 'overall_rating': '3.9', 'image_num': '15', 'comment_num': '11', 'children': [], 'lat': 32.016984136555834, 'lng': 118.7422897459007}}"
"{'name': '徽商银行(南京河西支行)', 'location': {'lat': 32.018678886795215, 'lng': 118.73212542561281}, 'address': '江东中路209号', 'province': '江苏省', 'city': '南京市', 'area': '建邺区', 'street_id': '6b746c2b912b52a53c9a5ea2', 'telephone': '(025)83119762', 'detail': 1, 'uid': '6b746c2b912b52a53c9a5ea2', 'detail_info': {'tag': '金融;银行', 'navi_location': {'lng': 118.74348058648, 'lat': 32.02246749962}, 'type': 'life', 'detail_url': 'http://api.map.baidu.com/place/detail?uid=6b746c2b912b52a53c9a5ea2&output=html&source=placeapi_v2', 'overall_rating': '4.0', 'image_num': '10', 'comment_num': '8', 'children': [], 'lat': 32.018678886795215, 'lng': 118.73212542561281}}"
"{'name': '中国邮政储蓄银行(河西新城营业所)', 'location': {'lat': 32.01696348205925, 'lng': 118.7281874541288}, 'address': '江苏省南京市建邺区兴隆大街151号', 'province': '江苏省', 'city': '南京市', 'area': '建邺区', 'street_id': '1ad12b2c6cd0336482a12e43', 'telephone': '(025)87771500', 'detail': 1, 'uid': '1ad12b2c6cd0336482a12e43', 'detail_info': {'tag': '金融;银行', 'navi_location': {'lng': 118.74011703511, 'lat': 32.020940956524}, 'type': 'life', 'detail_url': 'http://api.map.baidu.com/place/detail?uid=1ad12b2c6cd0336482a12e43&output=html&source=placeapi_v2', 'overall_rating': '4.2', 'image_num': '7', 'comment_num': '5', 'children': [], 'lat': 32.01696348205925, 'lng': 118.7281874541288}}"
"{'name': '国泰君安证券(河西庐山路营业部)', 'location': {'lat': 32.012013916279834, 'lng': 118.73179853216367}, 'address': '庐山路94号铂金时代公寓2号楼', 'province': '江苏省', 'city': '南京市', 'area': '建邺区', 'street_id': '253b1447af220ef5c6f025af', 'telephone': '(025)83606855', 'detail': 1, 'uid': '253b1447af220ef5c6f025af', 'detail_info': {'tag': '金融;投资理财', 'type': 'life', 'detail_url': 'http://api.map.baidu.com/place/detail?uid=253b1447af220ef5c6f025af&output=html&source=placeapi_v2', 'overall_rating': '0.0', 'image_num': '3', 'comment_num': '0', 'children': [], 'lat': 32.012013916279834, 'lng': 118.73179853216367}}"
"{'name': '华夏银行', 'location': {'lat': 32.0167552899162, 'lng': 118.73530761333812}, 'address': '南京市建邺区庐山路与怡康街交叉路口往西南约200米(宏图上水云锦)', 'province': '江苏省', 'city': '南京市', 'area': '建邺区', 'street_id': '81181fbf2bcbdee9f8221345', 'detail': 1, 'uid': '81181fbf2bcbdee9f8221345', 'detail_info': {'tag': '金融;银行', 'navi_location': {'lng': 118.74694426209, 'lat': 32.020196699872}, 'type': 'life', 'detail_url': 'http://api.map.baidu.com/place/detail?uid=81181fbf2bcbdee9f8221345&output=html&source=placeapi_v2', 'image_num': '5', 'children': [], 'lat': 32.0167552899162, 'lng': 118.73530761333812}}"
"{'name': '中国人民保险', 'location': {'lat': 32.017680717267424, 'lng': 118.74288861302968}, 'address': '江苏省南京市建邺区黄山路8号西北80米', 'province': '江苏省', 'city': '南京市', 'area': '建邺区', 'street_id': '6fa0bd44635d1015b72655fd', 'detail': 1, 'uid': '6fa0bd44635d1015b72655fd', 'detail_info': {'tag': '金融;投资理财', 'navi_location': {'lng': 118.75482975045, 'lat': 32.021393604623}, 'type': 'life', 'detail_url': 'http://api.map.baidu.com/place/detail?uid=6fa0bd44635d1015b72655fd&output=html&source=placeapi_v2', 'image_num': '10', 'children': [], 'lat': 32.017680717267424, 'lng': 118.74288861302968}}"
"{'name': '中国银河证券(南京江东中路营业部)', 'location': {'lat': 32.01637093203699, 'lng': 118.73144720496894}, 'address': '江苏省南京市建邺区江东中路213号凤凰文化广场B座3楼', 'province': '江苏省', 'city': '南京市', 'area': '建邺区', 'street_id': '10da427ededbc5eb1ce99970', 'telephone': '025-84205558', 'detail': 1, 'uid': '10da427ededbc5eb1ce99970', 'detail_info': {'tag': '金融;投资理财', 'navi_location': {'lng': 118.74333573831, 'lat': 32.019471814979}, 'type': 'life', 'detail_url': 'http://api.map.baidu.com/place/detail?uid=10da427ededbc5eb1ce99970&output=html&source=placeapi_v2', 'overall_rating': '3.7', 'image_num': '10', 'comment_num': '3', 'children': [], 'lat': 32.01637093203699, 'lng': 118.73144720496894}}"
"{'name': '渤海银行同业业务营销中心', 'location': {'lat': 32.01562577689134, 'lng': 118.73108597487338}, 'address': '江苏省南京市建邺区河西中央商务区江东中路213号渤海银行同业业务营销中心', 'province': '江苏省', 'city': '南京市', 'area': '建邺区', 'detail': 1, 'uid': 'da7fe50d09391a4c76e5b67a', 'detail_info': {'tag': '金融;其他', 'type': 'life', 'detail_url': 'http://api.map.baidu.com/place/detail?uid=da7fe50d09391a4c76e5b67a&output=html&source=placeapi_v2', 'image_num': '1', 'children': [], 'lat': 32.01562577689134, 'lng': 118.73108597487338}}"
"{'name': '中国太平保险', 'location': {'lat': 32.012036551456255, 'lng': 118.73008234644149}, 'address': '河西中央商务区江东中路229号凯旋城B座10楼', 'province': '江苏省', 'city': '南京市', 'area': '建邺区', 'detail': 1, 'uid': '3b05640858086978b13c815b', 'detail_info': {'tag': '金融;投资理财', 'type': 'life', 'detail_url': 'http://api.map.baidu.com/place/detail?uid=3b05640858086978b13c815b&output=html&source=placeapi_v2', 'image_num': '1', 'children': [], 'lat': 32.012036551456255, 'lng': 118.73008234644149}}"
"{'name': '阳光保险(江苏分公司)', 'location': {'lat': 32.01168442853994, 'lng': 118.73033490028826}, 'address': '南京市建邺区江东中路229号1幢第11层1101-1108室、12层1201-1208室', 'province': '江苏省', 'city': '南京市', 'area': '建邺区', 'telephone': '(025)83566000', 'detail': 1, 'uid': 'e70892688e31d66a724b878e', 'detail_info': {'tag': '金融;投资理财', 'type': 'life', 'detail_url': 'http://api.map.baidu.com/place/detail?uid=e70892688e31d66a724b878e&output=html&source=placeapi_v2', 'image_num': '1', 'children': [], 'lat': 32.01168442853994, 'lng': 118.73033490028826}}"
"{'name': '中银国际证券', 'location': {'lat': 32.012594700929604, 'lng': 118.72916516192338}, 'address': '江东中路231号一楼', 'province': '江苏省', 'city': '南京市', 'area': '建邺区', 'street_id': 'd3fbc14beb20600149fc8d52', 'telephone': '(025)52339810', 'detail': 1, 'uid': 'd3fbc14beb20600149fc8d52', 'detail_info': {'tag': '金融;投资理财', 'type': 'life', 'detail_url': 'http://api.map.baidu.com/place/detail?uid=d3fbc14beb20600149fc8d52&output=html&source=placeapi_v2', 'image_num': '4', 'children': [], 'lat': 32.012594700929604, 'lng': 118.72916516192338}}"
"{'name': '齐天理赔', 'location': {'lat': 32.01853708501411, 'lng': 118.74347847147978}, 'address': '新城科技园黄山路2号', 'province': '江苏省', 'city': '南京市', 'area': '建邺区', 'detail': 1, 'uid': '4edef7414395fffce115f9b7', 'detail_info': {'tag': '金融;投资理财', 'type': 'life', 'detail_url': 'http://api.map.baidu.com/place/detail?uid=4edef7414395fffce115f9b7&output=html&source=placeapi_v2', 'image_num': '1', 'children': [], 'lat': 32.01853708501411, 'lng': 118.74347847147978}}"
"{'name': '定律安侯保险代理有限公司', 'location': {'lat': 32.016960586376854, 'lng': 118.73166370124746}, 'address': '建邺区江东中路215号凤凰文化广场b座19楼', 'province': '江苏省', 'city': '南京市', 'area': '建邺区', 'telephone': '(025)83759553', 'detail': 1, 'uid': 'a7d91306332d02578c55ecec', 'detail_info': {'tag': '金融;投资理财', 'type': 'life', 'detail_url': 'http://api.map.baidu.com/place/detail?uid=a7d91306332d02578c55ecec&output=html&source=placeapi_v2', 'overall_rating': '3.0', 'image_num': '1', 'children': [], 'lat': 32.016960586376854, 'lng': 118.73166370124746}}"
"{'name': '中华联合财产保险股份有限公司江苏分公司城中营销服务部', 'location': {'lat': 32.017619417194645, 'lng': 118.7319770385988}, 'address': '江东中路211号1001室、1002室', 'province': '江苏省', 'city': '南京市', 'area': '建邺区', 'detail': 1, 'uid': 'e88842d445086357cf06a460', 'detail_info': {'tag': '金融;投资理财', 'type': 'life', 'detail_url': 'http://api.map.baidu.com/place/detail?uid=e88842d445086357cf06a460&output=html&source=placeapi_v2', 'image_num': '1', 'children': [], 'lat': 32.017619417194645, 'lng': 118.7319770385988}}"
"{'name': '南京银行24小时自助银行(南京分行黄山路支行)', 'location': {'lat': 32.01687786230238, 'lng': 118.74232484391247}, 'address': '黄山路10-4', 'province': '江苏省', 'city': '南京市', 'area': '建邺区', 'street_id': '6d6efa0738cb0250734b87d0', 'detail': 1, 'uid': '6d6efa0738cb0250734b87d0', 'detail_info': {'tag': '金融;atm', 'navi_location': {'lng': 118.7548206021, 'lat': 32.020916399147}, 'type': 'life', 'detail_url': 'http://api.map.baidu.com/place/detail?uid=6d6efa0738cb0250734b87d0&output=html&source=placeapi_v2', 'overall_rating': '5.0', 'image_num': '4', 'comment_num': '2', 'children': [], 'lat': 32.01687786230238, 'lng': 118.74232484391247}}"
"{'name': '中国工商银行24小时自助银行(南京江东中路支行)', 'location': {'lat': 32.016548480169064, 'lng': 118.73164885623848}, 'address': '江苏省南京市建邺区江东中路215', 'province': '江苏省', 'city': '南京市', 'area': '建邺区', 'street_id': 'b163c0350048ba67b6265513', 'detail': 1, 'uid': 'b163c0350048ba67b6265513', 'detail_info': {'tag': '金融;atm', 'type': 'life', 'detail_url': 'http://api.map.baidu.com/place/detail?uid=b163c0350048ba67b6265513&output=html&source=placeapi_v2', 'overall_rating': '0.0', 'image_num': '5', 'comment_num': '1', 'children': [], 'lat': 32.016548480169064, 'lng': 118.73164885623848}}"
"{'name': '中国建设银行24小时自助银行(南京兴隆大街分理处)', 'location': {'lat': 32.01766516262242, 'lng': 118.73185918010114}, 'address': '江苏省南京市建邺区江东中路211', 'province': '江苏省', 'city': '南京市', 'area': '建邺区', 'street_id': 'e83be1260254c15477026951', 'detail': 1, 'uid': 'e83be1260254c15477026951', 'detail_info': {'tag': '金融;atm', 'navi_location': {'lng': 118.74310184381, 'lat': 32.02147171581}, 'type': 'life', 'detail_url': 'http://api.map.baidu.com/place/detail?uid=e83be1260254c15477026951&output=html&source=placeapi_v2', 'image_num': '2', 'children': [], 'lat': 32.01766516262242, 'lng': 118.73185918010114}}"
"{'name': '一英大财险', 'location': {'lat': 32.01765602602648, 'lng': 118.74284854449854}, 'address': '新城科技园黄山路2号理赔中心齐天修理厂2楼', 'province': '江苏省', 'city': '南京市', 'area': '建邺区', 'detail': 1, 'uid': '704c33b2b3f841430c0e6b3a', 'detail_info': {'tag': '金融;投资理财', 'type': 'life', 'detail_url': 'http://api.map.baidu.com/place/detail?uid=704c33b2b3f841430c0e6b3a&output=html&source=placeapi_v2', 'image_num': '1', 'children': [], 'lat': 32.01765602602648, 'lng': 118.74284854449854}}"
"{'name': '宁波银行24小时自助银行(南京分行)', 'location': {'lat': 32.01178531777416, 'lng': 118.72891977289311}, 'address': '南京市建邺区江东中路233号', 'province': '江苏省', 'city': '南京市', 'area': '建邺区', 'street_id': '1a424db6d8191bbbf4e73b94', 'detail': 1, 'uid': '1a424db6d8191bbbf4e73b94', 'detail_info': {'tag': '金融;atm', 'navi_location': {'lng': 118.73984383076, 'lat': 32.015063477924}, 'type': 'life', 'detail_url': 'http://api.map.baidu.com/place/detail?uid=1a424db6d8191bbbf4e73b94&output=html&source=placeapi_v2', 'overall_rating': '0.0', 'image_num': '12', 'comment_num': '6', 'children': [], 'lat': 32.01178531777416, 'lng': 118.72891977289311}}"
"{'name': '中国银行24小时自助银行(南京河西支行)', 'location': {'lat': 32.012360090697356, 'lng': 118.72904943882145}, 'address': '江苏省南京市建邺区江东中路227号-3层西南80米', 'province': '江苏省', 'city': '南京市', 'area': '建邺区', 'street_id': '55605a4e917b876f2cb908be', 'detail': 1, 'uid': '55605a4e917b876f2cb908be', 'detail_info': {'tag': '金融;atm', 'type': 'life', 'detail_url': 'http://api.map.baidu.com/place/detail?uid=55605a4e917b876f2cb908be&output=html&source=placeapi_v2', 'image_num': '8', 'children': [], 'lat': 32.012360090697356, 'lng': 118.72904943882145}}"
"{'name': '徽商银行24小时自助银行(南京河西支行)', 'location': {'lat': 32.01846848602302, 'lng': 118.73194974320546}, 'address': '江苏省南京市建邺区江东中路209号', 'province': '江苏省', 'city': '南京市', 'area': '建邺区', 'street_id': '17089d0e8700da394e776e25', 'detail': 1, 'uid': '17089d0e8700da394e776e25', 'detail_info': {'tag': '金融;atm', 'type': 'life', 'detail_url': 'http://api.map.baidu.com/place/detail?uid=17089d0e8700da394e776e25&output=html&source=placeapi_v2', 'image_num': '12', 'children': [], 'lat': 32.01846848602302, 'lng': 118.73194974320546}}"
"{'name': '申万宏源证券', 'location': {'lat': 32.01856212189526, 'lng': 118.74347445257281}, 'address': '江苏省南京市建邺区黄山路2号西50米', 'province': '江苏省', 'city': '南京市', 'area': '建邺区', 'street_id': '5a0cb3372b0ac39e83a00cdc', 'detail': 1, 'uid': '5a0cb3372b0ac39e83a00cdc', 'detail_info': {'tag': '公司企业;公司', 'navi_location': {'lng': 118.75547441041, 'lat': 32.022239408807}, 'type': 'enterprise', 'detail_url': 'http://api.map.baidu.com/place/detail?uid=5a0cb3372b0ac39e83a00cdc&output=html&source=placeapi_v2', 'overall_rating': '5.0', 'comment_num': '2', 'children': [], 'lat': 32.01856212189526, 'lng': 118.74347445257281}}"
"{'name': '渤海银行24小时自助银行服务(南京分行)', 'location': {'lat': 32.01685160224696, 'lng': 118.73129628029297}, 'address': '南京市建邺区江东中路与兴隆大街交叉路口往东约100米(凤凰文化广场)', 'province': '江苏省', 'city': '南京市', 'area': '建邺区', 'street_id': 'bb8cc8f76ea149313517dc9d', 'detail': 1, 'uid': 'bb8cc8f76ea149313517dc9d', 'detail_info': {'tag': '金融;atm', 'navi_location': {'lng': 118.74276149178, 'lat': 32.020677857895}, 'type': 'life', 'detail_url': 'http://api.map.baidu.com/place/detail?uid=bb8cc8f76ea149313517dc9d&output=html&source=placeapi_v2', 'image_num': '7', 'children': [], 'lat': 32.01685160224696, 'lng': 118.73129628029297}}"
"{'name': '华隆新寓速递易', 'location': {'lat': 32.018216311346336, 'lng': 118.73883789501771}, 'address': '新城科技园应天西路华隆新寓17栋', 'province': '江苏省', 'city': '南京市', 'area': '建邺区', 'detail': 1, 'uid': '42162fb9d5581532a5da3920', 'detail_info': {'detail_url': 'http://api.map.baidu.com/place/detail?uid=42162fb9d5581532a5da3920&output=html&source=placeapi_v2', 'children': [], 'lat': 32.018216311346336, 'lng': 118.73883789501771}}"
"{'name': '江苏源泓益健康产业投资有限公司', 'location': {'lat': 32.01644541540083, 'lng': 118.7316299154115}, 'address': '商业文化旅游中心区江东中路215号凤凰文化广场B座1806室', 'province': '江苏省', 'city': '南京市', 'area': '建邺区', 'detail': 1, 'uid': 'b513dd57af519ebc2806cee4', 'detail_info': {'tag': '公司企业;公司', 'type': 'enterprise', 'detail_url': 'http://api.map.baidu.com/place/detail?uid=b513dd57af519ebc2806cee4&output=html&source=placeapi_v2', 'children': [], 'lat': 32.01644541540083, 'lng': 118.7316299154115}}"
"{'name': '招商银行(南湖路支行)', 'location': {'lat': 32.02396630345694, 'lng': 118.74745200595275}, 'address': '南京市建邺区南湖路26号', 'province': '江苏省', 'city': '南京市', 'area': '建邺区', 'street_id': '061c6c13fd6e089fb34c4998', 'telephone': '(025)86305517,(025)86305505', 'detail': 1, 'uid': '061c6c13fd6e089fb34c4998', 'detail_info': {'tag': '金融;银行', 'navi_location': {'lng': 118.75941936397, 'lat': 32.027529271993}, 'type': 'life', 'detail_url': 'http://api.map.baidu.com/place/detail?uid=061c6c13fd6e089fb34c4998&output=html&source=placeapi_v2', 'overall_rating': '4.7', 'image_num': '11', 'comment_num': '5', 'children': [], 'lat': 32.02396630345694, 'lng': 118.74745200595275}}"
"{'name': '中国银行(南京云锦路支行)', 'location': {'lat': 32.02554482034359, 'lng': 118.7367767533534}, 'address': '江苏省南京市建邺区所街169号', 'province': '江苏省', 'city': '南京市', 'area': '建邺区', 'street_id': '8a650fbe7a3d082ee6e9650a', 'telephone': '(025)83436989', 'detail': 1, 'uid': '8a650fbe7a3d082ee6e9650a', 'detail_info': {'tag': '金融;银行', 'navi_location': {'lng': 118.74833183957, 'lat': 32.029344924415}, 'type': 'life', 'detail_url': 'http://api.map.baidu.com/place/detail?uid=8a650fbe7a3d082ee6e9650a&output=html&source=placeapi_v2', 'overall_rating': '5.0', 'image_num': '10', 'comment_num': '2', 'children': [], 'lat': 32.02554482034359, 'lng': 118.7367767533534}}"
"{'name': '中国农业银行(南京云锦路支行)', 'location': {'lat': 32.02788728988508, 'lng': 118.73739506247311}, 'address': '江苏省南京市建邺区云锦路139号', 'province': '江苏省', 'city': '南京市', 'area': '建邺区', 'street_id': 'f8eb8a18559d74f2b04c492c', 'telephone': '(025)85635702', 'detail': 1, 'uid': 'f8eb8a18559d74f2b04c492c', 'detail_info': {'tag': '金融;银行', 'navi_location': {'lng': 118.74891732546, 'lat': 32.031491932837}, 'type': 'life', 'detail_url': 'http://api.map.baidu.com/place/detail?uid=f8eb8a18559d74f2b04c492c&output=html&source=placeapi_v2', 'overall_rating': '4.0', 'image_num': '11', 'comment_num': '12', 'children': [], 'lat': 32.02788728988508, 'lng': 118.73739506247311}}"
"{'name': '中国平安财产保险股份有限公司南京市营业一部', 'location': {'lat': 32.01959191379534, 'lng': 118.73262941197645}, 'address': '江东中路201号', 'province': '江苏省', 'city': '南京市', 'area': '建邺区', 'street_id': '3e1d3993bb5f14cbeedfca1a', 'detail': 1, 'uid': '3e1d3993bb5f14cbeedfca1a', 'detail_info': {'tag': '金融;投资理财', 'navi_location': {'lng': 118.74416906489, 'lat': 32.023147053864}, 'type': 'life', 'detail_url': 'http://api.map.baidu.com/place/detail?uid=3e1d3993bb5f14cbeedfca1a&output=html&source=placeapi_v2', 'overall_rating': '1.7', 'image_num': '9', 'comment_num': '6', 'children': [], 'lat': 32.01959191379534, 'lng': 118.73262941197645}}"
"{'name': '中国银行(南京万达广场支行)', 'location': {'lat': 32.031104222862695, 'lng': 118.73307963842426}, 'address': '南京市建邺区江东中路108号-7,-8,-9号', 'province': '江苏省', 'city': '南京市', 'area': '建邺区', 'street_id': '09cab499af1f2a07be4842e1', 'telephone': '(025)58353781', 'detail': 1, 'uid': '09cab499af1f2a07be4842e1', 'detail_info': {'tag': '金融;银行', 'navi_location': {'lng': 118.74484811918, 'lat': 32.034579422925}, 'type': 'life', 'detail_url': 'http://api.map.baidu.com/place/detail?uid=09cab499af1f2a07be4842e1&output=html&source=placeapi_v2', 'overall_rating': '2.2', 'image_num': '9', 'comment_num': '10', 'children': [], 'lat': 32.031104222862695, 'lng': 118.73307963842426}}"
"{'name': '中国工商银行(燕山路支行)', 'location': {'lat': 32.02415859201938, 'lng': 118.72823164857945}, 'address': '通江路16号', 'province': '江苏省', 'city': '南京市', 'area': '建邺区', 'street_id': '606ab0d05bb57f570e3dda55', 'telephone': '(025)86422628,95588', 'detail': 1, 'uid': '606ab0d05bb57f570e3dda55', 'detail_info': {'tag': '金融;银行', 'navi_location': {'lng': 118.7397544808, 'lat': 32.027824099155}, 'type': 'life', 'detail_url': 'http://api.map.baidu.com/place/detail?uid=606ab0d05bb57f570e3dda55&output=html&source=placeapi_v2', 'overall_rating': '3.9', 'image_num': '15', 'comment_num': '13', 'children': [], 'lat': 32.02415859201938, 'lng': 118.72823164857945}}"
"{'name': '中国工商银行(南京应天大街支行)', 'location': {'lat': 32.020995848665976, 'lng': 118.7448885477598}, 'address': '江苏省南京市建邺区南湖路58号', 'province': '江苏省', 'city': '南京市', 'area': '建邺区', 'street_id': '060f5e533b2f08d7091cc7af', 'telephone': '(025)86441620,(025)86566076', 'detail': 1, 'uid': '060f5e533b2f08d7091cc7af', 'detail_info': {'tag': '金融;银行', 'navi_location': {'lng': 118.75703843217, 'lat': 32.024174705032}, 'type': 'life', 'detail_url': 'http://api.map.baidu.com/place/detail?uid=060f5e533b2f08d7091cc7af&output=html&source=placeapi_v2', 'overall_rating': '3.1', 'image_num': '13', 'comment_num': '13', 'children': [], 'lat': 32.020995848665976, 'lng': 118.7448885477598}}"
"{'name': '江苏银行(河西支行)', 'location': {'lat': 32.02263953203391, 'lng': 118.73420436620978}, 'address': '建邺区应天大街901号河西指挥部1楼', 'province': '江苏省', 'city': '南京市', 'area': '建邺区', 'street_id': '16b6b583cc18c7b0250bd068', 'telephone': '95319,(025)58588482,(025)58588477', 'detail': 1, 'uid': '16b6b583cc18c7b0250bd068', 'detail_info': {'tag': '金融;银行', 'navi_location': {'lng': 118.74584577728, 'lat': 32.026604687968}, 'type': 'life', 'detail_url': 'http://api.map.baidu.com/place/detail?uid=16b6b583cc18c7b0250bd068&output=html&source=placeapi_v2', 'overall_rating': '0.0', 'image_num': '13', 'children': [], 'lat': 32.02263953203391, 'lng': 118.73420436620978}}"
"{'name': '中国建设银行(南京应天路支行)', 'location': {'lat': 32.02340095991958, 'lng': 118.74703508412274}, 'address': '江苏省南京市建邺区南湖路30-1', 'province': '江苏省', 'city': '南京市', 'area': '建邺区', 'detail': 1, 'uid': '8f1981502d02cb46ec74f8a5', 'detail_info': {'tag': '金融;银行', 'type': 'life', 'detail_url': 'http://api.map.baidu.com/place/detail?uid=8f1981502d02cb46ec74f8a5&output=html&source=placeapi_v2', 'overall_rating': '5.0', 'image_num': '1', 'comment_num': '2', 'children': [], 'lat': 32.02340095991958, 'lng': 118.74703508412274}}"
"{'name': '中国工商银行(万达广场支行)', 'location': {'lat': 32.03149461511557, 'lng': 118.72982309473653}, 'address': '集庆门大街222之6-9', 'province': '江苏省', 'city': '南京市', 'area': '建邺区', 'detail': 1, 'uid': '4e320d5ecfe9cc179fec2b5e', 'detail_info': {'tag': '金融;银行', 'navi_location': {'lng': 118.74153417763, 'lat': 32.034939812465}, 'type': 'life', 'detail_url': 'http://api.map.baidu.com/place/detail?uid=4e320d5ecfe9cc179fec2b5e&output=html&source=placeapi_v2', 'overall_rating': '2.0', 'image_num': '1', 'comment_num': '1', 'children': [], 'lat': 32.03149461511557, 'lng': 118.72982309473653}}"
"{'name': '中国建设银行(南京江东南路支行)', 'location': {'lat': 32.0307694382524, 'lng': 118.73526252182145}, 'address': '南京市建邺区江东中路与集庆门大街交叉路口北侧(恒盈名居)', 'province': '江苏省', 'city': '南京市', 'area': '建邺区', 'street_id': '59eeb2a50c6be245d4851fed', 'telephone': '(025)86413190', 'detail': 1, 'uid': '59eeb2a50c6be245d4851fed', 'detail_info': {'tag': '金融;银行', 'navi_location': {'lng': 118.74707621957, 'lat': 32.034145563813}, 'type': 'life', 'detail_url': 'http://api.map.baidu.com/place/detail?uid=59eeb2a50c6be245d4851fed&output=html&source=placeapi_v2', 'overall_rating': '3.1', 'image_num': '14', 'comment_num': '15', 'children': [], 'lat': 32.0307694382524, 'lng': 118.73526252182145}}"
"{'name': '江苏保险综合大厦', 'location': {'lat': 32.028715223606035, 'lng': 118.73774749921607}, 'address': '南京市建邺区云锦路129号', 'province': '江苏省', 'city': '南京市', 'area': '建邺区', 'street_id': '4bc35311a69864f98d77277d', 'detail': 1, 'uid': '4bc35311a69864f98d77277d', 'detail_info': {'tag': '房地产;写字楼', 'navi_location': {'lng': 118.74914290165, 'lat': 32.032433662124}, 'type': 'house', 'detail_url': 'http://api.map.baidu.com/place/detail?uid=4bc35311a69864f98d77277d&output=html&source=placeapi_v2', 'overall_rating': '4', 'children': [], 'lat': 32.028715223606035, 'lng': 118.73774749921607}}"
"{'name': '南京市交通事故保险理赔服务中心(应天大街店)', 'location': {'lat': 32.02425386827305, 'lng': 118.7290486860293}, 'address': '江苏省南京市建邺区应天大街927号', 'province': '江苏省', 'city': '南京市', 'area': '建邺区', 'street_id': '8af9e568e483f6e1b4265515', 'detail': 1, 'uid': '8af9e568e483f6e1b4265515', 'detail_info': {'tag': '金融;投资理财', 'navi_location': {'lng': 118.74091153243, 'lat': 32.028123230876}, 'type': 'life', 'detail_url': 'http://api.map.baidu.com/place/detail?uid=8af9e568e483f6e1b4265515&output=html&source=placeapi_v2', 'image_num': '7', 'children': [], 'lat': 32.02425386827305, 'lng': 118.7290486860293}}"
"{'name': '事故理赔中北点', 'location': {'lat': 32.02440425404669, 'lng': 118.7291264122049}, 'address': '江苏省南京市建邺区应天大街927-1', 'province': '江苏省', 'city': '南京市', 'area': '建邺区', 'street_id': 'e9cacc7001c7a4146e20b9e6', 'detail': 1, 'uid': 'e9cacc7001c7a4146e20b9e6', 'detail_info': {'tag': '金融;投资理财', 'navi_location': {'lng': 118.74088149759, 'lat': 32.028138397416}, 'type': 'life', 'detail_url': 'http://api.map.baidu.com/place/detail?uid=e9cacc7001c7a4146e20b9e6&output=html&source=placeapi_v2', 'image_num': '5', 'children': [], 'lat': 32.02440425404669, 'lng': 118.7291264122049}}"
"{'name': '建信人寿保险(江苏分公司)', 'location': {'lat': 32.02027753016541, 'lng': 118.73110015911134}, 'address': '南京市建邺区江东中路156号', 'province': '江苏省', 'city': '南京市', 'area': '建邺区', 'street_id': '98a2ff85d62fa8132102620b', 'telephone': '(025)58866088', 'detail': 1, 'uid': '98a2ff85d62fa8132102620b', 'detail_info': {'tag': '金融;投资理财', 'navi_location': {'lng': 118.74296580532, 'lat': 32.023894424585}, 'type': 'life', 'detail_url': 'http://api.map.baidu.com/place/detail?uid=98a2ff85d62fa8132102620b&output=html&source=placeapi_v2', 'overall_rating': '0.0', 'image_num': '7', 'children': [], 'lat': 32.02027753016541, 'lng': 118.73110015911134}}"
"{'name': '中金典当', 'location': {'lat': 32.024668397142214, 'lng': 118.74054705752631}, 'address': '江苏省南京市建邺区所街乐基广场东区1楼门面房', 'province': '江苏省', 'city': '南京市', 'area': '建邺区', 'street_id': '', 'telephone': '18112900777', 'detail': 1, 'uid': '58504d2060c5a9efc9291570', 'detail_info': {'tag': '金融;典当行', 'navi_location': {'lng': 118.75237226505, 'lat': 32.028168127278}, 'type': 'life', 'detail_url': 'http://api.map.baidu.com/place/detail?uid=58504d2060c5a9efc9291570&output=html&source=placeapi_v2', 'overall_rating': '5.0', 'image_num': '9', 'comment_num': '3', 'children': [], 'lat': 32.024668397142214, 'lng': 118.74054705752631}}"
"{'name': '浙商银行(南京河西支行)', 'location': {'lat': 32.02709852718078, 'lng': 118.7373036754909}, 'address': '南京市建邺区云锦路157号', 'province': '江苏省', 'city': '南京市', 'area': '建邺区', 'street_id': '3b3cd719657c198c931fc992', 'telephone': '(025)85608602,(025)85608637', 'detail': 1, 'uid': '3b3cd719657c198c931fc992', 'detail_info': {'tag': '金融;银行', 'navi_location': {'lng': 118.74875392908, 'lat': 32.030822442932}, 'type': 'life', 'detail_url': 'http://api.map.baidu.com/place/detail?uid=3b3cd719657c198c931fc992&output=html&source=placeapi_v2', 'image_num': '6', 'children': [], 'lat': 32.02709852718078, 'lng': 118.7373036754909}}"
"{'name': '广州银行(南京新城支行)', 'location': {'lat': 32.01952167301798, 'lng': 118.73248660885261}, 'address': '江东中路203', 'province': '江苏省', 'city': '南京市', 'area': '建邺区', 'street_id': 'f65256d0c6a5d8d66e20b9b5', 'telephone': '96699,4008396699', 'detail': 1, 'uid': 'f65256d0c6a5d8d66e20b9b5', 'detail_info': {'tag': '金融;银行', 'navi_location': {'lng': 118.74415423027, 'lat': 32.023117352053}, 'type': 'life', 'detail_url': 'http://api.map.baidu.com/place/detail?uid=f65256d0c6a5d8d66e20b9b5&output=html&source=placeapi_v2', 'overall_rating': '4.0', 'image_num': '4', 'comment_num': '1', 'children': [], 'lat': 32.01952167301798, 'lng': 118.73248660885261}}"
"{'name': '国金证券(南京营业部)', 'location': {'lat': 32.031281463955, 'lng': 118.73331724610743}, 'address': '江苏省南京市建邺区江东中路108号203,204室', 'province': '江苏省', 'city': '南京市', 'area': '建邺区', 'street_id': '819af50c7f1b44cfa2d23097', 'telephone': '(025)82223306,(025)82223309', 'detail': 1, 'uid': '819af50c7f1b44cfa2d23097', 'detail_info': {'tag': '金融;投资理财', 'navi_location': {'lng': 118.74527591382, 'lat': 32.035937938283}, 'type': 'life', 'detail_url': 'http://api.map.baidu.com/place/detail?uid=819af50c7f1b44cfa2d23097&output=html&source=placeapi_v2', 'overall_rating': '4.7', 'image_num': '1', 'comment_num': '3', 'children': [], 'lat': 32.031281463955, 'lng': 118.73331724610743}}"
"{'name': '紫金农商银行(兴隆支行)', 'location': {'lat': 32.02269273082705, 'lng': 118.73232109175083}, 'address': '南京市建邺区江东中路140号', 'province': '江苏省', 'city': '南京市', 'area': '建邺区', 'street_id': '283047d4f3371c828e772777', 'telephone': '(025)86801617', 'detail': 1, 'uid': '283047d4f3371c828e772777', 'detail_info': {'tag': '金融;信用社', 'type': 'life', 'detail_url': 'http://api.map.baidu.com/place/detail?uid=283047d4f3371c828e772777&output=html&source=placeapi_v2', 'overall_rating': '4.5', 'image_num': '9', 'comment_num': '3', 'children': [], 'lat': 32.02269273082705, 'lng': 118.73232109175083}}"
"{'name': '中国人寿保险(南京市中心支公司)', 'location': {'lat': 32.024386227085294, 'lng': 118.72834322174134}, 'address': '江苏省南京市建邺区兴隆街道应天大街927号中北大厦2楼', 'province': '江苏省', 'city': '南京市', 'area': '建邺区', 'street_id': 'bb19f8793aee36e0ebe582c5', 'detail': 1, 'uid': 'bb19f8793aee36e0ebe582c5', 'detail_info': {'tag': '金融;投资理财', 'navi_location': {'lng': 118.7407012463, 'lat': 32.028170404435}, 'type': 'life', 'detail_url': 'http://api.map.baidu.com/place/detail?uid=bb19f8793aee36e0ebe582c5&output=html&source=placeapi_v2', 'image_num': '1', 'children': [], 'lat': 32.024386227085294, 'lng': 118.72834322174134}}"
"{'name': '第一创业证券', 'location': {'lat': 32.03125638006193, 'lng': 118.73322835224718}, 'address': '南京市建邺区江东中路108号河西万达广场C座802-803室', 'province': '江苏省', 'city': '南京市', 'area': '建邺区', 'telephone': '(025)85670005,(025)85670007', 'detail': 1, 'uid': '9c1f44aba3f53e983b221c89', 'detail_info': {'tag': '金融;投资理财', 'type': 'life', 'detail_url': 'http://api.map.baidu.com/place/detail?uid=9c1f44aba3f53e983b221c89&output=html&source=placeapi_v2', 'image_num': '1', 'children': [], 'lat': 32.03125638006193, 'lng': 118.73322835224718}}"
"{'name': '中国工商银行24h(万达广场支行)', 'location': {'lat': 32.031471221937, 'lng': 118.7297293030503}, 'address': '集庆门大街222-9', 'province': '江苏省', 'city': '南京市', 'area': '建邺区', 'street_id': '659b2f5ab1b43629e812e4e3', 'detail': 1, 'uid': '659b2f5ab1b43629e812e4e3', 'detail_info': {'tag': '金融;atm', 'navi_location': {'lng': 118.74150596095, 'lat': 32.034964655997}, 'type': 'life', 'detail_url': 'http://api.map.baidu.com/place/detail?uid=659b2f5ab1b43629e812e4e3&output=html&source=placeapi_v2', 'overall_rating': '4.5', 'image_num': '10', 'comment_num': '5', 'children': [], 'lat': 32.031471221937, 'lng': 118.7297293030503}}"
"{'name': '招商银行24小时自助银行服务(万达广场万达中心C座西南)', 'location': {'lat': 32.031068410872656, 'lng': 118.73326049826153}, 'address': '江东中路108-11号', 'province': '江苏省', 'city': '南京市', 'area': '建邺区', 'street_id': 'cc67f04fe3e433c2eddfca7e', 'detail': 1, 'uid': 'cc67f04fe3e433c2eddfca7e', 'detail_info': {'tag': '金融;atm', 'type': 'life', 'detail_url': 'http://api.map.baidu.com/place/detail?uid=cc67f04fe3e433c2eddfca7e&output=html&source=placeapi_v2', 'overall_rating': '4.5', 'image_num': '9', 'comment_num': '4', 'children': [], 'lat': 32.031068410872656, 'lng': 118.73326049826153}}"
"{'name': '东吴人寿保险股份有限公司(江苏分公司)', 'location': {'lat': 32.028675693056876, 'lng': 118.73759947190837}, 'address': '江苏省南京市建邺区云锦路129号江苏保险综合大厦3楼', 'province': '江苏省', 'city': '南京市', 'area': '建邺区', 'street_id': 'f27128fabdc61f3aed74f8be', 'telephone': '(025)87780005', 'detail': 1, 'uid': 'f27128fabdc61f3aed74f8be', 'detail_info': {'tag': '金融;投资理财', 'type': 'life', 'detail_url': 'http://api.map.baidu.com/place/detail?uid=f27128fabdc61f3aed74f8be&output=html&source=placeapi_v2', 'image_num': '2', 'children': [], 'lat': 32.028675693056876, 'lng': 118.73759947190837}}"
"{'name': '招商银行24小时自助银行服务(南湖路支行)', 'location': {'lat': 32.023964902180616, 'lng': 118.74748711791263}, 'address': '南湖路26号1-1s附近', 'province': '江苏省', 'city': '南京市', 'area': '建邺区', 'street_id': '1b60783512949ca9d1ff2365', 'detail': 1, 'uid': '1b60783512949ca9d1ff2365', 'detail_info': {'tag': '金融;atm', 'navi_location': {'lng': 118.75937586982, 'lat': 32.027476257345}, 'type': 'life', 'detail_url': 'http://api.map.baidu.com/place/detail?uid=1b60783512949ca9d1ff2365&output=html&source=placeapi_v2', 'overall_rating': '0.0', 'image_num': '8', 'comment_num': '2', 'children': [], 'lat': 32.023964902180616, 'lng': 118.74748711791263}}"
"{'name': '中国农业银行24小时自助银行(南京云锦路支行)', 'location': {'lat': 32.02780442059993, 'lng': 118.73734911619259}, 'address': '云锦路149号', 'province': '江苏省', 'city': '南京市', 'area': '建邺区', 'street_id': '6cd0c4eb442997e330870aa0', 'detail': 1, 'uid': '6cd0c4eb442997e330870aa0', 'detail_info': {'tag': '金融;atm', 'type': 'life', 'detail_url': 'http://api.map.baidu.com/place/detail?uid=6cd0c4eb442997e330870aa0&output=html&source=placeapi_v2', 'image_num': '4', 'children': [], 'lat': 32.02780442059993, 'lng': 118.73734911619259}}"
"{'name': '中国邮政储蓄银行24小时自助银行(集庆门邮局营业部)', 'location': {'lat': 32.030631720782544, 'lng': 118.73818901619444}, 'address': '集庆门大街190之1-3', 'province': '江苏省', 'city': '南京市', 'area': '建邺区', 'street_id': 'b9e5d0b8737174c181a12e4d', 'detail': 1, 'uid': 'b9e5d0b8737174c181a12e4d', 'detail_info': {'tag': '金融;atm', 'type': 'life', 'detail_url': 'http://api.map.baidu.com/place/detail?uid=b9e5d0b8737174c181a12e4d&output=html&source=placeapi_v2', 'overall_rating': '2.8', 'image_num': '7', 'comment_num': '5', 'children': [], 'lat': 32.030631720782544, 'lng': 118.73818901619444}}"
"{'name': '中国工商银行ATM(燕山路支行)', 'location': {'lat': 32.024154764220114, 'lng': 118.72826257580886}, 'address': '通江路16号', 'province': '江苏省', 'city': '南京市', 'area': '建邺区', 'street_id': 'bb51406af925811a7f29bdff', 'detail': 1, 'uid': 'bb51406af925811a7f29bdff', 'detail_info': {'tag': '金融;atm', 'navi_location': {'lng': 118.7398368662, 'lat': 32.02748298119}, 'type': 'life', 'detail_url': 'http://api.map.baidu.com/place/detail?uid=bb51406af925811a7f29bdff&output=html&source=placeapi_v2', 'overall_rating': '3.0', 'image_num': '5', 'comment_num': '4', 'children': [], 'lat': 32.024154764220114, 'lng': 118.72826257580886}}"
"{'name': '中国银行24小时自助银行(南京万达广场支行)', 'location': {'lat': 32.03108321380722, 'lng': 118.73307166595453}, 'address': '江东中路108-9', 'province': '江苏省', 'city': '南京市', 'area': '建邺区', 'street_id': 'd7d0736d9184b349f82d6125', 'detail': 1, 'uid': 'd7d0736d9184b349f82d6125', 'detail_info': {'tag': '金融;atm', 'type': 'life', 'detail_url': 'http://api.map.baidu.com/place/detail?uid=d7d0736d9184b349f82d6125&output=html&source=placeapi_v2', 'overall_rating': '4.2', 'image_num': '8', 'comment_num': '8', 'children': [], 'lat': 32.03108321380722, 'lng': 118.73307166595453}}"
"{'name': '中国工商银行24小时自助银行(应天西路分理处)', 'location': {'lat': 32.0208481759174, 'lng': 118.74495779987477}, 'address': '南湖路58南苑大厦', 'province': '江苏省', 'city': '南京市', 'area': '建邺区', 'street_id': 'd146b388f2e07ca075026982', 'detail': 1, 'uid': 'd146b388f2e07ca075026982', 'detail_info': {'tag': '金融;atm', 'navi_location': {'lng': 118.7572011117, 'lat': 32.024567110071}, 'type': 'life', 'detail_url': 'http://api.map.baidu.com/place/detail?uid=d146b388f2e07ca075026982&output=html&source=placeapi_v2', 'overall_rating': '0.0', 'image_num': '7', 'comment_num': '3', 'children': [], 'lat': 32.0208481759174, 'lng': 118.74495779987477}}"
"{'name': '中国建设银行24小时自助银行(南京江东南路储蓄所)', 'location': {'lat': 32.030747521116126, 'lng': 118.73516857353947}, 'address': '江苏省南京市江东南路63号', 'province': '江苏省', 'city': '南京市', 'area': '建邺区', 'street_id': 'bb1d38e4c304e54d0d0a70ad', 'detail': 1, 'uid': 'bb1d38e4c304e54d0d0a70ad', 'detail_info': {'tag': '金融;atm', 'type': 'life', 'detail_url': 'http://api.map.baidu.com/place/detail?uid=bb1d38e4c304e54d0d0a70ad&output=html&source=placeapi_v2', 'overall_rating': '5.0', 'image_num': '10', 'comment_num': '7', 'children': [], 'lat': 32.030747521116126, 'lng': 118.73516857353947}}"
"{'name': '江苏瑞鑫投资管理有限公司', 'location': {'lat': 32.02037693840767, 'lng': 118.7446583032195}, 'address': '南湖路58号华润苏果', 'province': '江苏省', 'city': '南京市', 'area': '建邺区', 'detail': 1, 'uid': '399177e321a00ef92cb908be', 'detail_info': {'tag': '金融;投资理财', 'type': 'life', 'detail_url': 'http://api.map.baidu.com/place/detail?uid=399177e321a00ef92cb908be&output=html&source=placeapi_v2', 'image_num': '1', 'children': [], 'lat': 32.02037693840767, 'lng': 118.7446583032195}}"
"{'name': '南京茗钥投资管理有限公司', 'location': {'lat': 32.03148846110478, 'lng': 118.73331405371377}, 'address': '江东中路108万达广场万达中心C座2层204', 'province': '江苏省', 'city': '南京市', 'area': '建邺区', 'detail': 1, 'uid': '3131e9457f5048049cf779b1', 'detail_info': {'tag': '金融;投资理财', 'type': 'life', 'detail_url': 'http://api.map.baidu.com/place/detail?uid=3131e9457f5048049cf779b1&output=html&source=placeapi_v2', 'image_num': '1', 'children': [], 'lat': 32.03148846110478, 'lng': 118.73331405371377}}"
"{'name': '中国银行24小时自助银行', 'location': {'lat': 32.025646700543746, 'lng': 118.73682968586432}, 'address': '云锦路与所街交叉口东南50米', 'province': '江苏省', 'city': '南京市', 'area': '建邺区', 'street_id': '26a40b0355468bfb84154122', 'detail': 1, 'uid': '26a40b0355468bfb84154122', 'detail_info': {'tag': '金融;atm', 'type': 'life', 'detail_url': 'http://api.map.baidu.com/place/detail?uid=26a40b0355468bfb84154122&output=html&source=placeapi_v2', 'image_num': '5', 'children': [], 'lat': 32.025646700543746, 'lng': 118.73682968586432}}"
"{'name': '中国农业银行24小时自助银行(南京建邺支行)', 'location': {'lat': 32.01925644324516, 'lng': 118.73237486308803}, 'address': '江东中路207号', 'province': '江苏省', 'city': '南京市', 'area': '建邺区', 'street_id': 'a1b70e524f8e21a5a6da3992', 'detail': 1, 'uid': 'a1b70e524f8e21a5a6da3992', 'detail_info': {'tag': '金融;atm', 'navi_location': {'lng': 118.74354686795, 'lat': 32.022148626176}, 'type': 'life', 'detail_url': 'http://api.map.baidu.com/place/detail?uid=a1b70e524f8e21a5a6da3992&output=html&source=placeapi_v2', 'overall_rating': '0.0', 'image_num': '7', 'comment_num': '2', 'children': [], 'lat': 32.01925644324516, 'lng': 118.73237486308803}}"
"{'name': '江苏银行24小时自助银行(南京河西支行)', 'location': {'lat': 32.022869539926596, 'lng': 118.73410229166464}, 'address': '南京市应天西路198号', 'province': '江苏省', 'city': '南京市', 'area': '建邺区', 'street_id': 'e9237ae352dd054f843304fc', 'detail': 1, 'uid': 'e9237ae352dd054f843304fc', 'detail_info': {'tag': '金融;atm', 'type': 'life', 'detail_url': 'http://api.map.baidu.com/place/detail?uid=e9237ae352dd054f843304fc&output=html&source=placeapi_v2', 'overall_rating': '0.0', 'image_num': '10', 'comment_num': '1', 'children': [], 'lat': 32.022869539926596, 'lng': 118.73410229166464}}"
"{'name': '紫金农商银行24小时自助银行(兴隆支行)', 'location': {'lat': 32.02263254644525, 'lng': 118.73222624585064}, 'address': '江苏省南京市建邺区江东中路140', 'province': '江苏省', 'city': '南京市', 'area': '建邺区', 'street_id': 'a79991462b815a78715e8020', 'detail': 1, 'uid': 'a79991462b815a78715e8020', 'detail_info': {'tag': '金融;atm', 'navi_location': {'lng': 118.74419400006, 'lat': 32.026362015323}, 'type': 'life', 'detail_url': 'http://api.map.baidu.com/place/detail?uid=a79991462b815a78715e8020&output=html&source=placeapi_v2', 'overall_rating': '0.0', 'image_num': '5', 'comment_num': '1', 'children': [], 'lat': 32.02263254644525, 'lng': 118.73222624585064}}"
"{'name': '兴业银行ATM取款机(应天西路欧尚)', 'location': {'lat': 32.022937367957816, 'lng': 118.7384652028018}, 'address': '南京市建邺区应天大街866号欧尚(应天店)1层', 'province': '江苏省', 'city': '南京市', 'area': '建邺区', 'street_id': '7c96b922b6f43d60f4eafce7', 'detail': 1, 'uid': '7c96b922b6f43d60f4eafce7', 'detail_info': {'tag': '金融;atm', 'type': 'life', 'detail_url': 'http://api.map.baidu.com/place/detail?uid=7c96b922b6f43d60f4eafce7&output=html&source=placeapi_v2', 'image_num': '1', 'children': [], 'lat': 32.022937367957816, 'lng': 118.7384652028018}}"
"{'name': '南京保福利投资管理有限公司(建邺分公司)', 'location': {'lat': 32.01916856405838, 'lng': 118.73053762849099}, 'address': '江苏省南京市建邺区江东中路156-2号', 'province': '江苏省', 'city': '南京市', 'area': '建邺区', 'telephone': '(025)85208911', 'detail': 1, 'uid': '6743c8266570ab8ead080f9b', 'detail_info': {'tag': '汽车服务;汽车销售', 'type': 'life', 'detail_url': 'http://api.map.baidu.com/place/detail?uid=6743c8266570ab8ead080f9b&output=html&source=placeapi_v2', 'overall_rating': '4.7', 'image_num': '1', 'comment_num': '3', 'children': [], 'lat': 32.01916856405838, 'lng': 118.73053762849099}}"
"{'name': '南京弘烜投资有限公司', 'location': {'lat': 32.03148846110478, 'lng': 118.73331405371377}, 'address': '江东中路108万达广场万达中心C座6层606', 'province': '江苏省', 'city': '南京市', 'area': '建邺区', 'detail': 1, 'uid': '0eeb3d5e68dd3707abf729c4', 'detail_info': {'tag': '公司企业;公司', 'type': 'life', 'detail_url': 'http://api.map.baidu.com/place/detail?uid=0eeb3d5e68dd3707abf729c4&output=html&source=placeapi_v2', 'image_num': '1', 'children': [], 'lat': 32.03148846110478, 'lng': 118.73331405371377}}"
"{'name': '江苏泓翊环保投资有限公司', 'location': {'lat': 32.02162980460397, 'lng': 118.7464855198353}, 'address': '所街115号', 'province': '江苏省', 'city': '南京市', 'area': '建邺区', 'street_id': 'cc92fa13cb5baf6c9de321e3', 'detail': 1, 'uid': 'cc92fa13cb5baf6c9de321e3', 'detail_info': {'tag': '公司企业;公司', 'type': 'enterprise', 'detail_url': 'http://api.map.baidu.com/place/detail?uid=cc92fa13cb5baf6c9de321e3&output=html&source=placeapi_v2', 'children': [], 'lat': 32.02162980460397, 'lng': 118.7464855198353}}"
"{'name': '米陌资产管理有限公司', 'location': {'lat': 32.03144149829374, 'lng': 118.73335605992415}, 'address': '万达广场b座1607室', 'province': '江苏省', 'city': '南京市', 'area': '建邺区', 'detail': 1, 'uid': '08958239e0612fdd2b06ce2d', 'detail_info': {'tag': '公司企业;公司', 'type': 'enterprise', 'detail_url': 'http://api.map.baidu.com/place/detail?uid=08958239e0612fdd2b06ce2d&output=html&source=placeapi_v2', 'children': [], 'lat': 32.03144149829374, 'lng': 118.73335605992415}}"
"{'name': '浙商银行24小时自助银行服务(南京河西支行)', 'location': {'lat': 32.027287791045055, 'lng': 118.73721149713849}, 'address': '江苏省南京市建邺区云锦路139号南70米', 'province': '江苏省', 'city': '南京市', 'area': '建邺区', 'detail': 1, 'uid': '4d4deb42aea74cc65a3ac8db', 'detail_info': {'tag': '金融;atm', 'type': 'life', 'detail_url': 'http://api.map.baidu.com/place/detail?uid=4d4deb42aea74cc65a3ac8db&output=html&source=placeapi_v2', 'image_num': '2', 'children': [], 'lat': 32.027287791045055, 'lng': 118.73721149713849}}"
"{'name': '北京银行24小时自助银行(凤栖苑支行)', 'location': {'lat': 32.0302353623768, 'lng': 118.73945433888107}, 'address': '江苏省南京市建邺区集庆门大街186号附近', 'province': '江苏省', 'city': '南京市', 'area': '建邺区', 'street_id': '95fb175a03b104848f55ecfd', 'detail': 1, 'uid': '95fb175a03b104848f55ecfd', 'detail_info': {'tag': '金融;atm', 'type': 'life', 'detail_url': 'http://api.map.baidu.com/place/detail?uid=95fb175a03b104848f55ecfd&output=html&source=placeapi_v2', 'image_num': '4', 'children': [], 'lat': 32.0302353623768, 'lng': 118.73945433888107}}"
"{'name': '交通银行(南京水西门支行)', 'location': {'lat': 32.03571130879824, 'lng': 118.74701227771219}, 'address': '江苏省南京市建邺区水西门大街211-2号', 'province': '江苏省', 'city': '南京市', 'area': '建邺区', 'street_id': '2fd2beab7ac13b527bdbd2af', 'telephone': '(025)86561592,(025)86650329', 'detail': 1, 'uid': '2fd2beab7ac13b527bdbd2af', 'detail_info': {'tag': '金融;银行', 'navi_location': {'lng': 118.75900233642, 'lat': 32.039561960073}, 'type': 'life', 'detail_url': 'http://api.map.baidu.com/place/detail?uid=2fd2beab7ac13b527bdbd2af&output=html&source=placeapi_v2', 'overall_rating': '5.0', 'image_num': '11', 'comment_num': '3', 'children': [], 'lat': 32.03571130879824, 'lng': 118.74701227771219}}"
"{'name': '招商银行(河西万达支行)', 'location': {'lat': 32.0335372460744, 'lng': 118.72907466011952}, 'address': '江苏省南京市建邺区燕山路79号', 'province': '江苏省', 'city': '南京市', 'area': '建邺区', 'street_id': 'ff1f46fcf62172dc1c38947e', 'telephone': '(025)85529109,(025)85529100', 'detail': 1, 'uid': 'ff1f46fcf62172dc1c38947e', 'detail_info': {'tag': '金融;银行', 'navi_location': {'lng': 118.74082844816, 'lat': 32.037154620766}, 'type': 'life', 'detail_url': 'http://api.map.baidu.com/place/detail?uid=ff1f46fcf62172dc1c38947e&output=html&source=placeapi_v2', 'overall_rating': '4.3', 'image_num': '6', 'comment_num': '21', 'children': [], 'lat': 32.0335372460744, 'lng': 118.72907466011952}}"
"{'name': '兴业银行(河西支行)', 'location': {'lat': 32.04066859823444, 'lng': 118.73398593375559}, 'address': '江东中路1号', 'province': '江苏省', 'city': '南京市', 'area': '建邺区', 'street_id': '3c0ea7c52d27529ffbf0cbdb', 'telephone': '(025)87790300', 'detail': 1, 'uid': '3c0ea7c52d27529ffbf0cbdb', 'detail_info': {'tag': '金融;银行', 'navi_location': {'lng': 118.74575760769, 'lat': 32.044242761151}, 'type': 'life', 'detail_url': 'http://api.map.baidu.com/place/detail?uid=3c0ea7c52d27529ffbf0cbdb&output=html&source=placeapi_v2', 'overall_rating': '3.9', 'image_num': '21', 'comment_num': '12', 'children': [], 'lat': 32.04066859823444, 'lng': 118.73398593375559}}"
"{'name': '中国建设银行(万达广场分理处)', 'location': {'lat': 32.03363270221993, 'lng': 118.72984695993776}, 'address': '江苏省南京市建邺区南京市福园街141-1号', 'province': '江苏省', 'city': '南京市', 'area': '建邺区', 'street_id': '39910719483e1ffb96ca077b', 'telephone': '(025)86536313', 'detail': 1, 'uid': '39910719483e1ffb96ca077b', 'detail_info': {'tag': '金融;银行', 'navi_location': {'lng': 118.74180381301, 'lat': 32.037182679249}, 'type': 'life', 'detail_url': 'http://api.map.baidu.com/place/detail?uid=39910719483e1ffb96ca077b&output=html&source=placeapi_v2', 'overall_rating': '4.2', 'image_num': '9', 'comment_num': '11', 'children': [], 'lat': 32.03363270221993, 'lng': 118.72984695993776}}"
"{'name': '上海浦东发展银行(莫愁支行)', 'location': {'lat': 32.03663862893789, 'lng': 118.74233994576905}, 'address': '南京市建邺区水西门大街245号', 'province': '江苏省', 'city': '南京市', 'area': '建邺区', 'street_id': '50fb64fff000605ee9f853fc', 'telephone': '(025)86569090', 'detail': 1, 'uid': '50fb64fff000605ee9f853fc', 'detail_info': {'tag': '金融;银行', 'type': 'life', 'detail_url': 'http://api.map.baidu.com/place/detail?uid=50fb64fff000605ee9f853fc&output=html&source=placeapi_v2', 'overall_rating': '4.5', 'image_num': '13', 'comment_num': '10', 'children': [], 'lat': 32.03663862893789, 'lng': 118.74233994576905}}"
"{'name': '招商银行(水西门支行)', 'location': {'lat': 32.03644080002958, 'lng': 118.74669154811693}, 'address': '江苏省南京市建邺区水西门大街340号', 'province': '江苏省', 'city': '南京市', 'area': '建邺区', 'street_id': '576adc6b6d2f7d787bf79618', 'telephone': '(025)85529021,(025)85529024', 'detail': 1, 'uid': '576adc6b6d2f7d787bf79618', 'detail_info': {'tag': '金融;银行', 'navi_location': {'lng': 118.75867017179, 'lat': 32.040209800983}, 'type': 'life', 'detail_url': 'http://api.map.baidu.com/place/detail?uid=576adc6b6d2f7d787bf79618&output=html&source=placeapi_v2', 'overall_rating': '3.5', 'image_num': '15', 'comment_num': '10', 'children': [], 'lat': 32.03644080002958, 'lng': 118.74669154811693}}"
"{'name': '中国银行(南京凤凰花园城支行)', 'location': {'lat': 32.04300958231407, 'lng': 118.73811202441317}, 'address': '南京市海棠里18号', 'province': '江苏省', 'city': '南京市', 'area': '鼓楼区', 'street_id': '28e700f1c7bfe901095cb35d', 'telephone': '(025)86524414', 'detail': 1, 'uid': '28e700f1c7bfe901095cb35d', 'detail_info': {'tag': '金融;银行', 'navi_location': {'lng': 118.75021466187, 'lat': 32.046601124741}, 'type': 'life', 'detail_url': 'http://api.map.baidu.com/place/detail?uid=28e700f1c7bfe901095cb35d&output=html&source=placeapi_v2', 'overall_rating': '4.4', 'image_num': '18', 'comment_num': '14', 'children': [], 'lat': 32.04300958231407, 'lng': 118.73811202441317}}"
"{'name': '中国建设银行(江东门支行)', 'location': {'lat': 32.04304289570356, 'lng': 118.73310704831277}, 'address': '南京市鼓楼区江东北路93号', 'province': '江苏省', 'city': '南京市', 'area': '鼓楼区', 'street_id': 'c8b5cdefb79c7203130daa5d', 'telephone': '(025)86470502', 'detail': 1, 'uid': 'c8b5cdefb79c7203130daa5d', 'detail_info': {'tag': '金融;银行', 'navi_location': {'lng': 118.74502780813, 'lat': 32.046644277407}, 'type': 'life', 'detail_url': 'http://api.map.baidu.com/place/detail?uid=c8b5cdefb79c7203130daa5d&output=html&source=placeapi_v2', 'overall_rating': '3.9', 'image_num': '13', 'comment_num': '8', 'children': [], 'lat': 32.04304289570356, 'lng': 118.73310704831277}}"
"{'name': '广发银行(城西支行)', 'location': {'lat': 32.0423998279114, 'lng': 118.73302084536657}, 'address': '江苏省南京市鼓楼区江东北路91号', 'province': '江苏省', 'city': '南京市', 'area': '鼓楼区', 'street_id': 'd26d37046acb6d0876e5b651', 'telephone': '(025)83717591', 'detail': 1, 'uid': 'd26d37046acb6d0876e5b651', 'detail_info': {'tag': '金融;银行', 'navi_location': {'lng': 118.7451563296, 'lat': 32.046121945277}, 'type': 'life', 'detail_url': 'http://api.map.baidu.com/place/detail?uid=d26d37046acb6d0876e5b651&output=html&source=placeapi_v2', 'overall_rating': '4.5', 'image_num': '6', 'comment_num': '2', 'children': [], 'lat': 32.0423998279114, 'lng': 118.73302084536657}}"
"{'name': '中国民生银行(城西支行)', 'location': {'lat': 32.03662965136961, 'lng': 118.742336949918}, 'address': '江苏省南京市建邺区水西门大街245号千峰彩翠大厦', 'province': '江苏省', 'city': '南京市', 'area': '建邺区', 'street_id': '3b64a2ab1ebe022ef21937ef', 'telephone': '(025)84221978', 'detail': 1, 'uid': '3b64a2ab1ebe022ef21937ef', 'detail_info': {'tag': '金融;银行', 'navi_location': {'lng': 118.75425628568, 'lat': 32.040497746738}, 'type': 'life', 'detail_url': 'http://api.map.baidu.com/place/detail?uid=3b64a2ab1ebe022ef21937ef&output=html&source=placeapi_v2', 'overall_rating': '3.7', 'image_num': '4', 'comment_num': '3', 'children': [], 'lat': 32.03662965136961, 'lng': 118.742336949918}}"
"{'name': '广发银行(水西门支行)', 'location': {'lat': 32.03655887174637, 'lng': 118.74631131423916}, 'address': '江苏省南京市建邺区水西门大街344号', 'province': '江苏省', 'city': '南京市', 'area': '建邺区', 'street_id': '90d4db2ca63640ea72455bdf', 'telephone': '(025)86386200', 'detail': 1, 'uid': '90d4db2ca63640ea72455bdf', 'detail_info': {'tag': '金融;银行', 'navi_location': {'lng': 118.75804650882, 'lat': 32.039910577971}, 'type': 'life', 'detail_url': 'http://api.map.baidu.com/place/detail?uid=90d4db2ca63640ea72455bdf&output=html&source=placeapi_v2', 'overall_rating': '4.7', 'image_num': '8', 'comment_num': '3', 'children': [], 'lat': 32.03655887174637, 'lng': 118.74631131423916}}"
"{'name': '华夏银行(水西门支行)', 'location': {'lat': 32.03660198120452, 'lng': 118.74552208571986}, 'address': '江苏省南京市建邺区水西门大街352号(近大屠杀纪念馆)', 'province': '江苏省', 'city': '南京市', 'area': '建邺区', 'street_id': 'e6ee2fd21c9e36482a11d1af', 'telephone': '(025)86575581,(025)86575597', 'detail': 1, 'uid': 'e6ee2fd21c9e36482a11d1af', 'detail_info': {'tag': '金融;银行', 'navi_location': {'lng': 118.75718314559, 'lat': 32.040109687563}, 'type': 'life', 'detail_url': 'http://api.map.baidu.com/place/detail?uid=e6ee2fd21c9e36482a11d1af&output=html&source=placeapi_v2', 'price': '226', 'overall_rating': '4.1', 'image_num': '15', 'comment_num': '9', 'children': [], 'lat': 32.03660198120452, 'lng': 118.74552208571986}}"
"{'name': '北京银行(江东中路支行)', 'location': {'lat': 32.04129568859326, 'lng': 118.73286822370383}, 'address': '江苏省南京市建邺区江东中路2号', 'province': '江苏省', 'city': '南京市', 'area': '建邺区', 'street_id': '885dd331cf1358a4fbdc8504', 'telephone': '(025)66203008', 'detail': 1, 'uid': '885dd331cf1358a4fbdc8504', 'detail_info': {'tag': '金融;银行', 'navi_location': {'lng': 118.74490411326, 'lat': 32.045024029633}, 'type': 'life', 'detail_url': 'http://api.map.baidu.com/place/detail?uid=885dd331cf1358a4fbdc8504&output=html&source=placeapi_v2', 'overall_rating': '5.0', 'image_num': '6', 'comment_num': '2', 'children': [], 'lat': 32.04129568859326, 'lng': 118.73286822370383}}"
"{'name': '中国农业银行(汉中门大街支行)', 'location': {'lat': 32.04023023571033, 'lng': 118.743146597651}, 'address': '江苏省南京市建邺区汉中门大街145号', 'province': '江苏省', 'city': '南京市', 'area': '建邺区', 'telephone': '(025)86643413', 'detail': 1, 'uid': '7db220b57d8306c26f476098', 'detail_info': {'tag': '金融;银行', 'type': 'life', 'detail_url': 'http://api.map.baidu.com/place/detail?uid=7db220b57d8306c26f476098&output=html&source=placeapi_v2', 'overall_rating': '0.0', 'image_num': '1', 'comment_num': '1', 'children': [], 'lat': 32.04023023571033, 'lng': 118.743146597651}}"
"{'name': '紫金农村商业银行(江东支行)', 'location': {'lat': 32.04429701014022, 'lng': 118.73327750116331}, 'address': '南京市鼓楼区江东北路101-1号', 'province': '江苏省', 'city': '南京市', 'area': '鼓楼区', 'street_id': 'b3aa435d6aaeae0b1576435c', 'telephone': '(025)86605324', 'detail': 1, 'uid': 'b3aa435d6aaeae0b1576435c', 'detail_info': {'tag': '金融;银行', 'navi_location': {'lng': 118.7452850972, 'lat': 32.047824237724}, 'type': 'life', 'detail_url': 'http://api.map.baidu.com/place/detail?uid=b3aa435d6aaeae0b1576435c&output=html&source=placeapi_v2', 'overall_rating': '4.0', 'image_num': '17', 'comment_num': '15', 'children': [], 'lat': 32.04429701014022, 'lng': 118.73327750116331}}"
"{'name': '徽商银行(南京汉中门大街支行)', 'location': {'lat': 32.04200665692075, 'lng': 118.73224514996947}, 'address': '南京市汉中门大街302号', 'province': '江苏省', 'city': '南京市', 'area': '鼓楼区', 'street_id': 'fd22a0ea9b28fd31d92f28e4', 'telephone': '4008896588', 'detail': 1, 'uid': 'fd22a0ea9b28fd31d92f28e4', 'detail_info': {'tag': '金融;银行', 'navi_location': {'lng': 118.74416322141, 'lat': 32.045528657945}, 'type': 'life', 'detail_url': 'http://api.map.baidu.com/place/detail?uid=fd22a0ea9b28fd31d92f28e4&output=html&source=placeapi_v2', 'overall_rating': '5.0', 'image_num': '8', 'comment_num': '3', 'children': [], 'lat': 32.04200665692075, 'lng': 118.73224514996947}}"
"{'name': '中国建设银行(汉中门大街支行)', 'location': {'lat': 32.04079626933208, 'lng': 118.74000204073788}, 'address': '江苏省南京市建邺区汉中门大街177号', 'province': '江苏省', 'city': '南京市', 'area': '建邺区', 'street_id': '4ea3f2f16ac8f5aaafcb66ad', 'telephone': '(025)86609362,(025)86654842', 'detail': 1, 'uid': '4ea3f2f16ac8f5aaafcb66ad', 'detail_info': {'tag': '金融;银行', 'navi_location': {'lng': 118.75178492775, 'lat': 32.044566669669}, 'type': 'life', 'detail_url': 'http://api.map.baidu.com/place/detail?uid=4ea3f2f16ac8f5aaafcb66ad&output=html&source=placeapi_v2', 'overall_rating': '2.1', 'image_num': '8', 'comment_num': '8', 'children': [], 'lat': 32.04079626933208, 'lng': 118.74000204073788}}"
"{'name': '中国建设银行(茶南支行)', 'location': {'lat': 32.0341767999584, 'lng': 118.74285646147366}, 'address': '江苏省南京市建邺区露园街21号附近', 'province': '江苏省', 'city': '南京市', 'area': '建邺区', 'street_id': 'f695b55bb1c75d4aa1a9349d', 'detail': 1, 'uid': 'f695b55bb1c75d4aa1a9349d', 'detail_info': {'tag': '金融;银行', 'navi_location': {'lng': 118.75446920471, 'lat': 32.037720629482}, 'type': 'life', 'detail_url': 'http://api.map.baidu.com/place/detail?uid=f695b55bb1c75d4aa1a9349d&output=html&source=placeapi_v2', 'overall_rating': '3.5', 'image_num': '1', 'comment_num': '5', 'children': [], 'lat': 32.0341767999584, 'lng': 118.74285646147366}}"
"{'name': '浙江稠州商业银行(南京莫愁湖支行)', 'location': {'lat': 32.03639861729287, 'lng': 118.74614601286169}, 'address': '水西门大街344号', 'province': '江苏省', 'city': '南京市', 'area': '建邺区', 'street_id': 'fbcd4576179c526f21022012', 'telephone': '(025)87782603', 'detail': 1, 'uid': 'fbcd4576179c526f21022012', 'detail_info': {'tag': '金融;银行', 'navi_location': {'lng': 118.75782219834, 'lat': 32.039965241555}, 'type': 'life', 'detail_url': 'http://api.map.baidu.com/place/detail?uid=fbcd4576179c526f21022012&output=html&source=placeapi_v2', 'overall_rating': '0.0', 'image_num': '9', 'comment_num': '3', 'children': [], 'lat': 32.03639861729287, 'lng': 118.74614601286169}}"
"{'name': '中国平安保险', 'location': {'lat': 32.04027291599323, 'lng': 118.7422769023338}, 'address': '江苏省南京市建邺区汉中门大街151号西城广场4楼', 'province': '江苏省', 'city': '南京市', 'area': '建邺区', 'street_id': 'c41c46fbcfa4e051aeb22a5c', 'detail': 1, 'uid': 'c41c46fbcfa4e051aeb22a5c', 'detail_info': {'tag': '金融;投资理财', 'navi_location': {'lng': 118.75266277974, 'lat': 32.044159229692}, 'type': 'life', 'detail_url': 'http://api.map.baidu.com/place/detail?uid=c41c46fbcfa4e051aeb22a5c&output=html&source=placeapi_v2', 'overall_rating': '0.0', 'image_num': '1', 'comment_num': '1', 'children': [], 'lat': 32.04027291599323, 'lng': 118.7422769023338}}"
"{'name': '中国民生银行(莫愁花园社区支行)', 'location': {'lat': 32.04288372851168, 'lng': 118.73949721181643}, 'address': '江苏省南京市鼓楼区凤凰西街309号', 'province': '江苏省', 'city': '南京市', 'area': '鼓楼区', 'street_id': '27decba40484f685f603b844', 'telephone': '(025)68165110', 'detail': 1, 'uid': '27decba40484f685f603b844', 'detail_info': {'tag': '金融;银行', 'navi_location': {'lng': 118.75117499987, 'lat': 32.046552019055}, 'type': 'life', 'detail_url': 'http://api.map.baidu.com/place/detail?uid=27decba40484f685f603b844&output=html&source=placeapi_v2', 'overall_rating': '5.0', 'image_num': '4', 'comment_num': '3', 'children': [], 'lat': 32.04288372851168, 'lng': 118.73949721181643}}"
"{'name': '交通银行(南京汉中门大街支行)', 'location': {'lat': 32.03986312166939, 'lng': 118.7436470448193}, 'address': '汉中门大街145号江苏省政务服务中心内1层', 'province': '江苏省', 'city': '南京市', 'area': '建邺区', 'detail': 1, 'uid': '49946fa684f96bd3fea7787d', 'detail_info': {'tag': '金融;银行', 'detail_url': 'http://api.map.baidu.com/place/detail?uid=49946fa684f96bd3fea7787d&output=html&source=placeapi_v2', 'children': [], 'lat': 32.03986312166939, 'lng': 118.7436470448193}}"
"{'name': '华福证券(南京江东中路店)', 'location': {'lat': 32.04091059627634, 'lng': 118.73402264098728}, 'address': '江苏省南京市建邺区江东中路1号', 'province': '江苏省', 'city': '南京市', 'area': '建邺区', 'street_id': '20a6db48e4dbd68a51e5c500', 'detail': 1, 'uid': '20a6db48e4dbd68a51e5c500', 'detail_info': {'tag': '金融;投资理财', 'type': 'life', 'detail_url': 'http://api.map.baidu.com/place/detail?uid=20a6db48e4dbd68a51e5c500&output=html&source=placeapi_v2', 'overall_rating': '0.0', 'image_num': '6', 'comment_num': '1', 'children': [], 'lat': 32.04091059627634, 'lng': 118.73402264098728}}"
"{'name': '交通银行24小时自助银行(云锦路)', 'location': {'lat': 32.0357788565114, 'lng': 118.73933077566831}, 'address': '云锦路43号', 'province': '江苏省', 'city': '南京市', 'area': '建邺区', 'street_id': '8f53b64d4984d644bb17e705', 'detail': 1, 'uid': '8f53b64d4984d644bb17e705', 'detail_info': {'tag': '金融;atm', 'navi_location': {'lng': 118.75088687287, 'lat': 32.039497232398}, 'type': 'life', 'detail_url': 'http://api.map.baidu.com/place/detail?uid=8f53b64d4984d644bb17e705&output=html&source=placeapi_v2', 'overall_rating': '4.5', 'image_num': '9', 'comment_num': '5', 'children': [], 'lat': 32.0357788565114, 'lng': 118.73933077566831}}"
"{'name': '江苏盛大众联保险代理公司', 'location': {'lat': 32.03200026201963, 'lng': 118.73311575319867}, 'address': '南京市建邺区江东中路106号万达广场万达中心B座25层2502', 'province': '江苏省', 'city': '南京市', 'area': '建邺区', 'telephone': '(025)68206581', 'detail': 1, 'uid': 'e92782125bcf718e1d5800ca', 'detail_info': {'tag': '金融;投资理财', 'navi_location': {'lng': 118.74513585991, 'lat': 32.036432413253}, 'type': 'life', 'detail_url': 'http://api.map.baidu.com/place/detail?uid=e92782125bcf718e1d5800ca&output=html&source=placeapi_v2', 'image_num': '1', 'children': [], 'lat': 32.03200026201963, 'lng': 118.73311575319867}}"
"{'name': '红点优家(凤凰西街店)', 'location': {'lat': 32.04277866810274, 'lng': 118.74027716951996}, 'address': '江苏省南京市鼓楼区凤凰西路283号', 'province': '江苏省', 'city': '南京市', 'area': '鼓楼区', 'street_id': '927bbf68181c62e1c61e51a4', 'detail': 1, 'uid': '927bbf68181c62e1c61e51a4', 'detail_info': {'tag': '金融;投资理财', 'type': 'life', 'detail_url': 'http://api.map.baidu.com/place/detail?uid=927bbf68181c62e1c61e51a4&output=html&source=placeapi_v2', 'image_num': '7', 'children': [], 'lat': 32.04277866810274, 'lng': 118.74027716951996}}"
"{'name': '金山典当行', 'location': {'lat': 32.039822598236505, 'lng': 118.74232347909785}, 'address': '江苏省南京市建邺区纪念馆东路76-2号西60米', 'province': '江苏省', 'city': '南京市', 'area': '建邺区', 'street_id': '4c6f391bfc6ee73adaeced75', 'telephone': '(025)83475666', 'detail': 1, 'uid': '4c6f391bfc6ee73adaeced75', 'detail_info': {'tag': '金融;典当行', 'navi_location': {'lng': 118.75407940933, 'lat': 32.043343166259}, 'type': 'life', 'detail_url': 'http://api.map.baidu.com/place/detail?uid=4c6f391bfc6ee73adaeced75&output=html&source=placeapi_v2', 'image_num': '4', 'children': [], 'lat': 32.039822598236505, 'lng': 118.74232347909785}}"
"{'name': '招商银行24小时自助银行(河西万达支行)', 'location': {'lat': 32.0335575378812, 'lng': 118.72913550698065}, 'address': '江苏省南京市建邺区燕山路79号', 'province': '江苏省', 'city': '南京市', 'area': '建邺区', 'street_id': '016eafc7a98a4e29f33cba4f', 'detail': 1, 'uid': '016eafc7a98a4e29f33cba4f', 'detail_info': {'tag': '金融;atm', 'type': 'life', 'detail_url': 'http://api.map.baidu.com/place/detail?uid=016eafc7a98a4e29f33cba4f&output=html&source=placeapi_v2', 'overall_rating': '4.8', 'image_num': '6', 'comment_num': '5', 'children': [], 'lat': 32.0335575378812, 'lng': 118.72913550698065}}"
"{'name': '民泰安保险', 'location': {'lat': 32.03589298671446, 'lng': 118.73779860988647}, 'address': '江苏省南京市建邺区水西门大街291号万达金街西区2层', 'province': '江苏省', 'city': '南京市', 'area': '建邺区', 'street_id': '782e2190ec115ce4c9fa5fb5', 'detail': 1, 'uid': '782e2190ec115ce4c9fa5fb5', 'detail_info': {'tag': '金融;投资理财', 'type': 'life', 'detail_url': 'http://api.map.baidu.com/place/detail?uid=782e2190ec115ce4c9fa5fb5&output=html&source=placeapi_v2', 'image_num': '1', 'children': [], 'lat': 32.03589298671446, 'lng': 118.73779860988647}}"
"{'name': '中国建设银行24小时自助银行(万达广场分理处)', 'location': {'lat': 32.03350808320235, 'lng': 118.72993990363531}, 'address': '南京市建邺区福园路与燕山路交叉路口往东约50米(万达西地)', 'province': '江苏省', 'city': '南京市', 'area': '建邺区', 'street_id': '0b1da7bf3695e289fb2d6162', 'detail': 1, 'uid': '0b1da7bf3695e289fb2d6162', 'detail_info': {'tag': '金融;atm', 'type': 'life', 'detail_url': 'http://api.map.baidu.com/place/detail?uid=0b1da7bf3695e289fb2d6162&output=html&source=placeapi_v2', 'overall_rating': '0.0', 'image_num': '3', 'children': [], 'lat': 32.03350808320235, 'lng': 118.72993990363531}}"
"{'name': '聚石财富', 'location': {'lat': 32.034965674659404, 'lng': 118.73095161679441}, 'address': '江苏省南京市建邺区河西万达写字楼c座309室', 'province': '江苏省', 'city': '南京市', 'area': '建邺区', 'detail': 1, 'uid': 'cb7bdab9fa6d3afb17c8f6d6', 'detail_info': {'tag': '金融;投资理财', 'type': 'life', 'detail_url': 'http://api.map.baidu.com/place/detail?uid=cb7bdab9fa6d3afb17c8f6d6&output=html&source=placeapi_v2', 'image_num': '1', 'children': [], 'lat': 32.034965674659404, 'lng': 118.73095161679441}}"
"{'name': '南京风云投资管理公司', 'location': {'lat': 32.03330858547865, 'lng': 118.73206366890528}, 'address': '福园街129号29层', 'province': '江苏省', 'city': '南京市', 'area': '建邺区', 'detail': 1, 'uid': 'b2454116050d8306d33ce362', 'detail_info': {'tag': '金融;投资理财', 'type': 'life', 'detail_url': 'http://api.map.baidu.com/place/detail?uid=b2454116050d8306d33ce362&output=html&source=placeapi_v2', 'image_num': '1', 'children': [], 'lat': 32.03330858547865, 'lng': 118.73206366890528}}"
"{'name': '南京银行24小时自助银行(城西中心支行)', 'location': {'lat': 32.04274488670229, 'lng': 118.73308639833219}, 'address': '江东北路93号', 'province': '江苏省', 'city': '南京市', 'area': '鼓楼区', 'street_id': 'c85b4971e13266c888b98855', 'detail': 1, 'uid': 'c85b4971e13266c888b98855', 'detail_info': {'tag': '金融;atm', 'navi_location': {'lng': 118.74520629155, 'lat': 32.046339199823}, 'type': 'life', 'detail_url': 'http://api.map.baidu.com/place/detail?uid=c85b4971e13266c888b98855&output=html&source=placeapi_v2', 'overall_rating': '5.0', 'image_num': '8', 'comment_num': '3', 'children': [], 'lat': 32.04274488670229, 'lng': 118.73308639833219}}"
"{'name': '南京盛世行投资管理有限公司', 'location': {'lat': 32.034803582271884, 'lng': 118.73033384935852}, 'address': '福园路万达广场F座311', 'province': '江苏省', 'city': '南京市', 'area': '建邺区', 'detail': 1, 'uid': '1593f92705487cd3b7265521', 'detail_info': {'tag': '金融;投资理财', 'type': 'life', 'detail_url': 'http://api.map.baidu.com/place/detail?uid=1593f92705487cd3b7265521&output=html&source=placeapi_v2', 'image_num': '1', 'children': [], 'lat': 32.034803582271884, 'lng': 118.73033384935852}}"
"{'name': '江苏华控投资管理有限公司', 'location': {'lat': 32.03196029129826, 'lng': 118.73314276532194}, 'address': '江苏省南京市建邺区江东中路106号万达广场b座', 'province': '江苏省', 'city': '南京市', 'area': '建邺区', 'detail': 1, 'uid': '624eecac7a005809b9df8ff6', 'detail_info': {'tag': '金融;投资理财', 'type': 'life', 'detail_url': 'http://api.map.baidu.com/place/detail?uid=624eecac7a005809b9df8ff6&output=html&source=placeapi_v2', 'image_num': '1', 'children': [], 'lat': 32.03196029129826, 'lng': 118.73314276532194}}"
"{'name': '中国农业银行24小时自助银行(南京茶亭东街支行)', 'location': {'lat': 32.03611222522301, 'lng': 118.74569907737346}, 'address': '江苏省南京市建邺区水西门大街221号', 'province': '江苏省', 'city': '南京市', 'area': '建邺区', 'street_id': '5e53af1a80c6ee214151c032', 'detail': 1, 'uid': '5e53af1a80c6ee214151c032', 'detail_info': {'tag': '金融;atm', 'navi_location': {'lng': 118.75742116781, 'lat': 32.039820106405}, 'type': 'life', 'detail_url': 'http://api.map.baidu.com/place/detail?uid=5e53af1a80c6ee214151c032&output=html&source=placeapi_v2', 'overall_rating': '0.0', 'image_num': '10', 'comment_num': '4', 'children': [], 'lat': 32.03611222522301, 'lng': 118.74569907737346}}"
"{'name': '招商银行24小时自助银行(凤凰西街)', 'location': {'lat': 32.04299593917979, 'lng': 118.73924085058658}, 'address': '凤凰西街317号', 'province': '江苏省', 'city': '南京市', 'area': '鼓楼区', 'street_id': 'b6bd5f8df275785759f6be9f', 'detail': 1, 'uid': 'b6bd5f8df275785759f6be9f', 'detail_info': {'tag': '金融;atm', 'type': 'life', 'detail_url': 'http://api.map.baidu.com/place/detail?uid=b6bd5f8df275785759f6be9f&output=html&source=placeapi_v2', 'overall_rating': '0.0', 'image_num': '8', 'comment_num': '4', 'children': [], 'lat': 32.04299593917979, 'lng': 118.73924085058658}}"
"{'name': '中国建设银行24小时自助银行(江东门支行)', 'location': {'lat': 32.043044775235735, 'lng': 118.73300115130354}, 'address': '江东北路91号典雅居大厦', 'province': '江苏省', 'city': '南京市', 'area': '鼓楼区', 'street_id': '21cfa1cca93d6d1bd5b74ebc', 'detail': 1, 'uid': '21cfa1cca93d6d1bd5b74ebc', 'detail_info': {'tag': '金融;atm', 'type': 'life', 'detail_url': 'http://api.map.baidu.com/place/detail?uid=21cfa1cca93d6d1bd5b74ebc&output=html&source=placeapi_v2', 'overall_rating': '5.0', 'image_num': '6', 'comment_num': '2', 'children': [], 'lat': 32.043044775235735, 'lng': 118.73300115130354}}"
"{'name': '南京平安信贷投资有限公司', 'location': {'lat': 32.03426445463754, 'lng': 118.73733811489627}, 'address': '云锦路与福园街交叉口西北150米', 'province': '江苏省', 'city': '南京市', 'area': '建邺区', 'detail': 1, 'uid': 'caa336e35483ba0bb64f542a', 'detail_info': {'tag': '金融;投资理财', 'type': 'life', 'detail_url': 'http://api.map.baidu.com/place/detail?uid=caa336e35483ba0bb64f542a&output=html&source=placeapi_v2', 'image_num': '1', 'children': [], 'lat': 32.03426445463754, 'lng': 118.73733811489627}}"
"{'name': '浦发银行24小时自助银行(莫愁支行)', 'location': {'lat': 32.036663230127274, 'lng': 118.74225777362216}, 'address': '江苏省南京市建邺区水西门大街251附近', 'province': '江苏省', 'city': '南京市', 'area': '建邺区', 'street_id': '53c0eafc9395386f88f15d4c', 'detail': 1, 'uid': '53c0eafc9395386f88f15d4c', 'detail_info': {'tag': '金融;atm', 'navi_location': {'lng': 118.75414999997, 'lat': 32.040465017897}, 'type': 'life', 'detail_url': 'http://api.map.baidu.com/place/detail?uid=53c0eafc9395386f88f15d4c&output=html&source=placeapi_v2', 'image_num': '4', 'children': [], 'lat': 32.036663230127274, 'lng': 118.74225777362216}}"
"{'name': '招商银行24小时自助银行(水西门支行)', 'location': {'lat': 32.03656730464128, 'lng': 118.74673654819412},