[{"name": "\u6c5f\u5fc3\u6d32\u793e\u533a\u536b\u751f\u670d\u52a1\u4e2d\u5fc3", "location": {"lat": 32.012277583876596, "lng": 118.68887533884946}, "address": "\u5357\u4eac\u5e02\u5efa\u90ba\u533a\u4e2d\u68da\u8def57\u53f7", "province": "\u6c5f\u82cf\u7701", "city": "\u5357\u4eac\u5e02", "area": "\u5efa\u90ba\u533a", "street_id": "a9a4e6f6d4d19f974354d7e3", "telephone": "(025)86420534", "detail": 1, "uid": "a9a4e6f6d4d19f974354d7e3", "detail_info": {"tag": "\u533b\u7597;\u8bca\u6240", "navi_location": {"lng": 118.70071035045, "lat": 32.016815653941}, "type": "hospital", "detail_url": "http://api.map.baidu.com/place/detail?uid=a9a4e6f6d4d19f974354d7e3&output=html&source=placeapi_v2", "image_num": "6", "children": [], "lat": 32.012277583876596, "lng": 118.68887533884946}}, {"name": "\u5efa\u90ba\u533a\u8001\u5e74\u516c\u5bd3", "location": {"lat": 32.01291633613731, "lng": 118.69034414365639}, "address": "\u6c11\u5b89\u8def1", "province": "\u6c5f\u82cf\u7701", "city": "\u5357\u4eac\u5e02", "area": "\u5efa\u90ba\u533a", "street_id": "a8d4c2b4b7d252f11ce9993b", "telephone": "(025)86333022", "detail": 1, "uid": "a8d4c2b4b7d252f11ce9993b", "detail_info": {"tag": "\u533b\u7597;\u7597\u517b\u9662", "navi_location": {"lng": 118.70139774461, "lat": 32.01652379459}, "type": "hospital", "detail_url": "http://api.map.baidu.com/place/detail?uid=a8d4c2b4b7d252f11ce9993b&output=html&source=placeapi_v2", "image_num": "1", "children": [], "lat": 32.01291633613731, "lng": 118.69034414365639}}, {"name": "\u540c\u548c\u5802\u5927\u836f\u623f(\u6c5f\u5fc3\u6d32\u5e97)", "location": {"lat": 32.028012668134984, "lng": 118.69080365980325}, "address": "\u6c5f\u5fc3\u6d32\u7ea2\u661f\u885786\u53f7\u4e8c\u697c\u82cf\u679c\u8d85\u5e02\u5165\u53e3\u65c1", "province": "\u6c5f\u82cf\u7701", "city": "\u5357\u4eac\u5e02", "area": "\u5efa\u90ba\u533a", "detail": 1, "uid": "c62e01dc36ca1c2815c9053a", "detail_info": {"tag": "\u533b\u7597;\u836f\u5e97", "type": "hospital", "detail_url": "http://api.map.baidu.com/place/detail?uid=c62e01dc36ca1c2815c9053a&output=html&source=placeapi_v2", "overall_rating": "0.0", "image_num": "1", "comment_num": "1", "children": [], "lat": 32.028012668134984, "lng": 118.69080365980325}}, {"name": "\u7693\u9f50\u53e3\u8154", "location": {"lat": 32.015098945244446, "lng": 118.72162312035114}, "address": "\u5357\u4eac\u5e02\u5efa\u90ba\u533a\u68a6\u90fd\u5927\u8857150\u53f7706\u5ba4", "province": "\u6c5f\u82cf\u7701", "city": "\u5357\u4eac\u5e02", "area": "\u5efa\u90ba\u533a", "street_id": "708be68f46e88f31cafa5f94", "detail": 1, "uid": "708be68f46e88f31cafa5f94", "detail_info": {"tag": "\u533b\u7597;\u8bca\u6240", "navi_location": {"lng": 118.73429622561, "lat": 32.018595102784}, "type": "hospital", "detail_url": "http://api.map.baidu.com/place/detail?uid=708be68f46e88f31cafa5f94&output=html&source=placeapi_v2", "overall_rating": "5.0", "image_num": "11", "comment_num": "2", "children": [], "lat": 32.015098945244446, "lng": 118.72162312035114}}, {"name": "AMC\u4e2d\u5fc3\u52a8\u7269\u533b\u9662(\u68a6\u90fd\u5927\u8857\u5206\u9662)", "location": {"lat": 32.01754634385537, "lng": 118.71623348974315}, "address": "\u6c5f\u82cf\u7701\u5357\u4eac\u5e02\u5efa\u90ba\u533a\u68a6\u90fd\u5927\u8857176-2\u53f7\u5730\u94c110\u53f7\u7ebf\u68a6\u90fd\u5927\u8857\u7ad94\u53f7\u51fa\u53e3\u65c1", "province": "\u6c5f\u82cf\u7701", "city": "\u5357\u4eac\u5e02", "area": "\u5efa\u90ba\u533a", "street_id": "2d7b451cc5773f00b5147f93", "telephone": "(025)58790763", "detail": 1, "uid": "2d7b451cc5773f00b5147f93", "detail_info": {"tag": "\u751f\u6d3b\u670d\u52a1;\u5ba0\u7269\u670d\u52a1", "navi_location": {"lng": 118.72802280398, "lat": 32.021193479864}, "type": "life", "detail_url": "http://api.map.baidu.com/place/detail?uid=2d7b451cc5773f00b5147f93&output=html&source=placeapi_v2", "overall_rating": "4.6", "image_num": "5", "comment_num": "19", "children": [], "lat": 32.01754634385537, "lng": 118.71623348974315}}, {"name": "\u5723\u5b89\u5ba0\u7269\u533b\u9662(\u5bcc\u6625\u6c5f\u897f\u8857)", "location": {"lat": 32.00625009583226, "lng": 118.71367080846144}, "address": "\u6c5f\u82cf\u7701\u5357\u4eac\u5e02\u5efa\u90ba\u533a\u5bcc\u6625\u6c5f\u897f\u885728-18\u53f7", "province": "\u6c5f\u82cf\u7701", "city": "\u5357\u4eac\u5e02", "area": "\u5efa\u90ba\u533a", "street_id": "cd173e760ccd973e6d47607e", "telephone": "(025)87715727", "detail": 1, "uid": "cd173e760ccd973e6d47607e", "detail_info": {"tag": "\u751f\u6d3b\u670d\u52a1;\u5ba0\u7269\u670d\u52a1", "type": "life", "detail_url": "http://api.map.baidu.com/place/detail?uid=cd173e760ccd973e6d47607e&output=html&source=placeapi_v2", "overall_rating": "5.0", "image_num": "30", "comment_num": "7", "children": [], "lat": 32.00625009583226, "lng": 118.71367080846144}}, {"name": "\u6781\u8349\u5802", "location": {"lat": 32.01788993933449, "lng": 118.71718927818252}, "address": "\u6c5f\u82cf\u7701\u5357\u4eac\u5e02\u5efa\u90ba\u533a\u68a6\u90fd\u5927\u8857176-112\u53f7\u4e1c\u535750\u7c73", "province": "\u6c5f\u82cf\u7701", "city": "\u5357\u4eac\u5e02", "area": "\u5efa\u90ba\u533a", "street_id": "3f084219c95e19e83310af3a", "detail": 1, "uid": "3f084219c95e19e83310af3a", "detail_info": {"tag": "\u533b\u7597;\u5176\u4ed6", "type": "hospital", "detail_url": "http://api.map.baidu.com/place/detail?uid=3f084219c95e19e83310af3a&output=html&source=placeapi_v2", "image_num": "5", "children": [], "lat": 32.01788993933449, "lng": 118.71718927818252}}, {"name": "\u53f0\u5b9d\u513f\u79d1", "location": {"lat": 32.0175021166493, "lng": 118.71699146227999}, "address": "\u6c5f\u82cf\u7701\u5357\u4eac\u5e02\u5efa\u90ba\u533a\u4e50\u5c71\u8def167-19~20\u53f7", "province": "\u6c5f\u82cf\u7701", "city": "\u5357\u4eac\u5e02", "area": "\u5efa\u90ba\u533a", "street_id": "d0bd0046a8494be930870a8d", "telephone": "(025)58372227", "detail": 1, "uid": "d0bd0046a8494be930870a8d", "detail_info": {"tag": "\u533b\u7597;\u8bca\u6240", "type": "hospital", "detail_url": "http://api.map.baidu.com/place/detail?uid=d0bd0046a8494be930870a8d&output=html&source=placeapi_v2", "overall_rating": "5.0", "image_num": "6", "comment_num": "1", "children": [], "lat": 32.0175021166493, "lng": 118.71699146227999}}, {"name": "\u8054\u5f3a\u56fd\u9645\u5927\u53a6\u6797\u533b\u751f", "location": {"lat": 32.010989364984134, "lng": 118.71724841414392}, "address": "\u6c5f\u82cf\u7701\u5357\u4eac\u5e02\u5efa\u90ba\u533a\u6cb3\u897f\u4e2d\u592e\u5546\u52a1\u533a\u6c5f\u4e1c\u4e2d\u8def289\u53f7\u8054\u5f3a\u56fd\u9645\u5927\u53a6\u6797\u533b\u751f", "province": "\u6c5f\u82cf\u7701", "city": "\u5357\u4eac\u5e02", "area": "\u5efa\u90ba\u533a", "detail": 1, "uid": "61b580cbccdf59785fbe8639", "detail_info": {"tag": "\u533b\u7597;\u8bca\u6240", "type": "hospital", "detail_url": "http://api.map.baidu.com/place/detail?uid=61b580cbccdf59785fbe8639&output=html&source=placeapi_v2", "image_num": "1", "children": [], "lat": 32.010989364984134, "lng": 118.71724841414392}}, {"name": "\u79c0\u6d3e\u5ba0\u7269\u4f1a\u6240(\u91d1\u9a6c\u90e6\u57ce\u5e97)", "location": {"lat": 32.00931640229782, "lng": 118.71013183075256}, "address": "\u6c5f\u82cf\u7701\u5357\u4eac\u5e02\u5efa\u90ba\u533a\u5965\u4f53\u5927\u8857199\u53f7\u91d1\u9a6c\u90e6\u57ce3\u5e62112", "province": "\u6c5f\u82cf\u7701", "city": "\u5357\u4eac\u5e02", "area": "\u5efa\u90ba\u533a", "street_id": "fc9b91b723125e0c4107c1af", "telephone": "(025)57720300", "detail": 1, "uid": "fc9b91b723125e0c4107c1af", "detail_info": {"tag": "\u751f\u6d3b\u670d\u52a1;\u5ba0\u7269\u670d\u52a1", "type": "life", "detail_url": "http://api.map.baidu.com/place/detail?uid=fc9b91b723125e0c4107c1af&output=html&source=placeapi_v2", "overall_rating": "5.0", "image_num": "15", "comment_num": "2", "children": [], "lat": 32.00931640229782, "lng": 118.71013183075256}}, {"name": "\u5317\u4eac\u540c\u4ec1\u5802(\u4e2d\u592e\u5546\u573a\u5e97)", "location": {"lat": 32.00876079949962, "lng": 118.7266296294831}, "address": "\u5357\u4eac\u5e02\u5efa\u90ba\u533a\u6c5f\u4e1c\u4e2d\u8def235\u53f7\u4e2d\u592e\u5546\u573aF1", "province": "\u6c5f\u82cf\u7701", "city": "\u5357\u4eac\u5e02", "area": "\u5efa\u90ba\u533a", "street_id": "f89e967b80e18f9fc72ba117", "detail": 1, "uid": "f89e967b80e18f9fc72ba117", "detail_info": {"tag": "\u533b\u7597;\u836f\u5e97", "navi_location": {"lng": 118.7385928532, "lat": 32.011782331342}, "indoor_floor": "F1", "type": "hospital", "detail_url": "http://api.map.baidu.com/place/detail?uid=f89e967b80e18f9fc72ba117&output=html&source=placeapi_v2", "overall_rating": "3.0", "image_num": "9", "comment_num": "1", "children": [], "lat": 32.00876079949962, "lng": 118.7266296294831}}, {"name": "\u5947\u51a0\u836f\u5e97(\u4e50\u5c71\u8def\u5e97)", "location": {"lat": 32.018331768582094, "lng": 118.71775418349482}, "address": "\u6c5f\u82cf\u7701\u5357\u4eac\u5e02\u5efa\u90ba\u533a\u4e50\u5c71\u8def167-6", "province": "\u6c5f\u82cf\u7701", "city": "\u5357\u4eac\u5e02", "area": "\u5efa\u90ba\u533a", "street_id": "5e67185467afac895d17c396", "telephone": "(025)83192249", "detail": 1, "uid": "5e67185467afac895d17c396", "detail_info": {"tag": "\u533b\u7597;\u836f\u5e97", "navi_location": {"lng": 118.7295442384, "lat": 32.022233929057}, "type": "hospital", "detail_url": "http://api.map.baidu.com/place/detail?uid=5e67185467afac895d17c396&output=html&source=placeapi_v2", "overall_rating": "1.0", "image_num": "11", "comment_num": "3", "children": [], "lat": 32.018331768582094, "lng": 118.71775418349482}}, {"name": "\u6d77\u738b\u661f\u8fb0\u5065\u5eb7\u836f\u623f(\u5357\u4eac\u5bcc\u6625\u6c5f\u897f\u8857\u5e97)", "location": {"lat": 32.006151381792776, "lng": 118.71388354443324}, "address": "\u6c5f\u82cf\u7701\u5357\u4eac\u5e02\u5efa\u90ba\u533a\u5bcc\u6625\u6c5f\u897f\u885728-14\u53f7", "province": "\u6c5f\u82cf\u7701", "city": "\u5357\u4eac\u5e02", "area": "\u5efa\u90ba\u533a", "street_id": "213b4f1592fedd822cb90860", "telephone": "(025)83613395", "detail": 1, "uid": "213b4f1592fedd822cb90860", "detail_info": {"tag": "\u533b\u7597;\u836f\u5e97", "navi_location": {"lng": 118.72540670118, "lat": 32.009811335354}, "type": "hospital", "detail_url": "http://api.map.baidu.com/place/detail?uid=213b4f1592fedd822cb90860&output=html&source=placeapi_v2", "overall_rating": "4.0", "image_num": "20", "comment_num": "4", "children": [], "lat": 32.006151381792776, "lng": 118.71388354443324}}, {"name": "\u827e\u8d1d\u5c14\u5ba0\u7269\u533b\u9662(\u5965\u4f53\u5e97)", "location": {"lat": 32.020871142080516, "lng": 118.72009162900356}, "address": "\u5174\u9686\u5927\u8857196-4\u53f7", "province": "\u6c5f\u82cf\u7701", "city": "\u5357\u4eac\u5e02", "area": "\u5efa\u90ba\u533a", "street_id": "cc6c4baa7412f9c675e5b68f", "telephone": "(025)84614136", "detail": 1, "uid": "cc6c4baa7412f9c675e5b68f", "detail_info": {"tag": "\u751f\u6d3b\u670d\u52a1;\u5ba0\u7269\u670d\u52a1", "navi_location": {"lng": 118.73178137801, "lat": 32.02440546521}, "type": "life", "detail_url": "http://api.map.baidu.com/place/detail?uid=cc6c4baa7412f9c675e5b68f&output=html&source=placeapi_v2", "price": "855", "overall_rating": "4.8", "image_num": "15", "comment_num": "30", "children": [], "lat": 32.020871142080516, "lng": 118.72009162900356}}, {"name": "\u5357\u4eac\u8f7b\u989c", "location": {"lat": 32.021804511820136, "lng": 118.71223741870485}, "address": "\u6c5f\u82cf\u7701\u5357\u4eac\u5e02\u5efa\u90ba\u533a\u87ba\u4e1d\u6865\u5927\u885791\u53f7", "province": "\u6c5f\u82cf\u7701", "city": "\u5357\u4eac\u5e02", "area": "\u5efa\u90ba\u533a", "street_id": "816c5590a4c981628715416a", "detail": 1, "uid": "816c5590a4c981628715416a", "detail_info": {"tag": "\u533b\u7597;\u5176\u4ed6", "navi_location": {"lng": 118.72411255092, "lat": 32.02602665086}, "type": "hospital", "detail_url": "http://api.map.baidu.com/place/detail?uid=816c5590a4c981628715416a&output=html&source=placeapi_v2", "overall_rating": "0.0", "image_num": "2", "comment_num": "1", "children": [], "lat": 32.021804511820136, "lng": 118.71223741870485}}, {"name": "\u6625\u8bed\u533b\u7597\u7f8e\u5bb9", "location": {"lat": 32.0196060580059, "lng": 118.72329677155415}, "address": "\u5357\u4eac\u5e02\u5efa\u90ba\u533a\u5174\u9686\u5927\u8857170-8170-9\u53f7", "province": "\u6c5f\u82cf\u7701", "city": "\u5357\u4eac\u5e02", "area": "\u5efa\u90ba\u533a", "street_id": "4aa820232e49e1f28c1a894f", "telephone": "(025)52238788", "detail": 1, "uid": "4aa820232e49e1f28c1a894f", "detail_info": {"tag": "\u533b\u7597;\u4e13\u79d1\u533b\u9662", "navi_location": {"lng": 118.73497202893, "lat": 32.023110595893}, "type": "hospital", "detail_url": "http://api.map.baidu.com/place/detail?uid=4aa820232e49e1f28c1a894f&output=html&source=placeapi_v2", "image_num": "6", "children": [], "lat": 32.0196060580059, "lng": 118.72329677155415}}, {"name": "\u827e\u7c73\u8389\u5ba0\u7269\u533b\u9662", "location": {"lat": 32.025441712940214, "lng": 118.72069398090498}, "address": "\u6c5f\u82cf\u7701\u5357\u4eac\u5e02\u5efa\u90ba\u533a\u4e50\u5c71\u8def111-24\u53f7(\u9760\u8fd1\u5e94\u5929\u9ad8\u67b6)", "province": "\u6c5f\u82cf\u7701", "city": "\u5357\u4eac\u5e02", "area": "\u5efa\u90ba\u533a", "street_id": "db22b8d53082a2e6d6851fa0", "telephone": "15950587556", "detail": 1, "uid": "db22b8d53082a2e6d6851fa0", "detail_info": {"tag": "\u751f\u6d3b\u670d\u52a1;\u5ba0\u7269\u670d\u52a1", "navi_location": {"lng": 118.73239870074, "lat": 32.029153014798}, "type": "life", "detail_url": "http://api.map.baidu.com/place/detail?uid=db22b8d53082a2e6d6851fa0&output=html&source=placeapi_v2", "overall_rating": "5.0", "image_num": "8", "comment_num": "5", "children": [], "lat": 32.025441712940214, "lng": 118.72069398090498}}, {"name": "\u840c\u8fbe\u53e3\u8154", "location": {"lat": 32.019285990360736, "lng": 118.72211759026034}, "address": "\u5357\u4eac\u5e02\u5174\u9686\u5927\u8857175-6\u5ba4175-7\u5ba4", "province": "\u6c5f\u82cf\u7701", "city": "\u5357\u4eac\u5e02", "area": "\u5efa\u90ba\u533a", "street_id": "9c1b6b3272b1e92817a1906b", "telephone": "(025)58069998", "detail": 1, "uid": "9c1b6b3272b1e92817a1906b", "detail_info": {"tag": "\u533b\u7597;\u8bca\u6240", "type": "hospital", "detail_url": "http://api.map.baidu.com/place/detail?uid=9c1b6b3272b1e92817a1906b&output=html&source=placeapi_v2", "image_num": "3", "children": [], "lat": 32.019285990360736, "lng": 118.72211759026034}}, {"name": "\u5357\u4eac\u5e02\u5efa\u90ba\u533a\u987a\u5eb7\u8bca\u6240", "location": {"lat": 32.01995728825052, "lng": 118.7131738067944}, "address": "\u6c5f\u82cf\u7701\u5357\u4eac\u5e02\u5efa\u90ba\u533a\u677e\u82b1\u6c5f\u897f\u885765\u53f7", "province": "\u6c5f\u82cf\u7701", "city": "\u5357\u4eac\u5e02", "area": "\u5efa\u90ba\u533a", "street_id": "b97ef258a8513aa854bfff66", "telephone": "13913841783", "detail": 1, "uid": "b97ef258a8513aa854bfff66", "detail_info": {"tag": "\u533b\u7597;\u8bca\u6240", "navi_location": {"lng": 118.72499155917, "lat": 32.02390050275}, "type": "hospital", "detail_url": "http://api.map.baidu.com/place/detail?uid=b97ef258a8513aa854bfff66&output=html&source=placeapi_v2", "overall_rating": "0.0", "image_num": "13", "comment_num": "3", "children": [], "lat": 32.01995728825052, "lng": 118.7131738067944}}, {"name": "\u5357\u4eac\u5e02\u7b2c\u4e00\u533b\u9662\u6cb3\u897f\u9662\u533a-\u5730\u9762\u505c\u8f66\u573a", "location": {"lat": 32.02354845166456, "lng": 118.7278679635348}, "address": "\u71d5\u5c71\u8def19\u53f7\u9644\u8fd1", "province": "\u6c5f\u82cf\u7701", "city": "\u5357\u4eac\u5e02", "area": "\u5efa\u90ba\u533a", "street_id": "3d0bf0d54721c198c056aca2", "detail": 1, "uid": "3d0bf0d54721c198c056aca2", "detail_info": {"tag": "\u4ea4\u901a\u8bbe\u65bd;\u505c\u8f66\u573a", "navi_location": {"lng": 118.73961169758, "lat": 32.026916892024}, "type": "life", "detail_url": "http://api.map.baidu.com/place/detail?uid=3d0bf0d54721c198c056aca2&output=html&source=placeapi_v2", "image_num": "1", "children": [], "lat": 32.02354845166456, "lng": 118.7278679635348}}, {"name": "\u5148\u58f0\u518d\u5eb7\u836f\u5e97(\u6708\u5b89\u8857\u836f\u5e97)", "location": {"lat": 32.02207605422085, "lng": 118.72539804171187}, "address": "\u6c5f\u82cf\u7701\u5357\u4eac\u5e02\u6708\u5b89\u885731-3\u53f7,31-4\u53f7", "province": "\u6c5f\u82cf\u7701", "city": "\u5357\u4eac\u5e02", "area": "\u5efa\u90ba\u533a", "street_id": "9760edd8574c6a16715e807d", "telephone": "(025)52367572", "detail": 1, "uid": "9760edd8574c6a16715e807d", "detail_info": {"tag": "\u533b\u7597;\u836f\u5e97", "type": "hospital", "detail_url": "http://api.map.baidu.com/place/detail?uid=9760edd8574c6a16715e807d&output=html&source=placeapi_v2", "overall_rating": "2.0", "image_num": "16", "comment_num": "3", "children": [], "lat": 32.02207605422085, "lng": 118.72539804171187}}, {"name": "\u5148\u58f0\u518d\u5eb7\u836f\u5e97(\u5174\u9686\u5927\u8857\u836f\u5e97)", "location": {"lat": 32.020554931047975, "lng": 118.71903278925261}, "address": "\u5357\u4eac\u5e02\u5efa\u90ba\u533a\u5174\u9686\u5927\u8857203-4\u007f", "province": "\u6c5f\u82cf\u7701", "city": "\u5357\u4eac\u5e02", "area": "\u5efa\u90ba\u533a", "street_id": "6fa17ee36a2065a9ed74f8e4", "telephone": "(025)83373781", "detail": 1, "uid": "6fa17ee36a2065a9ed74f8e4", "detail_info": {"tag": "\u533b\u7597;\u836f\u5e97", "navi_location": {"lng": 118.73074313626, "lat": 32.024399708902}, "type": "hospital", "detail_url": "http://api.map.baidu.com/place/detail?uid=6fa17ee36a2065a9ed74f8e4&output=html&source=placeapi_v2", "image_num": "6", "children": [], "lat": 32.020554931047975, "lng": 118.71903278925261}}, {"name": "\u767e\u5bb6\u836f\u5e97", "location": {"lat": 32.02245784230975, "lng": 118.72699299065381}, "address": "\u5357\u4eac\u5e02\u5efa\u90ba\u533a\u71d5\u5c71\u8def\u4e0e\u6708\u5b89\u8857\u4ea4\u53c9\u8def\u53e3\u5f80\u4e1c\u7ea6100\u7c73(\u6708\u5b89\u751f\u6d3b\u5e7f\u573a)", "province": "\u6c5f\u82cf\u7701", "city": "\u5357\u4eac\u5e02", "area": "\u5efa\u90ba\u533a", "telephone": "(025)87785610", "detail": 1, "uid": "cb175d41a92a5c03c0364434", "detail_info": {"tag": "\u533b\u7597;\u836f\u5e97", "type": "hospital", "detail_url": "http://api.map.baidu.com/place/detail?uid=cb175d41a92a5c03c0364434&output=html&source=placeapi_v2", "image_num": "1", "children": [], "lat": 32.02245784230975, "lng": 118.72699299065381}}, {"name": "\u6d77\u738b\u661f\u8fb0\u5065\u5eb7\u836f\u623f(\u5357\u4eac\u6708\u5b89\u8857\u5e97)", "location": {"lat": 32.024626924067945, "lng": 118.71566771768525}, "address": "\u6708\u5b89\u885757\u53f7-2", "province": "\u6c5f\u82cf\u7701", "city": "\u5357\u4eac\u5e02", "area": "\u5efa\u90ba\u533a", "street_id": "20a2891fc96778bfce04efe8", "telephone": "(025)58836702", "detail": 1, "uid": "20a2891fc96778bfce04efe8", "detail_info": {"tag": "\u533b\u7597;\u836f\u5e97", "navi_location": {"lng": 118.72741254372, "lat": 32.028428242331}, "type": "hospital", "detail_url": "http://api.map.baidu.com/place/detail?uid=20a2891fc96778bfce04efe8&output=html&source=placeapi_v2", "image_num": "11", "children": [], "lat": 32.024626924067945, "lng": 118.71566771768525}}, {"name": "\u77f3\u57ce\u5ba0\u7269", "location": {"lat": 32.02875776991833, "lng": 118.72621558948201}, "address": "\u534e\u5c71\u8def99\u53f7\u79ef\u8d24\u96c5\u82d11\u680b104", "province": "\u6c5f\u82cf\u7701", "city": "\u5357\u4eac\u5e02", "area": "\u5efa\u90ba\u533a", "telephone": "(025)86702118", "detail": 1, "uid": "5eb1559e88b076d741e1924a", "detail_info": {"tag": "\u751f\u6d3b\u670d\u52a1;\u5ba0\u7269\u670d\u52a1", "type": "life", "detail_url": "http://api.map.baidu.com/place/detail?uid=5eb1559e88b076d741e1924a&output=html&source=placeapi_v2", "image_num": "2", "children": [], "lat": 32.02875776991833, "lng": 118.72621558948201}}, {"name": "\u5357\u4eac\u4f18\u529b\u5927\u836f\u623f", "location": {"lat": 32.0252952724412, "lng": 118.71514911544845}, "address": "\u6c5f\u82cf\u7701\u5357\u4eac\u5e02\u5efa\u90ba\u533a\u82cd\u5c71\u8def\u4e0e\u6708\u5b89\u8857\u4ea4\u53c9\u53e3\u897f\u5317\u89d2\u51cc\u6c5f\u5e9c01\u5e6213\u5ba4\u300114\u5ba4", "province": "\u6c5f\u82cf\u7701", "city": "\u5357\u4eac\u5e02", "area": "\u5efa\u90ba\u533a", "street_id": "2f1bdd87567d985b4107c1dc", "telephone": "(025)58639295", "detail": 1, "uid": "2f1bdd87567d985b4107c1dc", "detail_info": {"tag": "\u533b\u7597;\u836f\u5e97", "type": "hospital", "detail_url": "http://api.map.baidu.com/place/detail?uid=2f1bdd87567d985b4107c1dc&output=html&source=placeapi_v2", "overall_rating": "4.0", "image_num": "19", "comment_num": "6", "children": [], "lat": 32.0252952724412, "lng": 118.71514911544845}}, {"name": "\u51ac\u866b\u590f\u8349", "location": {"lat": 32.02072395345239, "lng": 118.72041125015365}, "address": "\u5357\u4eac\u5e02\u5efa\u90ba\u533a\u5174\u9686\u5927\u8857196-1\u53f7", "province": "\u6c5f\u82cf\u7701", "city": "\u5357\u4eac\u5e02", "area": "\u5efa\u90ba\u533a", "street_id": "159268f1e5008314b426558d", "telephone": "15652348889", "detail": 1, "uid": "159268f1e5008314b426558d", "detail_info": {"tag": "\u8d2d\u7269", "type": "shopping", "detail_url": "http://api.map.baidu.com/place/detail?uid=159268f1e5008314b426558d&output=html&source=placeapi_v2", "children": [], "lat": 32.02072395345239, "lng": 118.72041125015365}}, {"name": "\u5148\u58f0\u518d\u5eb7\u836f\u5e97(\u51cc\u6c5f\u5e9c\u836f\u5e97)", "location": {"lat": 32.025598783480056, "lng": 118.71620209368184}, "address": "\u5357\u4eac\u5e02\u5efa\u90ba\u533a\u82cd\u5c71\u8def(\u6c47\u9526\u56fd\u9645\u51cc\u6c5f\u5e9c)", "province": "\u6c5f\u82cf\u7701", "city": "\u5357\u4eac\u5e02", "area": "\u5efa\u90ba\u533a", "street_id": "de0cf219b4540780081cc7d5", "telephone": "(025)57626463", "detail": 1, "uid": "de0cf219b4540780081cc7d5", "detail_info": {"tag": "\u533b\u7597;\u836f\u5e97", "type": "hospital", "detail_url": "http://api.map.baidu.com/place/detail?uid=de0cf219b4540780081cc7d5&output=html&source=placeapi_v2", "image_num": "3", "children": [], "lat": 32.025598783480056, "lng": 118.71620209368184}}, {"name": "\u8857\u7535(\u6625\u8bed\u533b\u7597\u7f8e\u5bb9\u8bca\u6240)", "location": {"lat": 32.01965741351913, "lng": 118.72333261090489}, "address": "\u5174\u9686\u5927\u8857170-9\u53f7", "province": "\u6c5f\u82cf\u7701", "city": "\u5357\u4eac\u5e02", "area": "\u5efa\u90ba\u533a", "detail": 1, "uid": "6f146eb5a24fc3e92902e1c1", "detail_info": {"tag": "\u751f\u6d3b\u670d\u52a1;\u5176\u4ed6", "type": "life", "detail_url": "http://api.map.baidu.com/place/detail?uid=6f146eb5a24fc3e92902e1c1&output=html&source=placeapi_v2", "image_num": "1", "children": [], "lat": 32.01965741351913, "lng": 118.72333261090489}}, {"name": "\u9f13\u697c\u533a\u6c5f\u4e1c\u793e\u533a\u536b\u751f\u670d\u52a1\u4e2d\u5fc3", "location": {"lat": 32.031961879492194, "lng": 118.72569526730841}, "address": "\u6c5f\u82cf\u7701\u5357\u4eac\u5e02\u9f13\u697c\u533a\u6da6\u6c5f\u8def\u4e00\u53f7", "province": "\u6c5f\u82cf\u7701", "city": "\u5357\u4eac\u5e02", "area": "\u9f13\u697c\u533a", "street_id": "8dc20685d2811626c336444a", "detail": 1, "uid": "8dc20685d2811626c336444a", "detail_info": {"tag": "\u533b\u7597;\u8bca\u6240", "navi_location": {"lng": 118.73776069082, "lat": 32.035630196609}, "type": "hospital", "detail_url": "http://api.map.baidu.com/place/detail?uid=8dc20685d2811626c336444a&output=html&source=placeapi_v2", "overall_rating": "5.0", "image_num": "15", "comment_num": "5", "children": [], "lat": 32.031961879492194, "lng": 118.72569526730841}}, {"name": "\u6c5f\u82cf\u7701\u8001\u5e74\u533b\u9662\u5206\u9662", "location": {"lat": 32.03292472945795, "lng": 118.71688401266482}, "address": "\u6c5f\u82cf\u7701\u5357\u4eac\u5e02\u5efa\u90ba\u533a\u96c6\u5e86\u95e8\u5927\u8857269\u53f7", "province": "\u6c5f\u82cf\u7701", "city": "\u5357\u4eac\u5e02", "area": "\u5efa\u90ba\u533a", "street_id": "afc56c7c7fbbbdade115f9fe", "telephone": "(025)86385130", "detail": 1, "uid": "afc56c7c7fbbbdade115f9fe", "detail_info": {"tag": "\u533b\u7597;\u5176\u4ed6", "navi_location": {"lng": 118.72832726127, "lat": 32.037281756265}, "type": "hospital", "detail_url": "http://api.map.baidu.com/place/detail?uid=afc56c7c7fbbbdade115f9fe&output=html&source=placeapi_v2", "overall_rating": "0.0", "image_num": "5", "comment_num": "2", "children": [], "lat": 32.03292472945795, "lng": 118.71688401266482}}, {"name": "\u5de8\u9ca8\u533b\u7597", "location": {"lat": 32.041157032835294, "lng": 118.7277806111741}, "address": "\u6c5f\u82cf\u7701\u5357\u4eac\u5e02\u6c49\u4e2d\u95e8\u5927\u8857301\u53f71\u5e628\u697ca\u5ea7", "province": "\u6c5f\u82cf\u7701", "city": "\u5357\u4eac\u5e02", "area": "\u9f13\u697c\u533a", "street_id": "c78647b4bcf878262902e164", "detail": 1, "uid": "c78647b4bcf878262902e164", "detail_info": {"tag": "\u516c\u53f8\u4f01\u4e1a;\u516c\u53f8", "navi_location": {"lng": 118.7393766571, "lat": 32.044987730503}, "type": "enterprise", "detail_url": "http://api.map.baidu.com/place/detail?uid=c78647b4bcf878262902e164&output=html&source=placeapi_v2", "children": [], "lat": 32.041157032835294, "lng": 118.7277806111741}}, {"name": "\u5357\u4eac\u4e3d\u7ef4\u5b89\u533b\u7597\u7f8e\u5bb9", "location": {"lat": 32.0344259557542, "lng": 118.7165472853525}, "address": "\u5357\u4eac\u5e02\u9f13\u697c\u533a\u96c6\u5e86\u95e8\u5927\u8857272\u53f7201\u5ba4", "province": "\u6c5f\u82cf\u7701", "city": "\u5357\u4eac\u5e02", "area": "\u9f13\u697c\u533a", "telephone": "(025)86290777", "detail": 1, "uid": "f44979ce471842e176e5b673", "detail_info": {"tag": "\u533b\u7597;\u5176\u4ed6", "type": "hospital", "detail_url": "http://api.map.baidu.com/place/detail?uid=f44979ce471842e176e5b673&output=html&source=placeapi_v2", "overall_rating": "0.0", "image_num": "1", "comment_num": "1", "children": [], "lat": 32.0344259557542, "lng": 118.7165472853525}}, {"name": "\u6c5f\u82cf\u7701\u8001\u5e74\u533b\u9662\u5206\u9662-\u4e1c\u5317\u95e8", "location": {"lat": 32.0334842760573, "lng": 118.7166397485155}, "address": "\u6c5f\u82cf\u7701\u5357\u4eac\u5e02\u5efa\u90ba\u533a\u96c6\u5e86\u95e8\u5927\u8857269\u53f7", "province": "\u6c5f\u82cf\u7701", "city": "\u5357\u4eac\u5e02", "area": "\u5efa\u90ba\u533a", "street_id": "73bf636759bc8cc5da2f28c4", "detail": 1, "uid": "73bf636759bc8cc5da2f28c4", "detail_info": {"tag": "\u51fa\u5165\u53e3;\u95e8", "type": "life", "detail_url": "http://api.map.baidu.com/place/detail?uid=73bf636759bc8cc5da2f28c4&output=html&source=placeapi_v2", "image_num": "1", "children": [], "lat": 32.0334842760573, "lng": 118.7166397485155}}, {"name": "\u6c5f\u82cf\u5357\u5927\u82cf\u5bcc\u7279\u533b\u7597\u79d1\u6280\u6709\u9650\u516c\u53f8", "location": {"lat": 32.0402270189507, "lng": 118.72396647809548}, "address": "\u5357\u4eac\u5e02\u9f13\u697c\u533a\u6e05\u6c5f\u5357\u8def19\u53f7\u5357\u5927\u82cf\u5bcc\u7279\u79d1\u6280\u521b\u65b0\u56ed2\u53f7\u697c", "province": "\u6c5f\u82cf\u7701", "city": "\u5357\u4eac\u5e02", "area": "\u9f13\u697c\u533a", "street_id": "69993e5d8954c6d4ce04efd1", "detail": 1, "uid": "69993e5d8954c6d4ce04efd1", "detail_info": {"tag": "\u516c\u53f8\u4f01\u4e1a;\u516c\u53f8", "type": "enterprise", "detail_url": "http://api.map.baidu.com/place/detail?uid=69993e5d8954c6d4ce04efd1&output=html&source=placeapi_v2", "children": [], "lat": 32.0402270189507, "lng": 118.72396647809548}}, {"name": "\u6587\u84d3\u533b\u7597\u7528\u54c1\u6709\u9650\u516c\u53f8", "location": {"lat": 32.03387553065549, "lng": 118.71803412618533}, "address": "\u5357\u4eac\u5e02\u9f13\u697c\u533a\u82cf\u5b81\u6167\u8c372\u680b1408", "province": "\u6c5f\u82cf\u7701", "city": "\u5357\u4eac\u5e02", "area": "\u9f13\u697c\u533a", "street_id": "75df418bcb0d297dbca82291", "detail": 1, "uid": "75df418bcb0d297dbca82291", "detail_info": {"tag": "\u516c\u53f8\u4f01\u4e1a;\u516c\u53f8", "type": "enterprise", "detail_url": "http://api.map.baidu.com/place/detail?uid=75df418bcb0d297dbca82291&output=html&source=placeapi_v2", "children": [], "lat": 32.03387553065549, "lng": 118.71803412618533}}, {"name": "\u6d77\u738b\u661f\u8fb0\u5065\u5eb7\u836f\u623f(\u5357\u4eac\u71d5\u5c71\u8def\u5e97)", "location": {"lat": 32.03382522898583, "lng": 118.72641123853903}, "address": "\u6c5f\u82cf\u7701\u5357\u4eac\u5e02\u9f13\u697c\u533a\u71d5\u5c71\u8def19\u53f7\u96c6\u8d24\u8def\u548c\u6da6\u6c5f\u8def\u4ea4\u53c9\u53e3", "province": "\u6c5f\u82cf\u7701", "city": "\u5357\u4eac\u5e02", "area": "\u9f13\u697c\u533a", "street_id": "f878979071814632a4c7568a", "telephone": "(025)84359768", "detail": 1, "uid": "f878979071814632a4c7568a", "detail_info": {"tag": "\u533b\u7597;\u836f\u5e97", "navi_location": {"lng": 118.73795557426, "lat": 32.037636386915}, "type": "hospital", "detail_url": "http://api.map.baidu.com/place/detail?uid=f878979071814632a4c7568a&output=html&source=placeapi_v2", "image_num": "20", "children": [], "lat": 32.03382522898583, "lng": 118.72641123853903}}, {"name": "\u5927\u5fb7\u65bd\u6069SIR\u5065\u5eb7\u4e2d\u5fc3\uff08\u9f13\u697c\u5e97\uff09", "location": {"lat": 32.034002749204426, "lng": 118.72278558516498}, "address": "\u6c5f\u82cf\u7701\u5357\u4eac\u5e02\u9f13\u697c\u533a\u96c6\u8d24\u8def93\u53f7", "province": "\u6c5f\u82cf\u7701", "city": "\u5357\u4eac\u5e02", "area": "\u9f13\u697c\u533a", "street_id": "ece84a3512185be628fc4898", "detail": 1, "uid": "ece84a3512185be628fc4898", "detail_info": {"tag": "\u533b\u7597;\u8bca\u6240", "type": "hospital", "detail_url": "http://api.map.baidu.com/place/detail?uid=ece84a3512185be628fc4898&output=html&source=placeapi_v2", "overall_rating": "0.0", "image_num": "4", "comment_num": "1", "children": [], "lat": 32.034002749204426, "lng": 118.72278558516498}}, {"name": "\u94f6\u6e90\u57ce\u8bca\u6240", "location": {"lat": 32.05425839437021, "lng": 118.72519842704658}, "address": "\u95fd\u6c5f\u8def102\u53f7", "province": "\u6c5f\u82cf\u7701", "city": "\u5357\u4eac\u5e02", "area": "\u9f13\u697c\u533a", "street_id": "d1e19ea341a4b713631c671e", "telephone": "(025)86287939", "detail": 1, "uid": "d1e19ea341a4b713631c671e", "detail_info": {"tag": "\u533b\u7597;\u8bca\u6240", "type": "hospital", "detail_url": "http://api.map.baidu.com/place/detail?uid=d1e19ea341a4b713631c671e&output=html&source=placeapi_v2", "overall_rating": "5.0", "image_num": "9", "comment_num": "4", "children": [], "lat": 32.05425839437021, "lng": 118.72519842704658}}, {"name": "\u5eb7\u6ee1\u5802", "location": {"lat": 32.049124170918205, "lng": 118.727685169636}, "address": "\u5357\u4eac\u5e02\u9f13\u697c\u533a\u6e05\u51c9\u95e8\u5927\u8857296\u53f7\u82cf\u5b81\u99a8\u7470\u56ed1\u680b104", "province": "\u6c5f\u82cf\u7701", "city": "\u5357\u4eac\u5e02", "area": "\u9f13\u697c\u533a", "street_id": "fadfc3dcddb0db64a2a934c9", "detail": 1, "uid": "fadfc3dcddb0db64a2a934c9", "detail_info": {"tag": "\u533b\u7597", "type": "hospital", "detail_url": "http://api.map.baidu.com/place/detail?uid=fadfc3dcddb0db64a2a934c9&output=html&source=placeapi_v2", "image_num": "2", "children": [], "lat": 32.049124170918205, "lng": 118.727685169636}}, {"name": "\u836f\u5e2e\u624b\u667a\u6167\u836f\u623f", "location": {"lat": 32.04850472546032, "lng": 118.7272898684592}, "address": "\u6c5f\u82cf\u7701\u5357\u4eac\u5e02\u9f13\u697c\u533a\u6e05\u51c9\u95e8\u5927\u8857303-6", "province": "\u6c5f\u82cf\u7701", "city": "\u5357\u4eac\u5e02", "area": "\u9f13\u697c\u533a", "street_id": "3131aa13d2b03a9aa2a93425", "telephone": "17729993330", "detail": 1, "uid": "3131aa13d2b03a9aa2a93425", "detail_info": {"tag": "\u533b\u7597;\u836f\u5e97", "type": "hospital", "detail_url": "http://api.map.baidu.com/place/detail?uid=3131aa13d2b03a9aa2a93425&output=html&source=placeapi_v2", "image_num": "1", "children": [], "lat": 32.04850472546032, "lng": 118.7272898684592}}, {"name": "\u9890\u5e74\u5802\u836f\u623f(\u82cf\u5b81\u73af\u7403\u5546\u8d38\u57ce\u5e97)", "location": {"lat": 32.046113375290794, "lng": 118.72505917775918}, "address": "\u5357\u4eac\u5e02\u9f13\u697c\u533a\u6e05\u6c5f\u8def99\u53f7\u82cf\u5b81\u73af\u7403\u5546\u8d38\u57ceF1", "province": "\u6c5f\u82cf\u7701", "city": "\u5357\u4eac\u5e02", "area": "\u9f13\u697c\u533a", "street_id": "d46ed1b6c6d1f28f932ca37a", "telephone": "(025)52442270", "detail": 1, "uid": "d46ed1b6c6d1f28f932ca37a", "detail_info": {"tag": "\u533b\u7597;\u836f\u5e97", "indoor_floor": "F1", "type": "hospital", "detail_url": "http://api.map.baidu.com/place/detail?uid=d46ed1b6c6d1f28f932ca37a&output=html&source=placeapi_v2", "image_num": "11", "children": [], "lat": 32.046113375290794, "lng": 118.72505917775918}}, {"name": "\u543e\u533b\u5802", "location": {"lat": 32.08253481535685, "lng": 118.72704173927023}, "address": "\u5357\u4eac\u5e02\u9f13\u697c\u533a\u5510\u5c71\u8def\u4e0e\u5357\u901a\u8def\u4ea4\u53c9\u8def\u53e3\u5f80\u5317\u7ea6150\u7c73(\u8302\u60a6\u6e2f)", "province": "\u6c5f\u82cf\u7701", "city": "\u5357\u4eac\u5e02", "area": "\u9f13\u697c\u533a", "detail": 1, "uid": "d9dc1a22ef335b2783a00c37", "detail_info": {"tag": "\u533b\u7597;\u5176\u4ed6", "type": "hospital", "detail_url": "http://api.map.baidu.com/place/detail?uid=d9dc1a22ef335b2783a00c37&output=html&source=placeapi_v2", "image_num": "4", "children": [], "lat": 32.08253481535685, "lng": 118.72704173927023}}, {"name": "\u5eb7\u4e3d\u533b\u7f8e", "location": {"lat": 32.08230751324994, "lng": 118.72716031698894}, "address": "\u6c5f\u82cf\u7701\u5357\u4eac\u5e02\u9f13\u697c\u533a\u5357\u901a\u8def118\u53f7\u8302\u60a6\u6e2f3\u53f7\u697c301", "province": "\u6c5f\u82cf\u7701", "city": "\u5357\u4eac\u5e02", "area": "\u9f13\u697c\u533a", "street_id": "8630d556d043009b58f6bee6", "detail": 1, "uid": "8630d556d043009b58f6bee6", "detail_info": {"tag": "\u533b\u7597;\u4e13\u79d1\u533b\u9662", "type": "hospital", "detail_url": "http://api.map.baidu.com/place/detail?uid=8630d556d043009b58f6bee6&output=html&source=placeapi_v2", "image_num": "1", "children": [], "lat": 32.08230751324994, "lng": 118.72716031698894}}, {"name": "\u5357\u4eac\u5e02\u5efa\u90ba\u533a\u5357\u82d1\u793e\u533a\u536b\u751f\u670d\u52a1\u4e2d\u5fc3", "location": {"lat": 32.01300826978202, "lng": 118.732339727624}, "address": "\u5357\u4eac\u5e02\u5efa\u90ba\u533a\u5e90\u5c71\u8def90\u53f7", "province": "\u6c5f\u82cf\u7701", "city": "\u5357\u4eac\u5e02", "area": "\u5efa\u90ba\u533a", "street_id": "38d72e1ef1f0642b2b201a92", "telephone": "(025)86475631", "detail": 1, "uid": "38d72e1ef1f0642b2b201a92", "detail_info": {"tag": "\u533b\u7597;\u8bca\u6240", "navi_location": {"lng": 118.74406994047, "lat": 32.01612814244}, "type": "hospital", "detail_url": "http://api.map.baidu.com/place/detail?uid=38d72e1ef1f0642b2b201a92&output=html&source=placeapi_v2", "overall_rating": "5.0", "image_num": "7", "comment_num": "4", "children": [], "lat": 32.01300826978202, "lng": 118.732339727624}}, {"name": "\u5357\u4eac\u5e02\u53e3\u8154\u533b\u9662\u7b2c\u4e94\u95e8\u8bca\u90e8", "location": {"lat": 32.0118855849687, "lng": 118.73167271765948}, "address": "\u5357\u4eac\u5e02\u5efa\u90ba\u533a\u5e90\u5c71\u8def98-2\u53f7", "province": "\u6c5f\u82cf\u7701", "city": "\u5357\u4eac\u5e02", "area": "\u5efa\u90ba\u533a", "street_id": "37a967a3329dc901704b873b", "telephone": "(025)83620113", "detail": 1, "uid": "37a967a3329dc901704b873b", "detail_info": {"tag": "\u533b\u7597;\u8bca\u6240", "navi_location": {"lng": 118.74356552935, "lat": 32.015413011502}, "type": "hospital", "detail_url": "http://api.map.baidu.com/place/detail?uid=37a967a3329dc901704b873b&output=html&source=placeapi_v2", "image_num": "7", "children": [], "lat": 32.0118855849687, "lng": 118.73167271765948}}, {"name": "\u5357\u4eac\u6613\u5b89\u4f53\u68c0\u4e2d\u5fc3", "location": {"lat": 32.01758433543822, "lng": 118.7319420980491}, "address": "\u6c5f\u82cf\u7701\u5357\u4eac\u5e02\u5efa\u90ba\u533a\u6c5f\u4e1c\u4e2d\u8def211\u53f7\u51e4\u51f0\u6587\u5316\u5e7f\u573aA\u5ea77\u697c", "province": "\u6c5f\u82cf\u7701", "city": "\u5357\u4eac\u5e02", "area": "\u5efa\u90ba\u533a", "street_id": "b2f029f51d1116c0373a71b0", "telephone": "(025)84455558,(025)83136663", "detail": 1, "uid": "b2f029f51d1116c0373a71b0", "detail_info": {"tag": "\u533b\u7597;\u4f53\u68c0\u673a\u6784", "navi_location": {"lng": 118.74352819038, "lat": 32.021162607864}, "type": "hospital", "detail_url": "http://api.map.baidu.com/place/detail?uid=b2f029f51d1116c0373a71b0&output=html&source=placeapi_v2", "image_num": "7", "children": [], "lat": 32.01758433543822, "lng": 118.7319420980491}}, {"name": "\u5357\u4eac\u809b\u6cf0\u809b\u80a0\u533b\u9662", "location": {"lat": 32.018040539963735, "lng": 118.74304478288141}, "address": "\u6c5f\u82cf\u7701\u5357\u4eac\u5e02\u5efa\u90ba\u533a\u9ec4\u5c71\u8def2\u53f7", "province": "\u6c5f\u82cf\u7701", "city": "\u5357\u4eac\u5e02", "area": "\u5efa\u90ba\u533a", "street_id": "e93761f66aa7da15233bf2ab", "telephone": "(025)82226851", "detail": 1, "uid": "e93761f66aa7da15233bf2ab", "detail_info": {"tag": "\u533b\u7597;\u4e13\u79d1\u533b\u9662", "navi_location": {"lng": 118.75521811397, "lat": 32.021491065306}, "type": "hospital", "detail_url": "http://api.map.baidu.com/place/detail?uid=e93761f66aa7da15233bf2ab&output=html&source=placeapi_v2", "price": "0.0", "overall_rating": "4.1", "image_num": "26", "comment_num": "50", "children": [], "lat": 32.018040539963735, "lng": 118.74304478288141}}, {"name": "\u6c5f\u82cf\u7701\u53e3\u8154\u533b\u9662(\u5357\u82d1\u95e8\u8bca\u90e8)", "location": {"lat": 32.01273135100283, "lng": 118.73241966482723}, "address": "\u5357\u4eac\u5e02\u5efa\u90ba\u533a\u5e90\u5c71\u8def90\u53f7\u5357\u82d1\u793e\u533a\u670d\u52a1\u4e2d\u5fc3\u4e8c\u5c42", "province": "\u6c5f\u82cf\u7701", "city": "\u5357\u4eac\u5e02", "area": "\u5efa\u90ba\u533a", "street_id": "4c592f444dc84103f90cadec", "telephone": "(025)86516056", "detail": 1, "uid": "4c592f444dc84103f90cadec", "detail_info": {"tag": "\u533b\u7597;\u5176\u4ed6", "navi_location": {"lng": 118.7441433491, "lat": 32.016085762241}, "type": "hospital", "detail_url": "http://api.map.baidu.com/place/detail?uid=4c592f444dc84103f90cadec&output=html&source=placeapi_v2", "overall_rating": "0.0", "image_num": "8", "comment_num": "1", "children": [], "lat": 32.01273135100283, "lng": 118.73241966482723}}, {"name": "\u8bfa\u96c5\u5ba0\u7269\u533b\u9662(\u9ec4\u5c71\u8def\u5e97)", "location": {"lat": 32.01712459599622, "lng": 118.7425010796834}, "address": "\u5357\u4eac\u5e02\u5efa\u90ba\u533a\u9ec4\u5c71\u8def10\u53f7", "province": "\u6c5f\u82cf\u7701", "city": "\u5357\u4eac\u5e02", "area": "\u5efa\u90ba\u533a", "street_id": "b1c556e8aa8fa60cb52655af", "telephone": "(025)52466067", "detail": 1, "uid": "b1c556e8aa8fa60cb52655af", "detail_info": {"tag": "\u751f\u6d3b\u670d\u52a1;\u5ba0\u7269\u670d\u52a1", "navi_location": {"lng": 118.7548206021, "lat": 32.020916399147}, "type": "life", "detail_url": "http://api.map.baidu.com/place/detail?uid=b1c556e8aa8fa60cb52655af&output=html&source=placeapi_v2", "overall_rating": "3.0", "image_num": "10", "comment_num": "5", "children": [], "lat": 32.01712459599622, "lng": 118.7425010796834}}, {"name": "\u7389\u8559\u53e3\u8154", "location": {"lat": 32.01692870660054, "lng": 118.73475377412362}, "address": "\u6c5f\u82cf\u7701\u5357\u4eac\u5e02\u5efa\u90ba\u533a\u767d\u9e6d\u4e1c\u885792-6\u53f7", "province": "\u6c5f\u82cf\u7701", "city": "\u5357\u4eac\u5e02", "area": "\u5efa\u90ba\u533a", "street_id": "5d277989f4cd11c10089729b", "telephone": "(025)83206168", "detail": 1, "uid": "5d277989f4cd11c10089729b", "detail_info": {"tag": "\u533b\u7597;\u8bca\u6240", "detail_url": "http://api.map.baidu.com/place/detail?uid=5d277989f4cd11c10089729b&output=html&source=placeapi_v2", "children": [], "lat": 32.01692870660054, "lng": 118.73475377412362}}, {"name": "\u65b0\u534e\u5065\u5eb7", "location": {"lat": 32.01197169767925, "lng": 118.73171065788297}, "address": "\u5e90\u5c71\u8def94\u53f7\u6b27\u6d32\u57ce\u88d9\u697c3\u697c", "province": "\u6c5f\u82cf\u7701", "city": "\u5357\u4eac\u5e02", "area": "\u5efa\u90ba\u533a", "street_id": "a4ebccc62622a42d8936ee3b", "telephone": "(025)52277898", "detail": 1, "uid": "a4ebccc62622a42d8936ee3b", "detail_info": {"tag": "\u533b\u7597;\u4f53\u68c0\u673a\u6784", "navi_location": {"lng": 118.74327480176, "lat": 32.016308606228}, "type": "hospital", "detail_url": "http://api.map.baidu.com/place/detail?uid=a4ebccc62622a42d8936ee3b&output=html&source=placeapi_v2", "price": "0.0", "overall_rating": "0.0", "image_num": "12", "comment_num": "1", "children": [], "lat": 32.01197169767925, "lng": 118.73171065788297}}, {"name": "\u5141\u548c\u6cf0\u4e2d\u533b\u8bca\u6240", "location": {"lat": 32.014392553610406, "lng": 118.74159227582786}, "address": "\u6c5f\u82cf\u7701\u5357\u4eac\u5e02\u5efa\u90ba\u533a\u9ec4\u5c71\u8def21\u53f7", "province": "\u6c5f\u82cf\u7701", "city": "\u5357\u4eac\u5e02", "area": "\u5efa\u90ba\u533a", "street_id": "c534cdbadf7417fcb11e363f", "telephone": "(025)86635390", "detail": 1, "uid": "c534cdbadf7417fcb11e363f", "detail_info": {"tag": "\u533b\u7597;\u8bca\u6240", "navi_location": {"lng": 118.75318978414, "lat": 32.018175491354}, "type": "hospital", "detail_url": "http://api.map.baidu.com/place/detail?uid=c534cdbadf7417fcb11e363f&output=html&source=placeapi_v2", "overall_rating": "4.0", "image_num": "2", "comment_num": "2", "children": [], "lat": 32.014392553610406, "lng": 118.74159227582786}}, {"name": "\u5efa\u90ba\u4e91\u5eb7\u8bca\u6240", "location": {"lat": 32.018544398511665, "lng": 118.73743698690774}, "address": "\u5357\u4eac\u5e02\u5efa\u90ba\u533a\u5e90\u5c71\u8def30\u53f7", "province": "\u6c5f\u82cf\u7701", "city": "\u5357\u4eac\u5e02", "area": "\u5efa\u90ba\u533a", "street_id": "f15ffb708ea28b71d0ff2317", "telephone": "13505146119", "detail": 1, "uid": "f15ffb708ea28b71d0ff2317", "detail_info": {"tag": "\u533b\u7597;\u8bca\u6240", "navi_location": {"lng": 118.74923889099, "lat": 32.022081351604}, "type": "hospital", "detail_url": "http://api.map.baidu.com/place/detail?uid=f15ffb708ea28b71d0ff2317&output=html&source=placeapi_v2", "overall_rating": "0.0", "image_num": "20", "comment_num": "1", "children": [], "lat": 32.018544398511665, "lng": 118.73743698690774}}, {"name": "\u5efa\u90ba\u533a\u56fd\u5b89\u8bca\u6240", "location": {"lat": 32.01442414028379, "lng": 118.74709113931183}, "address": "\u6c5f\u82cf\u7701\u5357\u4eac\u5e02\u5efa\u90ba\u533a\u6cf0\u5c71\u8def9-2\u4e34", "province": "\u6c5f\u82cf\u7701", "city": "\u5357\u4eac\u5e02", "area": "\u5efa\u90ba\u533a", "street_id": "26e8042acda0c223c61e5121", "detail": 1, "uid": "26e8042acda0c223c61e5121", "detail_info": {"tag": "\u533b\u7597;\u8bca\u6240", "type": "hospital", "detail_url": "http://api.map.baidu.com/place/detail?uid=26e8042acda0c223c61e5121&output=html&source=placeapi_v2", "overall_rating": "0.0", "image_num": "13", "comment_num": "2", "children": [], "lat": 32.01442414028379, "lng": 118.74709113931183}}, {"name": "\u6d77\u738b\u661f\u8fb0\u5065\u5eb7\u836f\u623f(\u5357\u4eac\u5174\u9686\u5927\u8857\u5e97)", "location": {"lat": 32.01514455098444, "lng": 118.73178405599336}, "address": "\u6c5f\u82cf\u7701\u5357\u4eac\u5e02\u5efa\u90ba\u533a\u5174\u9686\u5927\u8857113\u9644\u8fd1", "province": "\u6c5f\u82cf\u7701", "city": "\u5357\u4eac\u5e02", "area": "\u5efa\u90ba\u533a", "street_id": "ad42f545da896b7c220262a0", "telephone": "(025)83193286", "detail": 1, "uid": "ad42f545da896b7c220262a0", "detail_info": {"tag": "\u533b\u7597;\u836f\u5e97", "navi_location": {"lng": 118.74371428785, "lat": 32.01920007739}, "type": "hospital", "detail_url": "http://api.map.baidu.com/place/detail?uid=ad42f545da896b7c220262a0&output=html&source=placeapi_v2", "image_num": "4", "children": [], "lat": 32.01514455098444, "lng": 118.73178405599336}}, {"name": "\u5efa\u90ba\u533a\u8679\u82d1-\u793e\u533a\u536b\u751f\u7ad9", "location": {"lat": 32.017278125197905, "lng": 118.74631002039698}, "address": "\u5357\u4eac\u5e02\u5efa\u90ba\u533a\u5d69\u5c71\u8def\u4e0e\u5e94\u5929\u5927\u8857\u4ea4\u53c9\u8def\u53e3\u5f80\u5357\u7ea650\u7c73(\u8679\u82d1\u65b0\u5bd3\u5c0f\u533a\u897f\u5317\u4fa7)", "province": "\u6c5f\u82cf\u7701", "city": "\u5357\u4eac\u5e02", "area": "\u5efa\u90ba\u533a", "street_id": "b533ea4a28fc53414e6d46af", "detail": 1, "uid": "b533ea4a28fc53414e6d46af", "detail_info": {"tag": "\u533b\u7597;\u8bca\u6240", "type": "hospital", "detail_url": "http://api.map.baidu.com/place/detail?uid=b533ea4a28fc53414e6d46af&output=html&source=placeapi_v2", "overall_rating": "0.0", "image_num": "8", "comment_num": "1", "children": [], "lat": 32.017278125197905, "lng": 118.74631002039698}}, {"name": "\u5357\u4eac\u809b\u6cf0\u809b\u80a0\u533b\u9662-\u5730\u9762\u505c\u8f66\u573a", "location": {"lat": 32.01798880034133, "lng": 118.74338249071624}, "address": "\u9ec4\u5c71\u8def2\u53f7", "province": "\u6c5f\u82cf\u7701", "city": "\u5357\u4eac\u5e02", "area": "\u5efa\u90ba\u533a", "street_id": "69df1b7b7c776072e01103f1", "detail": 1, "uid": "69df1b7b7c776072e01103f1", "detail_info": {"tag": "\u4ea4\u901a\u8bbe\u65bd;\u505c\u8f66\u573a", "navi_location": {"lng": 118.75507490161, "lat": 32.021642371247}, "type": "life", "detail_url": "http://api.map.baidu.com/place/detail?uid=69df1b7b7c776072e01103f1&output=html&source=placeapi_v2", "image_num": "1", "children": [], "lat": 32.01798880034133, "lng": 118.74338249071624}}, {"name": "\u541b\u664f\u5802\u4e2d\u533b\u8bca\u6240", "location": {"lat": 32.016689224735906, "lng": 118.74140338166646}, "address": "\u5357\u4eac\u5e02\u5efa\u90ba\u533a\u6021\u5eb7\u885768\u53f7", "province": "\u6c5f\u82cf\u7701", "city": "\u5357\u4eac\u5e02", "area": "\u5efa\u90ba\u533a", "street_id": "b7b2ea519ebfd0b12dfaa7cc", "telephone": "(025)83323933", "detail": 1, "uid": "b7b2ea519ebfd0b12dfaa7cc", "detail_info": {"tag": "\u533b\u7597;\u8bca\u6240", "type": "hospital", "detail_url": "http://api.map.baidu.com/place/detail?uid=b7b2ea519ebfd0b12dfaa7cc&output=html&source=placeapi_v2", "overall_rating": "5.0", "image_num": "5", "comment_num": "1", "children": [], "lat": 32.016689224735906, "lng": 118.74140338166646}}, {"name": "\u521b\u666e\u533b\u7597\u79d1\u6280\u516c\u53f8", "location": {"lat": 32.016863092352054, "lng": 118.73147600588264}, "address": "\u5357\u4eac\u5e02\u6c5f\u4e1c\u4e2d\u8def215\u53f7\u51e4\u51f0\u6587\u5316\u5e7f\u573aB\u5ea78\u697c", "province": "\u6c5f\u82cf\u7701", "city": "\u5357\u4eac\u5e02", "area": "\u5efa\u90ba\u533a", "street_id": "fc3e85d0c30513c8c356ac42", "telephone": "(025)52334365", "detail": 1, "uid": "fc3e85d0c30513c8c356ac42", "detail_info": {"tag": "\u516c\u53f8\u4f01\u4e1a;\u516c\u53f8", "navi_location": {"lng": 118.74359392748, "lat": 32.019364028115}, "type": "enterprise", "detail_url": "http://api.map.baidu.com/place/detail?uid=fc3e85d0c30513c8c356ac42&output=html&source=placeapi_v2", "children": [], "lat": 32.016863092352054, "lng": 118.73147600588264}}, {"name": "\u5357\u4eac\u5efa\u90ba\u4e07\u798f\u56ed\u8bca\u6240", "location": {"lat": 32.014035195654735, "lng": 118.74418939650072}, "address": "\u6021\u5eb7\u885729\u53f7", "province": "\u6c5f\u82cf\u7701", "city": "\u5357\u4eac\u5e02", "area": "\u5efa\u90ba\u533a", "street_id": "58255984dfa1645f047ce86e", "detail": 1, "uid": "58255984dfa1645f047ce86e", "detail_info": {"tag": "\u533b\u7597;\u8bca\u6240", "navi_location": {"lng": 118.755758142, "lat": 32.017792348898}, "type": "hospital", "detail_url": "http://api.map.baidu.com/place/detail?uid=58255984dfa1645f047ce86e&output=html&source=placeapi_v2", "overall_rating": "0.0", "image_num": "8", "comment_num": "1", "children": [], "lat": 32.014035195654735, "lng": 118.74418939650072}}, {"name": "\u56fd\u5b89\u8bca\u6240-\u53e3\u8154\u79d1", "location": {"lat": 32.01443077226161, "lng": 118.7471242397268}, "address": "\u6c5f\u82cf\u7701\u5357\u4eac\u5e02\u5efa\u90ba\u533a\u6cf0\u5c71\u8def9-2\u4e34", "province": "\u6c5f\u82cf\u7701", "city": "\u5357\u4eac\u5e02", "area": "\u5efa\u90ba\u533a", "telephone": "15996498685", "detail": 1, "uid": "41b86c65da9d4f5f8936ee89", "detail_info": {"tag": "\u533b\u7597;\u5176\u4ed6", "type": "hospital", "detail_url": "http://api.map.baidu.com/place/detail?uid=41b86c65da9d4f5f8936ee89&output=html&source=placeapi_v2", "overall_rating": "0.0", "image_num": "4", "comment_num": "1", "children": [], "lat": 32.01443077226161, "lng": 118.7471242397268}}, {"name": "\u6c5f\u82cf\u7701\u53e3\u8154\u533b\u9662\u5357\u82d1\u95e8\u8bca\u90e8-\u897f\u5357\u95e8", "location": {"lat": 32.01257299824857, "lng": 118.73224689273037}, "address": "\u5357\u4eac\u5e02\u5efa\u90ba\u533a\u677e\u82b1\u6c5f\u4e1c\u885780", "province": "\u6c5f\u82cf\u7701", "city": "\u5357\u4eac\u5e02", "area": "\u5efa\u90ba\u533a", "street_id": "25e8dd740d233c996f3e1b0c", "detail": 1, "uid": "25e8dd740d233c996f3e1b0c", "detail_info": {"tag": "\u51fa\u5165\u53e3;\u95e8", "type": "life", "detail_url": "http://api.map.baidu.com/place/detail?uid=25e8dd740d233c996f3e1b0c&output=html&source=placeapi_v2", "image_num": "1", "children": [], "lat": 32.01257299824857, "lng": 118.73224689273037}}, {"name": "\u4e09\u4e5d\u836f\u5e97", "location": {"lat": 32.01782758995826, "lng": 118.7472817282853}, "address": "\u5357\u4eac\u5e02\u5efa\u90ba\u533a\u5e94\u5929\u5927\u8857\u4e0e\u5d69\u5c71\u8def\u4ea4\u53c9\u8def\u53e3\u5f80\u897f\u5317\u7ea650\u7c73(\u5929\u90fd\u82b3\u5ead)", "province": "\u6c5f\u82cf\u7701", "city": "\u5357\u4eac\u5e02", "area": "\u5efa\u90ba\u533a", "telephone": "(025)52466064", "detail": 1, "uid": "398dc46f8154d88b25d2bb83", "detail_info": {"tag": "\u533b\u7597;\u836f\u5e97", "type": "hospital", "detail_url": "http://api.map.baidu.com/place/detail?uid=398dc46f8154d88b25d2bb83&output=html&source=placeapi_v2", "price": "0.0", "overall_rating": "4.0", "image_num": "18", "comment_num": "3", "children": [], "lat": 32.01782758995826, "lng": 118.7472817282853}}, {"name": "\u7b51\u5eb7\u836f\u623f", "location": {"lat": 32.01652608982368, "lng": 118.73546364193655}, "address": "\u5e90\u5c71\u8def\u4e0e\u767d\u9e6d\u4e1c\u8857\u4ea4\u53c9\u53e3\u897f\u531750\u7c73", "province": "\u6c5f\u82cf\u7701", "city": "\u5357\u4eac\u5e02", "area": "\u5efa\u90ba\u533a", "street_id": "eb5e872a3483a5ad2bd7ab1f", "telephone": "(025)85579097", "detail": 1, "uid": "eb5e872a3483a5ad2bd7ab1f", "detail_info": {"tag": "\u533b\u7597;\u836f\u5e97", "navi_location": {"lng": 118.74718010501, "lat": 32.020084803753}, "type": "hospital", "detail_url": "http://api.map.baidu.com/place/detail?uid=eb5e872a3483a5ad2bd7ab1f&output=html&source=placeapi_v2", "image_num": "8", "children": [], "lat": 32.01652608982368, "lng": 118.73546364193655}}, {"name": "\u8001\u767e\u59d3\u5927\u836f\u623f(\u6cf0\u5c71\u8def\u5e97)", "location": {"lat": 32.01150395176748, "lng": 118.74563330837205}, "address": "\u6c5f\u82cf\u7701\u5357\u4eac\u5e02\u5efa\u90ba\u533a\u6cf0\u5c71\u8def65-11\u53f7", "province": "\u6c5f\u82cf\u7701", "city": "\u5357\u4eac\u5e02", "area": "\u5efa\u90ba\u533a", "street_id": "4f9d38079a33f4a5c056aca0", "telephone": "(025)86287366", "detail": 1, "uid": "4f9d38079a33f4a5c056aca0", "detail_info": {"tag": "\u533b\u7597;\u836f\u5e97", "navi_location": {"lng": 118.75751854592, "lat": 32.015325595972}, "type": "hospital", "detail_url": "http://api.map.baidu.com/place/detail?uid=4f9d38079a33f4a5c056aca0&output=html&source=placeapi_v2", "overall_rating": "0.0", "image_num": "8", "children": [], "lat": 32.01150395176748, "lng": 118.74563330837205}}, {"name": "\u602a\u517d\u5145\u7535(\u5357\u4eac\u809b\u6cf0\u4e2d\u533b\u533b\u9662)", "location": {"lat": 32.01806732863069, "lng": 118.7430718262854}, "address": "\u9ec4\u5c71\u8def2\u53f7", "province": "\u6c5f\u82cf\u7701", "city": "\u5357\u4eac\u5e02", "area": "\u5efa\u90ba\u533a", "detail": 1, "uid": "bab82adf8c773be029fc48f8", "detail_info": {"detail_url": "http://api.map.baidu.com/place/detail?uid=bab82adf8c773be029fc48f8&output=html&source=placeapi_v2", "children": [], "lat": 32.01806732863069, "lng": 118.7430718262854}}, {"name": "\u65e0\u9650\u6781", "location": {"lat": 32.01858418966422, "lng": 118.73811527137376}, "address": "\u5357\u4eac\u5e02\u5efa\u90ba\u533a\u6021\u5eb7\u8857\u4e0e\u5e90\u5c71\u8def\u4ea4\u53c9\u8def\u53e3\u4e1c\u4fa7(\u534e\u9686\u65b0\u5bd3)", "province": "\u6c5f\u82cf\u7701", "city": "\u5357\u4eac\u5e02", "area": "\u5efa\u90ba\u533a", "street_id": "4dffcc9a00710610fea7780a", "detail": 1, "uid": "4dffcc9a00710610fea7780a", "detail_info": {"tag": "\u8d2d\u7269;\u5546\u94fa", "type": "shopping", "detail_url": "http://api.map.baidu.com/place/detail?uid=4dffcc9a00710610fea7780a&output=html&source=placeapi_v2", "children": [], "lat": 32.01858418966422, "lng": 118.73811527137376}}, {"name": "\u5357\u4eac\u5e02\u7b2c\u4e00\u533b\u9662(\u6cb3\u897f\u9662\u533a)", "location": {"lat": 32.02281632835641, "lng": 118.72838515210806}, "address": "\u5357\u4eac\u5e02\u5efa\u90ba\u533a\u71d5\u5c71\u8def139\u53f7", "province": "\u6c5f\u82cf\u7701", "city": "\u5357\u4eac\u5e02", "area": "\u5efa\u90ba\u533a", "street_id": "63df605ee06471639b68b4c6", "detail": 1, "uid": "63df605ee06471639b68b4c6", "detail_info": {"tag": "\u533b\u7597;\u7efc\u5408\u533b\u9662", "navi_location": {"lng": 118.7402340924, "lat": 32.025658751101}, "type": "hospital", "detail_url": "http://api.map.baidu.com/place/detail?uid=63df605ee06471639b68b4c6&output=html&source=placeapi_v2", "overall_rating": "3.2", "image_num": "26", "comment_num": "11", "children": [], "lat": 32.02281632835641, "lng": 118.72838515210806}}, {"name": "\u5357\u4eac\u5e02\u5efa\u90ba\u533a\u5987\u5e7c\u4fdd\u5065\u6240", "location": {"lat": 32.022413590484696, "lng": 118.72923247250115}, "address": "\u5357\u4eac\u5e02\u5efa\u90ba\u533a\u6708\u5b89\u885718-2\u53f7", "province": "\u6c5f\u82cf\u7701", "city": "\u5357\u4eac\u5e02", "area": "\u5efa\u90ba\u533a", "street_id": "37d60a46cc7b35791e1d1144", "telephone": "(025)84205200", "detail": 1, "uid": "37d60a46cc7b35791e1d1144", "detail_info": {"tag": "\u533b\u7597;\u4e13\u79d1\u533b\u9662", "navi_location": {"lng": 118.74080904655, "lat": 32.025762427898}, "type": "hospital", "detail_url": "http://api.map.baidu.com/place/detail?uid=37d60a46cc7b35791e1d1144&output=html&source=placeapi_v2", "overall_rating": "4.0", "image_num": "15", "comment_num": "5", "children": [], "lat": 32.022413590484696, "lng": 118.72923247250115}}, {"name": "\u7f8e\u5e74\u5927\u5065\u5eb7(\u6cb3\u897f\u5206\u9662)", "location": {"lat": 32.02966757745118, "lng": 118.7334685895227}, "address": "\u6c5f\u82cf\u7701\u5357\u4eac\u5e02\u5efa\u90ba\u533a\u6c5f\u4e1c\u4e2d\u8def118\u53f7", "province": "\u6c5f\u82cf\u7701", "city": "\u5357\u4eac\u5e02", "area": "\u5efa\u90ba\u533a", "detail": 1, "uid": "8b03427a5e8bb12d3904b120", "detail_info": {"tag": "\u533b\u7597;\u4f53\u68c0\u673a\u6784", "navi_location": {"lng": 118.74539724546, "lat": 32.033270345074}, "type": "hospital", "detail_url": "http://api.map.baidu.com/place/detail?uid=8b03427a5e8bb12d3904b120&output=html&source=placeapi_v2", "image_num": "7", "children": [], "lat": 32.02966757745118, "lng": 118.7334685895227}}, {"name": "\u5efa\u90ba\u533a\u5174\u9686\u793e\u533a\u536b\u751f\u670d\u52a1\u4e2d\u5fc3", "location": {"lat": 32.02350533100371, "lng": 118.72983055493297}, "address": "\u6c5f\u82cf\u7701\u5357\u4eac\u5e02\u5efa\u90ba\u533a\u5e94\u5929\u5927\u8857919\u53f7", "province": "\u6c5f\u82cf\u7701", "city": "\u5357\u4eac\u5e02", "area": "\u5efa\u90ba\u533a", "street_id": "d1de8cb0c390d54a17c8f611", "telephone": "(025)83361131", "detail": 1, "uid": "d1de8cb0c390d54a17c8f611", "detail_info": {"tag": "\u533b\u7597;\u8bca\u6240", "navi_location": {"lng": 118.74188865527, "lat": 32.027804303}, "type": "hospital", "detail_url": "http://api.map.baidu.com/place/detail?uid=d1de8cb0c390d54a17c8f611&output=html&source=placeapi_v2", "image_num": "10", "children": [], "lat": 32.02350533100371, "lng": 118.72983055493297}}, {"name": "\u4f0a\u7f8e\u835f\u533b\u7597", "location": {"lat": 32.031290176789526, "lng": 118.73236324970267}, "address": "\u6c5f\u82cf\u7701\u5357\u4eac\u5e02\u4e07\u8fbe\u5e7f\u573aD\u5ea713\u5c42", "province": "\u6c5f\u82cf\u7701", "city": "\u5357\u4eac\u5e02", "area": "\u5efa\u90ba\u533a", "detail": 1, "uid": "c53da8ec80546249a104647c", "detail_info": {"tag": "\u533b\u7597;\u5176\u4ed6", "type": "hospital", "detail_url": "http://api.map.baidu.com/place/detail?uid=c53da8ec80546249a104647c&output=html&source=placeapi_v2", "image_num": "1", "children": [], "lat": 32.031290176789526, "lng": 118.73236324970267}}, {"name": "\u6cb3\u897f\u4e2d\u5fc3\u52a8\u7269\u533b\u9662", "location": {"lat": 32.019374545599966, "lng": 118.73242375087624}, "address": "\u6c5f\u4e1c\u4e2d\u8def203\u53f7301\u5ba4", "province": "\u6c5f\u82cf\u7701", "city": "\u5357\u4eac\u5e02", "area": "\u5efa\u90ba\u533a", "street_id": "232b2d2881c20281f03cbacc", "telephone": "(025)58786120", "detail": 1, "uid": "232b2d2881c20281f03cbacc", "detail_info": {"tag": "\u751f\u6d3b\u670d\u52a1;\u5ba0\u7269\u670d\u52a1", "navi_location": {"lng": 118.74407431971, "lat": 32.022965027982}, "type": "life", "detail_url": "http://api.map.baidu.com/place/detail?uid=232b2d2881c20281f03cbacc&output=html&source=placeapi_v2", "overall_rating": "3.7", "image_num": "5", "comment_num": "3", "children": [], "lat": 32.019374545599966, "lng": 118.73242375087624}}, {"name": "\u5357\u4eac\u534e\u97e9\u5947\u81f4\u7f8e\u5bb9\u533b\u9662", "location": {"lat": 32.02959556414548, "lng": 118.73345266745339}, "address": "\u6c5f\u4e1c\u4e2d\u8def126\u53f7\u5fb7\u76c8\u5927\u53a61\u5c42", "province": "\u6c5f\u82cf\u7701", "city": "\u5357\u4eac\u5e02", "area": "\u5efa\u90ba\u533a", "street_id": "83c4d3f4c2aba84ee9f8531b", "detail": 1, "uid": "83c4d3f4c2aba84ee9f8531b", "detail_info": {"tag": "\u533b\u7597;\u4e13\u79d1\u533b\u9662", "navi_location": {"lng": 118.74550385346, "lat": 32.033973382488}, "type": "hospital", "detail_url": "http://api.map.baidu.com/place/detail?uid=83c4d3f4c2aba84ee9f8531b&output=html&source=placeapi_v2", "overall_rating": "3.3", "image_num": "8", "comment_num": "3", "children": [], "lat": 32.02959556414548, "lng": 118.73345266745339}}, {"name": "\u77f3\u57ce\u5ba0\u7269\u533b\u9662(\u96c6\u5e86\u95e8\u5927\u8857\u5e97)", "location": {"lat": 32.02913407889003, "lng": 118.74282718139838}, "address": "\u96c6\u5e86\u95e8\u5927\u8857151-1(\u96c6\u5e86\u95e8\u5927\u8857\u4e0e\u6e56\u897f\u8857\u4ea4\u53c9\u8def\u897f\u5357\u89d2)", "province": "\u6c5f\u82cf\u7701", "city": "\u5357\u4eac\u5e02", "area": "\u5efa\u90ba\u533a", "street_id": "5ff6329aa623f893220220e0", "telephone": "(025)86302118", "detail": 1, "uid": "5ff6329aa623f893220220e0", "detail_info": {"tag": "\u751f\u6d3b\u670d\u52a1;\u5ba0\u7269\u670d\u52a1", "navi_location": {"lng": 118.75419352287, "lat": 32.033072469014}, "type": "life", "detail_url": "http://api.map.baidu.com/place/detail?uid=5ff6329aa623f893220220e0&output=html&source=placeapi_v2", "overall_rating": "3.1", "image_num": "24", "comment_num": "8", "children": [], "lat": 32.02913407889003, "lng": 118.74282718139838}}, {"name": "\u5357\u4eac\u5e08\u7687\u5ba0\u7269\u533b\u9662(\u6cb3\u897f\u5e97)", "location": {"lat": 32.02810427291464, "lng": 118.73740288448505}, "address": "\u6c5f\u82cf\u7701\u5357\u4eac\u5e02\u5efa\u90ba\u533a\u4e91\u9526\u8def139\u53f7", "province": "\u6c5f\u82cf\u7701", "city": "\u5357\u4eac\u5e02", "area": "\u5efa\u90ba\u533a", "street_id": "00d410f62189a68c1c389434", "telephone": "(025)86800910,13338613406", "detail": 1, "uid": "00d410f62189a68c1c389434", "detail_info": {"tag": "\u751f\u6d3b\u670d\u52a1;\u5ba0\u7269\u670d\u52a1", "navi_location": {"lng": 118.74896851989, "lat": 32.031791010524}, "type": "life", "detail_url": "http://api.map.baidu.com/place/detail?uid=00d410f62189a68c1c389434&output=html&source=placeapi_v2", "overall_rating": "2.7", "image_num": "18", "comment_num": "23", "children": [], "lat": 32.02810427291464, "lng": 118.73740288448505}}, {"name": "\u5efa\u90ba\u533a\u75be\u75c5\u9884\u9632\u63a7\u5236\u4e2d\u5fc3", "location": {"lat": 32.02230747265512, "lng": 118.72920958551374}, "address": "\u6c5f\u82cf\u7701\u5357\u4eac\u5e02\u5efa\u90ba\u533a\u6708\u5b89\u885718-1\u53f7", "province": "\u6c5f\u82cf\u7701", "city": "\u5357\u4eac\u5e02", "area": "\u5efa\u90ba\u533a", "street_id": "cdef4edf67dd034e28d7ab42", "detail": 1, "uid": "cdef4edf67dd034e28d7ab42", "detail_info": {"tag": "\u533b\u7597;\u75be\u63a7\u4e2d\u5fc3", "navi_location": {"lng": 118.74094824438, "lat": 32.02574666355}, "type": "hospital", "detail_url": "http://api.map.baidu.com/place/detail?uid=cdef4edf67dd034e28d7ab42&output=html&source=placeapi_v2", "overall_rating": "3.0", "image_num": "11", "comment_num": "5", "children": [], "lat": 32.02230747265512, "lng": 118.72920958551374}}, {"name": "\u5357\u4eac\u5e02\u7b2c\u4e00\u533b\u9662(\u6cb3\u897f\u9662\u533a)\u95e8\u8bca\u90e8-\u897f\u5317\u95e8", "location": {"lat": 32.023126147542435, "lng": 118.72816748601385}, "address": "\u6708\u5b89\u885718\u53f7\u9644\u8fd1", "province": "\u6c5f\u82cf\u7701", "city": "\u5357\u4eac\u5e02", "area": "\u5efa\u90ba\u533a", "street_id": "2ce9ec5bdf1d58852b201a8b", "detail": 1, "uid": "2ce9ec5bdf1d58852b201a8b", "detail_info": {"tag": "\u51fa\u5165\u53e3;\u95e8", "navi_location": {"lng": 118.73952054318, "lat": 32.026934503729}, "type": "life", "detail_url": "http://api.map.baidu.com/place/detail?uid=2ce9ec5bdf1d58852b201a8b&output=html&source=placeapi_v2", "image_num": "1", "children": [], "lat": 32.023126147542435, "lng": 118.72816748601385}}, {"name": "\u5357\u4eac\u5e02\u7b2c\u4e00\u533b\u9662\u6cb3\u897f\u9662\u533a-\u5357\u95e8", "location": {"lat": 32.02206858429315, "lng": 118.72844546026992}, "address": "\u6c5f\u82cf\u7701\u5357\u4eac\u5e02\u5efa\u90ba\u533a\u6708\u5b89\u8def18", "province": "\u6c5f\u82cf\u7701", "city": "\u5357\u4eac\u5e02", "area": "\u5efa\u90ba\u533a", "street_id": "7d3406342d475838db13180d", "detail": 1, "uid": "7d3406342d475838db13180d", "detail_info": {"tag": "\u51fa\u5165\u53e3;\u95e8", "navi_location": {"lng": 118.74019399564, "lat": 32.025598986962}, "type": "life", "detail_url": "http://api.map.baidu.com/place/detail?uid=7d3406342d475838db13180d&output=html&source=placeapi_v2", "image_num": "1", "children": [], "lat": 32.02206858429315, "lng": 118.72844546026992}}, {"name": "\u5eb7\u5408\u8425\u517b\u5bb6(\u96c6\u5e86\u95e8\u5e97)", "location": {"lat": 32.030237285241796, "lng": 118.73947035235454}, "address": "\u96c6\u5e86\u95e8\u5927\u8857186-2\u53f7\u9644\u8fd1", "province": "\u6c5f\u82cf\u7701", "city": "\u5357\u4eac\u5e02", "area": "\u5efa\u90ba\u533a", "street_id": "9d0689e6ea88ec286168580d", "detail": 1, "uid": "9d0689e6ea88ec286168580d", "detail_info": {"tag": "\u533b\u7597;\u5176\u4ed6", "type": "hospital", "detail_url": "http://api.map.baidu.com/place/detail?uid=9d0689e6ea88ec286168580d&output=html&source=placeapi_v2", "image_num": "12", "children": [], "lat": 32.030237285241796, "lng": 118.73947035235454}}, {"name": "\u7259\u4ed9\u5b50\u53e3\u8154", "location": {"lat": 32.03137161799385, "lng": 118.73007173027632}, "address": "\u6c5f\u82cf\u7701\u5357\u4eac\u5e02\u5efa\u90ba\u533a\u96c6\u5e86\u95e8\u5927\u8857222-3\u53f7", "province": "\u6c5f\u82cf\u7701", "city": "\u5357\u4eac\u5e02", "area": "\u5efa\u90ba\u533a", "street_id": "8cf938dfa3ca08dce4e965be", "telephone": "(025)86700566", "detail": 1, "uid": "8cf938dfa3ca08dce4e965be", "detail_info": {"tag": "\u533b\u7597;\u8bca\u6240", "navi_location": {"lng": 118.74198450357, "lat": 32.03489180433}, "type": "hospital", "detail_url": "http://api.map.baidu.com/place/detail?uid=8cf938dfa3ca08dce4e965be&output=html&source=placeapi_v2", "overall_rating": "0.0", "image_num": "2", "comment_num": "1", "children": [], "lat": 32.03137161799385, "lng": 118.73007173027632}}, {"name": "\u5efa\u90ba\u6653\u6d77\u8bca\u6240", "location": {"lat": 32.021490247996404, "lng": 118.74770032540769}, "address": "\u5357\u82d1\u601d\u56ed9\u5e62101\u5ba4", "province": "\u6c5f\u82cf\u7701", "city": "\u5357\u4eac\u5e02", "area": "\u5efa\u90ba\u533a", "street_id": "4eb3b533fc7fd075420245af", "detail": 1, "uid": "4eb3b533fc7fd075420245af", "detail_info": {"tag": "\u533b\u7597;\u8bca\u6240", "type": "hospital", "detail_url": "http://api.map.baidu.com/place/detail?uid=4eb3b533fc7fd075420245af&output=html&source=placeapi_v2", "overall_rating": "4.5", "image_num": "9", "comment_num": "3", "children": [], "lat": 32.021490247996404, "lng": 118.74770032540769}}, {"name": "\u7678\u6e90\u5802\u4e2d\u533b\u9986", "location": {"lat": 32.0313130579722, "lng": 118.73074757189741}, "address": "\u96c6\u5e86\u95e8\u5927\u8857216\u53f7-9\u53f7", "province": "\u6c5f\u82cf\u7701", "city": "\u5357\u4eac\u5e02", "area": "\u5efa\u90ba\u533a", "street_id": "f57d6044ac05231ff8f0cb47", "telephone": "(025)83359976", "detail": 1, "uid": "f57d6044ac05231ff8f0cb47", "detail_info": {"tag": "\u533b\u7597;\u8bca\u6240", "navi_location": {"lng": 118.74251142712, "lat": 32.034805173962}, "type": "hospital", "detail_url": "http://api.map.baidu.com/place/detail?uid=f57d6044ac05231ff8f0cb47&output=html&source=placeapi_v2", "overall_rating": "5.0", "image_num": "7", "comment_num": "11", "children": [], "lat": 32.0313130579722, "lng": 118.73074757189741}}, {"name": "\u96c6\u5e86\u5802\u4e2d\u533b\u8bca\u6240", "location": {"lat": 32.03162472029698, "lng": 118.74536168196148}, "address": "\u5357\u4eac\u5e02\u5efa\u90ba\u533a\u7389\u5858\u675110\u680b31\u53f7102\u5ba4", "province": "\u6c5f\u82cf\u7701", "city": "\u5357\u4eac\u5e02", "area": "\u5efa\u90ba\u533a", "street_id": "c0f7b94e528e660a1e5800dd", "telephone": "(025)86613557", "detail": 1, "uid": "c0f7b94e528e660a1e5800dd", "detail_info": {"tag": "\u533b\u7597;\u8bca\u6240", "type": "hospital", "detail_url": "http://api.map.baidu.com/place/detail?uid=c0f7b94e528e660a1e5800dd&output=html&source=placeapi_v2", "overall_rating": "0.0", "image_num": "4", "comment_num": "1", "children": [], "lat": 32.03162472029698, "lng": 118.74536168196148}}, {"name": "\u5357\u4eac\u5efa\u90ba\u5e7f\u7075\u658b\u4e2d\u533b\u8bca\u6240", "location": {"lat": 32.026168017326235, "lng": 118.73185629007911}, "address": "\u5357\u4eac\u5e02\u5efa\u90ba\u533a\u6c5f\u4e1c\u4e2d\u8def\u4e0e\u79ef\u8d24\u8857\u4ea4\u53c9\u8def\u53e3\u5f80\u897f\u5357\u7ea6100\u7c73(\u79ef\u5584\u65b0\u5bd3\u4e1c\u533a)", "province": "\u6c5f\u82cf\u7701", "city": "\u5357\u4eac\u5e02", "area": "\u5efa\u90ba\u533a", "detail": 1, "uid": "06095b7d54eff653ab059ddf", "detail_info": {"tag": "\u533b\u7597;\u8bca\u6240", "type": "hospital", "detail_url": "http://api.map.baidu.com/place/detail?uid=06095b7d54eff653ab059ddf&output=html&source=placeapi_v2", "image_num": "1", "children": [], "lat": 32.026168017326235, "lng": 118.73185629007911}}, {"name": "\u6cf0\u4e50\u57ce\u5065\u5eb7\u7ba1\u7406\u4e2d\u5fc3", "location": {"lat": 32.03100293273124, "lng": 118.7388901455611}, "address": "\u83ab\u6101\u6e56\u8857\u9053\u96c6\u5e86\u95e8\u5927\u8857188\u53f7", "province": "\u6c5f\u82cf\u7701", "city": "\u5357\u4eac\u5e02", "area": "\u5efa\u90ba\u533a", "street_id": "cd201cffa5f1bc3e0e3dda7b", "telephone": "(025)85433332", "detail": 1, "uid": "cd201cffa5f1bc3e0e3dda7b", "detail_info": {"tag": "\u533b\u7597;\u8bca\u6240", "navi_location": {"lng": 118.75066826538, "lat": 32.034514034521}, "type": "hospital", "detail_url": "http://api.map.baidu.com/place/detail?uid=cd201cffa5f1bc3e0e3dda7b&output=html&source=placeapi_v2", "image_num": "14", "children": [], "lat": 32.03100293273124, "lng": 118.7388901455611}}, {"name": "\u4eac\u57ce\u5fa1\u533b", "location": {"lat": 32.0313038490511, "lng": 118.73133963012347}, "address": "\u6c5f\u82cf\u7701\u5357\u4eac\u5e02\u5efa\u90ba\u533a\u96c6\u5e86\u95e8\u5927\u8857216-5\u9644\u8fd1", "province": "\u6c5f\u82cf\u7701", "city": "\u5357\u4eac\u5e02", "area": "\u5efa\u90ba\u533a", "detail": 1, "uid": "1a383d7ff9afcbc7c27da23f", "detail_info": {"tag": "\u533b\u7597;\u5176\u4ed6", "type": "hospital", "detail_url": "http://api.map.baidu.com/place/detail?uid=1a383d7ff9afcbc7c27da23f&output=html&source=placeapi_v2", "image_num": "3", "children": [], "lat": 32.0313038490511, "lng": 118.73133963012347}}, {"name": "\u5148\u58f0\u518d\u5eb7\u836f\u5e97(\u79ef\u8d24\u8857\u836f\u5e97)", "location": {"lat": 32.02738243012716, "lng": 118.73335863248448}, "address": "\u5357\u4eac\u5e02\u5efa\u90ba\u533a\u79ef\u8d24\u8857\u4e0e\u6c5f\u4e1c\u4e2d\u8def\u4ea4\u53c9\u8def\u53e3\u5f80\u4e1c\u7ea650\u7c73(\u79ef\u5584\u65b0\u5bd3\u4e1c\u533a)", "province": "\u6c5f\u82cf\u7701", "city": "\u5357\u4eac\u5e02", "area": "\u5efa\u90ba\u533a", "street_id": "e117657a2eaccb347bf7964e", "telephone": "(025)57027742", "detail": 1, "uid": "e117657a2eaccb347bf7964e", "detail_info": {"tag": "\u533b\u7597;\u836f\u5e97", "type": "hospital", "detail_url": "http://api.map.baidu.com/place/detail?uid=e117657a2eaccb347bf7964e&output=html&source=placeapi_v2", "image_num": "6", "children": [], "lat": 32.02738243012716, "lng": 118.73335863248448}}, {"name": "\u77f3\u57ce\u54c1\u9601\u5ba0\u7269\u533b\u9662", "location": {"lat": 32.029190430652854, "lng": 118.74291029331445}, "address": "\u96c6\u5e86\u95e8\u5927\u8857151\u53f7", "province": "\u6c5f\u82cf\u7701", "city": "\u5357\u4eac\u5e02", "area": "\u5efa\u90ba\u533a", "telephone": "(025)86302118", "detail": 1, "uid": "850766a9ee0639d44c3a5943", "detail_info": {"tag": "\u751f\u6d3b\u670d\u52a1;\u5ba0\u7269\u670d\u52a1", "type": "life", "detail_url": "http://api.map.baidu.com/place/detail?uid=850766a9ee0639d44c3a5943&output=html&source=placeapi_v2", "overall_rating": "0.0", "image_num": "1", "comment_num": "0", "children": [], "lat": 32.029190430652854, "lng": 118.74291029331445}}, {"name": "\u76ca\u4e30\u5927\u836f\u623f(\u5357\u4eac\u5e94\u5929\u5927\u8857\u5e97)", "location": {"lat": 32.02330573887331, "lng": 118.73837691298367}, "address": "\u6c5f\u82cf\u7701\u5357\u4eac\u5e02\u5efa\u90ba\u533a\u5e94\u5929\u5927\u8857866\u53f7\u6b27\u5c1a(\u5e94\u5929\u5e97)1\u5c42", "province": "\u6c5f\u82cf\u7701", "city": "\u5357\u4eac\u5e02", "area": "\u5efa\u90ba\u533a", "street_id": "f349efe2745f64ef7adbd2cf", "telephone": "(025)85617706", "detail": 1, "uid": "f349efe2745f64ef7adbd2cf", "detail_info": {"tag": "\u533b\u7597;\u836f\u5e97", "type": "hospital", "detail_url": "http://api.map.baidu.com/place/detail?uid=f349efe2745f64ef7adbd2cf&output=html&source=placeapi_v2", "price": "0.0", "image_num": "1", "children": [], "lat": 32.02330573887331, "lng": 118.73837691298367}}, {"name": "\u76ca\u4e30\u5927\u836f\u623f(\u5e90\u5c71\u8def\u5e97)", "location": {"lat": 32.02058234347629, "lng": 118.73866368326094}, "address": "\u6c5f\u82cf\u7701\u5357\u4eac\u5e02\u5efa\u90ba\u533a\u5e94\u5929\u5927\u8857855\u53f7", "province": "\u6c5f\u82cf\u7701", "city": "\u5357\u4eac\u5e02", "area": "\u5efa\u90ba\u533a", "street_id": "fa5bcb9cd22354bae5e965a4", "telephone": "(025)86223937", "detail": 1, "uid": "fa5bcb9cd22354bae5e965a4", "detail_info": {"tag": "\u533b\u7597;\u836f\u5e97", "navi_location": {"lng": 118.75074305595, "lat": 32.024163928793}, "type": "hospital", "detail_url": "http://api.map.baidu.com/place/detail?uid=fa5bcb9cd22354bae5e965a4&output=html&source=placeapi_v2", "price": "0.0", "image_num": "12", "children": [], "lat": 32.02058234347629, "lng": 118.73866368326094}}, {"name": "\u5357\u4eac\u4e16\u79d1\u533b\u7597\u5668\u68b0\u6709\u9650\u516c\u53f8", "location": {"lat": 32.0261037480831, "lng": 118.7368193409738}, "address": "\u6240\u8857169\u53f7\u4e91\u9526\u8def\u6240\u8857\u4ea4\u754c\u5904\u65b0\u60a6\u5929\u57304\u697c", "province": "\u6c5f\u82cf\u7701", "city": "\u5357\u4eac\u5e02", "area": "\u5efa\u90ba\u533a", "detail": 1, "uid": "3de97b203b202d1703ff2d21", "detail_info": {"tag": "\u533b\u7597;\u533b\u7597\u5668\u68b0", "type": "hospital", "detail_url": "http://api.map.baidu.com/place/detail?uid=3de97b203b202d1703ff2d21&output=html&source=placeapi_v2", "children": [], "lat": 32.0261037480831, "lng": 118.7368193409738}}, {"name": "\u5357\u4eac\u5e02\u7b2c\u4e00\u533b\u9662(\u6cb3\u897f\u9662\u533a)-\u4e1c\u53171\u95e8", "location": {"lat": 32.02433690003992, "lng": 118.72926416127065}, "address": "\u6c5f\u82cf\u7701\u5357\u4eac\u5e02\u5efa\u90ba\u533a\u5e94\u5929\u5927\u8857\u4e0e\u7766\u548c\u8def\u4ea4\u6c47\u5904\u897f\u884c40\u7c73\u8def\u5357", "province": "\u6c5f\u82cf\u7701", "city": "\u5357\u4eac\u5e02", "area": "\u5efa\u90ba\u533a", "street_id": "413ee2b78a72e818eb56faa4", "detail": 1, "uid": "413ee2b78a72e818eb56faa4", "detail_info": {"tag": "\u51fa\u5165\u53e3;\u95e8", "type": "life", "detail_url": "http://api.map.baidu.com/place/detail?uid=413ee2b78a72e818eb56faa4&output=html&source=placeapi_v2", "image_num": "1", "children": [], "lat": 32.02433690003992, "lng": 118.72926416127065}}, {"name": "\u5357\u4eac\u6e05\u6f8d\u533b\u7597\u7528\u54c1\u6709\u9650\u516c\u53f8", "location": {"lat": 32.028703747115436, "lng": 118.73377218248453}, "address": "\u6c5f\u4e1c\u4e2d\u8def128\u53f7\u4e07\u548c\u6e90\u5c454\u5e621\u5355\u51431803\u5ba4", "province": "\u6c5f\u82cf\u7701", "city": "\u5357\u4eac\u5e02", "area": "\u5efa\u90ba\u533a", "street_id": "b1af46570ddf29a9c91b953f", "detail": 1, "uid": "b1af46570ddf29a9c91b953f", "detail_info": {"tag": "\u516c\u53f8\u4f01\u4e1a;\u516c\u53f8", "type": "enterprise", "detail_url": "http://api.map.baidu.com/place/detail?uid=b1af46570ddf29a9c91b953f&output=html&source=placeapi_v2", "children": [], "lat": 32.028703747115436, "lng": 118.73377218248453}}, {"name": "\u597d\u836f\u5e08\u5927\u836f\u623f(\u6e56\u897f\u5e97)", "location": {"lat": 32.026606699146356, "lng": 118.74273910244582}, "address": "\u6e56\u897f\u885750\u53f7", "province": "\u6c5f\u82cf\u7701", "city": "\u5357\u4eac\u5e02", "area": "\u5efa\u90ba\u533a", "street_id": "11219e8ae0ab98160c0e6b8f", "detail": 1, "uid": "11219e8ae0ab98160c0e6b8f", "detail_info": {"tag": "\u533b\u7597;\u836f\u5e97", "type": "hospital", "detail_url": "http://api.map.baidu.com/place/detail?uid=11219e8ae0ab98160c0e6b8f&output=html&source=placeapi_v2", "overall_rating": "0.0", "image_num": "12", "children": [], "lat": 32.026606699146356, "lng": 118.74273910244582}}, {"name": "\u76ca\u4e30\u5927\u836f\u623f(\u83ba\u6b4c\u82d1\u5e97)", "location": {"lat": 32.030643198642856, "lng": 118.73667249009684}, "address": "\u5357\u4eac\u5e02\u5efa\u90ba\u533a\u96c6\u5e86\u95e8\u5927\u8857\u4e0e\u4e91\u9526\u8def\u4ea4\u53c9\u8def\u53e3\u5f80\u897f\u5317\u7ea650\u7c73(\u83ba\u6b4c\u82d1\u5c0f\u533a)", "province": "\u6c5f\u82cf\u7701", "city": "\u5357\u4eac\u5e02", "area": "\u5efa\u90ba\u533a", "street_id": "b884b45598f8e4e321f017bd", "telephone": "(025)83317827", "detail": 1, "uid": "b884b45598f8e4e321f017bd", "detail_info": {"tag": "\u533b\u7597;\u836f\u5e97", "type": "hospital", "detail_url": "http://api.map.baidu.com/place/detail?uid=b884b45598f8e4e321f017bd&output=html&source=placeapi_v2", "price": "0.0", "overall_rating": "0.0", "image_num": "13", "comment_num": "2", "children": [], "lat": 32.030643198642856, "lng": 118.73667249009684}}, {"name": "\u8446\u5b81\u5802\u5927\u836f\u623f", "location": {"lat": 32.03182102376094, "lng": 118.7329141280767}, "address": "\u6c5f\u4e1c\u4e2d\u8def106-9", "province": "\u6c5f\u82cf\u7701", "city": "\u5357\u4eac\u5e02", "area": "\u5efa\u90ba\u533a", "street_id": "40a7295f04a38eac601c6714", "telephone": "13337824877", "detail": 1, "uid": "40a7295f04a38eac601c6714", "detail_info": {"tag": "\u533b\u7597;\u836f\u5e97", "navi_location": {"lng": 118.74565950285, "lat": 32.03544199036}, "type": "hospital", "detail_url": "http://api.map.baidu.com/place/detail?uid=40a7295f04a38eac601c6714&output=html&source=placeapi_v2", "overall_rating": "1.2", "image_num": "13", "comment_num": "5", "children": [], "lat": 32.03182102376094, "lng": 118.7329141280767}}, {"name": "\u5510\u745e\u5065\u5eb7\u7ba1\u7406\u4e2d\u5fc3(\u5eb7\u6cf0\u8857)", "location": {"lat": 32.02475027745927, "lng": 118.74692383317834}, "address": "\u6c5f\u82cf\u7701\u5357\u4eac\u5e02\u5efa\u90ba\u533a\u5357\u82d1\u8857\u9053\u5eb7\u6cf0\u8857\u5b89\u6cf0\u675121\u680b", "province": "\u6c5f\u82cf\u7701", "city": "\u5357\u4eac\u5e02", "area": "\u5efa\u90ba\u533a", "street_id": "9d659c079b8027e66b49f385", "detail": 1, "uid": "9d659c079b8027e66b49f385", "detail_info": {"tag": "\u533b\u7597;\u4f53\u68c0\u673a\u6784", "type": "hospital", "detail_url": "http://api.map.baidu.com/place/detail?uid=9d659c079b8027e66b49f385&output=html&source=placeapi_v2", "image_num": "9", "children": [], "lat": 32.02475027745927, "lng": 118.74692383317834}}, {"name": "\u901f\u901a\u5145\u7535\u7ad9(\u5357\u4eac\u5e02\u7b2c\u4e00\u533b\u9662\u6cb3\u897f\u9662\u533a\u5357\u95e8\u8fdb\u53f3\u62d0\u76f4\u8d70\u5230\u5934)", "location": {"lat": 32.02861920695126, "lng": 118.7354623789161}, "address": "\u6c5f\u82cf\u7701\u5357\u4eac\u5e02\u5efa\u90ba\u533a\u5e94\u5929\u5927\u8857919\u53f7(\u5357\u4eac\u5e02\u7b2c\u4e00\u533b\u9662\u6cb3\u897f\u9662\u533a6\u53f7\u697c\u505c\u8f66\u573a)", "province": "\u6c5f\u82cf\u7701", "city": "\u5357\u4eac\u5e02", "area": "\u5efa\u90ba\u533a", "detail": 1, "uid": "0cd17c29946e7b97220220ef", "detail_info": {"tag": "\u4ea4\u901a\u8bbe\u65bd;\u5145\u7535\u7ad9", "type": "life", "detail_url": "http://api.map.baidu.com/place/detail?uid=0cd17c29946e7b97220220ef&output=html&source=placeapi_v2", "image_num": "1", "children": [], "lat": 32.02861920695126, "lng": 118.7354623789161}}, {"name": "\u5357\u4eac\u4eba\u6c11\u836f\u5e97", "location": {"lat": 32.03128230758843, "lng": 118.73114894498705}, "address": "\u6c5f\u82cf\u7701\u5357\u4eac\u5e02\u5efa\u90ba\u533a\u96c6\u5e86\u95e8\u5927\u8857216-4", "province": "\u6c5f\u82cf\u7701", "city": "\u5357\u4eac\u5e02", "area": "\u5efa\u90ba\u533a", "telephone": "(025)57051615", "detail": 1, "uid": "38f6bb1269ad51c93686f40e", "detail_info": {"tag": "\u533b\u7597;\u836f\u5e97", "type": "hospital", "detail_url": "http://api.map.baidu.com/place/detail?uid=38f6bb1269ad51c93686f40e&output=html&source=placeapi_v2", "overall_rating": "0.0", "image_num": "7", "comment_num": "1", "children": [], "lat": 32.03128230758843, "lng": 118.73114894498705}}, {"name": "\u5357\u4eac\u8fbe\u8fea\u5609\u533b\u7597\u5668\u68b0\u6709\u9650\u516c\u53f8", "location": {"lat": 32.02005618135237, "lng": 118.74220532382219}, "address": "\u6c5f\u82cf\u7701\u5357\u4eac\u5e02\u5efa\u90ba\u533a\u5e94\u5929\u5927\u8857837\u53f78\u697c", "province": "\u6c5f\u82cf\u7701", "city": "\u5357\u4eac\u5e02", "area": "\u5efa\u90ba\u533a", "telephone": "13390778068", "detail": 1, "uid": "767d6a5d26592164d4851f49", "detail_info": {"tag": "\u533b\u7597;\u533b\u7597\u5668\u68b0", "type": "hospital", "detail_url": "http://api.map.baidu.com/place/detail?uid=767d6a5d26592164d4851f49&output=html&source=placeapi_v2", "image_num": "1", "children": [], "lat": 32.02005618135237, "lng": 118.74220532382219}}, {"name": "\u5947\u51a0\u836f\u5e97(\u5e94\u5929\u5927\u8857\u5e97)", "location": {"lat": 32.02186889386908, "lng": 118.73856090887409}, "address": "\u5357\u82d1\u8857\u9053\u5e94\u5929\u5927\u8857859\u53f7", "province": "\u6c5f\u82cf\u7701", "city": "\u5357\u4eac\u5e02", "area": "\u5efa\u90ba\u533a", "street_id": "9f537bac19fa9df89f09f7b9", "telephone": "(025)58837341", "detail": 1, "uid": "9f537bac19fa9df89f09f7b9", "detail_info": {"tag": "\u533b\u7597;\u836f\u5e97", "type": "hospital", "detail_url": "http://api.map.baidu.com/place/detail?uid=9f537bac19fa9df89f09f7b9&output=html&source=placeapi_v2", "overall_rating": "0.0", "image_num": "18", "comment_num": "2", "children": [], "lat": 32.02186889386908, "lng": 118.73856090887409}}, {"name": "\u661f\u76ca\u57ce", "location": {"lat": 32.03068415754891, "lng": 118.74748069541778}, "address": "\u8336\u4ead\u4e1c\u885779\u53f7", "province": "\u6c5f\u82cf\u7701", "city": "\u5357\u4eac\u5e02", "area": "\u5efa\u90ba\u533a", "street_id": "fa9309de9f16bece0a5cb359", "detail": 1, "uid": "fa9309de9f16bece0a5cb359", "detail_info": {"tag": "\u623f\u5730\u4ea7;\u4f4f\u5b85\u533a", "type": "house", "detail_url": "http://api.map.baidu.com/place/detail?uid=fa9309de9f16bece0a5cb359&output=html&source=placeapi_v2", "children": [], "lat": 32.03068415754891, "lng": 118.74748069541778}}, {"name": "\u5357\u4eac\u4f20\u7edf\u4e2d\u533b\u95e8\u8bca\u90e8", "location": {"lat": 32.04332257313482, "lng": 118.73715929255805}, "address": "\u6c5f\u82cf\u7701\u5357\u4eac\u5e02\u9f13\u697c\u533a\u51e4\u51f0\u897f\u8857208\u53f7", "province": "\u6c5f\u82cf\u7701", "city": "\u5357\u4eac\u5e02", "area": "\u9f13\u697c\u533a", "street_id": "5c56edd6cfa2e15aa1d2305d", "telephone": "(025)66039012", "detail": 1, "uid": "5c56edd6cfa2e15aa1d2305d", "detail_info": {"tag": "\u533b\u7597;\u8bca\u6240", "navi_location": {"lng": 118.74914331128, "lat": 32.046804954816}, "type": "hospital", "detail_url": "http://api.map.baidu.com/place/detail?uid=5c56edd6cfa2e15aa1d2305d&output=html&source=placeapi_v2", "overall_rating": "4.7", "image_num": "6", "comment_num": "8", "children": [], "lat": 32.04332257313482, "lng": 118.73715929255805}}, {"name": "\u56fa\u751f\u5802(\u5357\u4eac\u5b81\u897f\u95e8\u8bca\u90e8)", "location": {"lat": 32.03620252529866, "lng": 118.7401792119576}, "address": "\u6c5f\u82cf\u7701\u5357\u4eac\u5e02\u5efa\u90ba\u533a\u6c34\u897f\u95e8\u5927\u8857273\u53f7", "province": "\u6c5f\u82cf\u7701", "city": "\u5357\u4eac\u5e02", "area": "\u5efa\u90ba\u533a", "street_id": "49a02a7a29cd23592a201a9b", "telephone": "(025)86664120", "detail": 1, "uid": "49a02a7a29cd23592a201a9b", "detail_info": {"tag": "\u533b\u7597;\u5176\u4ed6", "navi_location": {"lng": 118.75191489369, "lat": 32.039940119406}, "type": "hospital", "detail_url": "http://api.map.baidu.com/place/detail?uid=49a02a7a29cd23592a201a9b&output=html&source=placeapi_v2", "overall_rating": "4.4", "image_num": "3", "comment_num": "8", "children": [], "lat": 32.03620252529866, "lng": 118.7401792119576}}, {"name": "\u5efa\u90ba\u533a\u6ee8\u6e56\u793e\u533a\u536b\u751f\u670d\u52a1\u4e2d\u5fc3(\u51e4\u6816\u8def)", "location": {"lat": 32.0322598728154, "lng": 118.73934533834525}, "address": "\u6c5f\u82cf\u7701\u5357\u4eac\u5e02\u5efa\u90ba\u533a\u51e4\u6816\u8def131\u53f7", "province": "\u6c5f\u82cf\u7701", "city": "\u5357\u4eac\u5e02", "area": "\u5efa\u90ba\u533a", "street_id": "f1f5cac51d4c3e8137b06cbd", "telephone": "(025)87770576,(025)87770581", "detail": 1, "uid": "f1f5cac51d4c3e8137b06cbd", "detail_info": {"tag": "\u533b\u7597;\u8bca\u6240", "navi_location": {"lng": 118.75131983636, "lat": 32.035847435588}, "type": "hospital", "detail_url": "http://api.map.baidu.com/place/detail?uid=f1f5cac51d4c3e8137b06cbd&output=html&source=placeapi_v2", "overall_rating": "0.0", "image_num": "27", "comment_num": "4", "children": [], "lat": 32.0322598728154, "lng": 118.73934533834525}}, {"name": "\u73af\u7403\u533b\u751f\u5eb7\u745e\u5bb6\u5efa\u90ba\u95e8\u8bca\u90e8", "location": {"lat": 32.03621843230957, "lng": 118.7398197960716}, "address": "\u6c5f\u82cf\u7701\u5357\u4eac\u5e02\u5efa\u90ba\u533a\u6c34\u897f\u95e8\u5927\u8857283\u53f7", "province": "\u6c5f\u82cf\u7701", "city": "\u5357\u4eac\u5e02", "area": "\u5efa\u90ba\u533a", "street_id": "d57eeb42ae041f76e60738fc", "telephone": "(025)86518600", "detail": 1, "uid": "d57eeb42ae041f76e60738fc", "detail_info": {"tag": "\u533b\u7597;\u5176\u4ed6", "navi_location": {"lng": 118.75145941058, "lat": 32.039894539843}, "type": "hospital", "detail_url": "http://api.map.baidu.com/place/detail?uid=d57eeb42ae041f76e60738fc&output=html&source=placeapi_v2", "overall_rating": "5.0", "image_num": "4", "comment_num": "1", "children": [], "lat": 32.03621843230957, "lng": 118.7398197960716}}, {"name": "\u541b\u548c\u5802\u4e2d\u533b\u9986", "location": {"lat": 32.03582971435706, "lng": 118.7363903394575}, "address": "\u6c5f\u82cf\u7701\u5357\u4eac\u5e02\u5efa\u90ba\u533a\u6c34\u897f\u95e8\u5927\u8857343\u53f7", "province": "\u6c5f\u82cf\u7701", "city": "\u5357\u4eac\u5e02", "area": "\u5efa\u90ba\u533a", "street_id": "f7fd477113068d47b5147f0e", "telephone": "(025)86524200", "detail": 1, "uid": "f7fd477113068d47b5147f0e", "detail_info": {"tag": "\u533b\u7597;\u8bca\u6240", "navi_location": {"lng": 118.75066269444, "lat": 32.039379183558}, "type": "hospital", "detail_url": "http://api.map.baidu.com/place/detail?uid=f7fd477113068d47b5147f0e&output=html&source=placeapi_v2", "overall_rating": "1.0", "image_num": "11", "comment_num": "4", "children": [], "lat": 32.03582971435706, "lng": 118.7363903394575}}, {"name": "\u745e\u9e4f\u5ba0\u7269\u533b\u9662(\u542f\u660e\u5206\u9662)", "location": {"lat": 32.040324000000254, "lng": 118.73309007063446}, "address": "\u6c5f\u82cf\u7701\u5357\u4eac\u5e02\u5efa\u90ba\u533a\u6c5f\u4e1c\u4e2d\u8def24\u53f7", "province": "\u6c5f\u82cf\u7701", "city": "\u5357\u4eac\u5e02", "area": "\u5efa\u90ba\u533a", "street_id": "5abfb09ea1aae3e603ec0155", "telephone": "(025)84862322", "detail": 1, "uid": "5abfb09ea1aae3e603ec0155", "detail_info": {"tag": "\u751f\u6d3b\u670d\u52a1;\u5ba0\u7269\u670d\u52a1", "navi_location": {"lng": 118.74500793941, "lat": 32.043818533336}, "type": "life", "detail_url": "http://api.map.baidu.com/place/detail?uid=5abfb09ea1aae3e603ec0155&output=html&source=placeapi_v2", "overall_rating": "4.3", "image_num": "9", "comment_num": "18", "children": [], "lat": 32.040324000000254, "lng": 118.73309007063446}}, {"name": "\u5357\u4eac\u6c49\u4e2d\u95e8\u5927\u8857\u95e8\u8bca\u90e8", "location": {"lat": 32.04110140312577, "lng": 118.7381881755678}, "address": "\u5357\u4eac\u5e02\u5efa\u90ba\u533a\u6c49\u4e2d\u95e8\u5927\u8857195\u53f7", "province": "\u6c5f\u82cf\u7701", "city": "\u5357\u4eac\u5e02", "area": "\u5efa\u90ba\u533a", "street_id": "eef2d528c4cbfda73ae4a6b2", "telephone": "(025)86565181", "detail": 1, "uid": "eef2d528c4cbfda73ae4a6b2", "detail_info": {"tag": "\u533b\u7597;\u5176\u4ed6", "navi_location": {"lng": 118.75002977622, "lat": 32.044868324835}, "type": "hospital", "detail_url": "http://api.map.baidu.com/place/detail?uid=eef2d528c4cbfda73ae4a6b2&output=html&source=placeapi_v2", "overall_rating": "4.3", "image_num": "4", "comment_num": "3", "children": [], "lat": 32.04110140312577, "lng": 118.7381881755678}}, {"name": "\u5357\u4eac\u6b4c\u7f8e\u665e\u533b\u7597\u7f8e\u5bb9\u6709\u9650\u516c\u53f8", "location": {"lat": 32.03276626982252, "lng": 118.72998455296667}, "address": "\u96c6\u5e86\u95e8\u5927\u8857220-55\u53f7", "province": "\u6c5f\u82cf\u7701", "city": "\u5357\u4eac\u5e02", "area": "\u5efa\u90ba\u533a", "telephone": "(025)85408885", "detail": 1, "uid": "c9892e933dcb8f2c1329358d", "detail_info": {"tag": "\u533b\u7597;\u5176\u4ed6", "type": "hospital", "detail_url": "http://api.map.baidu.com/place/detail?uid=c9892e933dcb8f2c1329358d&output=html&source=placeapi_v2", "image_num": "1", "children": [], "lat": 32.03276626982252, "lng": 118.72998455296667}}, {"name": "\u4e09\u53f6\u513f\u7ae5", "location": {"lat": 32.04216871354418, "lng": 118.73291820572759}, "address": "\u6c5f\u82cf\u7701\u5357\u4eac\u5e02\u9f13\u697c\u533a\u6c5f\u4e1c\u5317\u8def91\u53f7\u5357\u4eac\u91d1\u9675\u53e3\u8154\u533b\u96622\u697c", "province": "\u6c5f\u82cf\u7701", "city": "\u5357\u4eac\u5e02", "area": "\u9f13\u697c\u533a", "street_id": "6cd636558a3b2d94d3ff23af", "telephone": "(025)66107332,(025)66107777", "detail": 1, "uid": "6cd636558a3b2d94d3ff23af", "detail_info": {"tag": "\u533b\u7597;\u8bca\u6240", "navi_location": {"lng": 118.74492549652, "lat": 32.045393095858}, "type": "hospital", "detail_url": "http://api.map.baidu.com/place/detail?uid=6cd636558a3b2d94d3ff23af&output=html&source=placeapi_v2", "image_num": "1", "children": [], "lat": 32.04216871354418, "lng": 118.73291820572759}}, {"name": "\u4f0a\u7f8e\u8fb0\u533b\u7597\u6574\u5f62", "location": {"lat": 32.033267696594535, "lng": 118.73211764005084}, "address": "\u6c5f\u82cf\u7701\u5357\u4eac\u5e02\u5efa\u90ba\u533a\u798f\u56ed\u8857129\u53f71308\u5ba4", "province": "\u6c5f\u82cf\u7701", "city": "\u5357\u4eac\u5e02", "area": "\u5efa\u90ba\u533a", "detail": 1, "uid": "980c5300e694f7f3b54f547a", "detail_info": {"tag": "\u533b\u7597;\u5176\u4ed6", "type": "hospital", "detail_url": "http://api.map.baidu.com/place/detail?uid=980c5300e694f7f3b54f547a&output=html&source=placeapi_v2", "overall_rating": "0.0", "image_num": "2", "comment_num": "1", "children": [], "lat": 32.033267696594535, "lng": 118.73211764005084}}, {"name": "\u6c5f\u82cf\u7701\u53e3\u8154\u533b\u9662\u7b2c\u4e00\u95e8\u8bca\u90e8", "location": {"lat": 32.043412014777765, "lng": 118.74548155239388}, "address": "\u5357\u4eac\u5e02\u9f13\u697c\u533a\u51e4\u51f0\u897f\u8857142\u53f7", "province": "\u6c5f\u82cf\u7701", "city": "\u5357\u4eac\u5e02", "area": "\u9f13\u697c\u533a", "street_id": "bcaebff8753d4e54c8e33ca0", "telephone": "(025)86864040", "detail": 1, "uid": "bcaebff8753d4e54c8e33ca0", "detail_info": {"tag": "\u533b\u7597;\u8bca\u6240", "navi_location": {"lng": 118.75733644951, "lat": 32.046853080979}, "type": "hospital", "detail_url": "http://api.map.baidu.com/place/detail?uid=bcaebff8753d4e54c8e33ca0&output=html&source=placeapi_v2", "overall_rating": "4.3", "image_num": "9", "comment_num": "10", "children": [], "lat": 32.043412014777765, "lng": 118.74548155239388}}, {"name": "\u674f\u4ec1\u95e8\u8bca", "location": {"lat": 32.040465303400985, "lng": 118.74165264012834}, "address": "\u5357\u4eac\u5e02\u5efa\u90ba\u533a\u6c49\u4e2d\u95e8\u5927\u8857151\u53f7\u897f\u57ce\u5e7f\u573a4113\u30014229\u30014230", "province": "\u6c5f\u82cf\u7701", "city": "\u5357\u4eac\u5e02", "area": "\u5efa\u90ba\u533a", "street_id": "7668027b096fe75cb45f1e9c", "telephone": "(025)83176595", "detail": 1, "uid": "7668027b096fe75cb45f1e9c", "detail_info": {"tag": "\u533b\u7597;\u5176\u4ed6", "navi_location": {"lng": 118.75268185983, "lat": 32.044268370301}, "type": "hospital", "detail_url": "http://api.map.baidu.com/place/detail?uid=7668027b096fe75cb45f1e9c&output=html&source=placeapi_v2", "image_num": "1", "children": [], "lat": 32.040465303400985, "lng": 118.74165264012834}}, {"name": "\u6708\u7259\u513f\u53e3\u8154\u533b\u5b66\u4e2d\u5fc3", "location": {"lat": 32.04027727233909, "lng": 118.74194833057572}, "address": "\u5357\u4eac\u5e02\u6c49\u4e2d\u95e8\u5927\u8857151\u53f7\u897f\u57ce\u5e7f\u573a4101\u5ba4", "province": "\u6c5f\u82cf\u7701", "city": "\u5357\u4eac\u5e02", "area": "\u5efa\u90ba\u533a", "telephone": "(025)86757520", "detail": 1, "uid": "6c293c61e233749b49fd3f82", "detail_info": {"tag": "\u533b\u7597;\u8bca\u6240", "type": "hospital", "detail_url": "http://api.map.baidu.com/place/detail?uid=6c293c61e233749b49fd3f82&output=html&source=placeapi_v2", "image_num": "1", "children": [], "lat": 32.04027727233909, "lng": 118.74194833057572}}, {"name": "\u76ca\u6c11\u4e2d\u533b", "location": {"lat": 32.04334522542463, "lng": 118.73728430253612}, "address": "\u6c5f\u82cf\u7701\u5357\u4eac\u5e02\u9f13\u697c\u533a\u51e4\u51f0\u897f\u8857\u6c5f\u4e1c\u5317\u8def\u51e4\u51f0\u82b1\u56ed\u57ce\u5357\u95e8", "province": "\u6c5f\u82cf\u7701", "city": "\u5357\u4eac\u5e02", "area": "\u9f13\u697c\u533a", "street_id": "a1d3c3c86692f225bbbd63e4", "detail": 1, "uid": "a1d3c3c86692f225bbbd63e4", "detail_info": {"tag": "\u533b\u7597;\u8bca\u6240", "navi_location": {"lng": 118.74907365667, "lat": 32.046776791808}, "type": "hospital", "detail_url": "http://api.map.baidu.com/place/detail?uid=a1d3c3c86692f225bbbd63e4&output=html&source=placeapi_v2", "image_num": "1", "children": [], "lat": 32.04334522542463, "lng": 118.73728430253612}}, {"name": "\u5b81\u5eb7\u8bca\u6240", "location": {"lat": 32.034270094384325, "lng": 118.74281829322979}, "address": "\u5357\u4eac\u5e02\u5efa\u90ba\u533a\u8336\u5357\u5927\u8857\u4e0e\u9732\u56ed\u897f\u8857\u4ea4\u53c9\u8def\u53e3\u5317\u4fa7(\u660e\u6e05\u56ed\u897f\u5357\u4fa7)", "province": "\u6c5f\u82cf\u7701", "city": "\u5357\u4eac\u5e02", "area": "\u5efa\u90ba\u533a", "street_id": "620eb8bc5f2bbbf51b11d58d", "detail": 1, "uid": "620eb8bc5f2bbbf51b11d58d", "detail_info": {"tag": "\u533b\u7597;\u8bca\u6240", "navi_location": {"lng": 118.75446339451, "lat": 32.037911632325}, "type": "hospital", "detail_url": "http://api.map.baidu.com/place/detail?uid=620eb8bc5f2bbbf51b11d58d&output=html&source=placeapi_v2", "overall_rating": "0.0", "image_num": "14", "comment_num": "2", "children": [], "lat": 32.034270094384325, "lng": 118.74281829322979}}, {"name": "\u5357\u4eac\u4e07\u5b81\u95e8\u8bca\u90e8", "location": {"lat": 32.04298521936356, "lng": 118.74164484792823}, "address": "\u5357\u4eac\u5e02\u9f13\u697c\u533a\u51e4\u51f0\u897f\u8857182-7\u53f7", "province": "\u6c5f\u82cf\u7701", "city": "\u5357\u4eac\u5e02", "area": "\u9f13\u697c\u533a", "street_id": "7503683519e1b9b65f0d02b1", "telephone": "4008008120", "detail": 1, "uid": "7503683519e1b9b65f0d02b1", "detail_info": {"tag": "\u533b\u7597;\u5176\u4ed6", "navi_location": {"lng": 118.75350173404, "lat": 32.046495074006}, "type": "hospital", "detail_url": "http://api.map.baidu.com/place/detail?uid=7503683519e1b9b65f0d02b1&output=html&source=placeapi_v2", "overall_rating": "0.0", "image_num": "9", "comment_num": "1", "children": [], "lat": 32.04298521936356, "lng": 118.74164484792823}}, {"name": "\u5584\u627f\u6c47\u533b\u7597", "location": {"lat": 32.03988627578718, "lng": 118.74195076362763}, "address": "\u6c5f\u82cf\u7701\u5357\u4eac\u5e02\u5efa\u90ba\u533a\u6c49\u4e2d\u95e8\u5927\u8857151\u53f7", "province": "\u6c5f\u82cf\u7701", "city": "\u5357\u4eac\u5e02", "area": "\u5efa\u90ba\u533a", "detail": 1, "uid": "f76de8f1215f1d5872455b47", "detail_info": {"tag": "\u533b\u7597;\u5176\u4ed6", "type": "hospital", "detail_url": "http://api.map.baidu.com/place/detail?uid=f76de8f1215f1d5872455b47&output=html&source=placeapi_v2", "overall_rating": "0.0", "image_num": "1", "comment_num": "1", "children": [], "lat": 32.03988627578718, "lng": 118.74195076362763}}, {"name": "\u5357\u4eac\u5fb7\u6469\u53ef\u53e3\u8154\u95e8\u8bca\u90e8", "location": {"lat": 32.04298017422591, "lng": 118.74194133824349}, "address": "\u6c5f\u82cf\u7701\u5357\u4eac\u5e02\u9f13\u697c\u533a\u51e4\u51f0\u897f\u8857182\u53f7-4", "province": "\u6c5f\u82cf\u7701", "city": "\u5357\u4eac\u5e02", "area": "\u9f13\u697c\u533a", "street_id": "28961be1e1f1660e16a19062", "telephone": "(025)87793330,(025)57477773", "detail": 1, "uid": "28961be1e1f1660e16a19062", "detail_info": {"tag": "\u533b\u7597;\u5176\u4ed6", "type": "hospital", "detail_url": "http://api.map.baidu.com/place/detail?uid=28961be1e1f1660e16a19062&output=html&source=placeapi_v2", "overall_rating": "5.0", "image_num": "8", "comment_num": "1", "children": [], "lat": 32.04298017422591, "lng": 118.74194133824349}}, {"name": "\u732e\u8840\u70b9(\u5efa\u90ba\u4e07\u8fbe)", "location": {"lat": 32.034517490293844, "lng": 118.72979915737814}, "address": "\u5357\u4eac\u5e02\u5efa\u90ba\u533a\u6c5f\u4e1c\u4e2d\u8def\u4e07\u8fbe\u5e7f\u573aC\u95e8", "province": "\u6c5f\u82cf\u7701", "city": "\u5357\u4eac\u5e02", "area": "\u5efa\u90ba\u533a", "detail": 1, "uid": "624493bb738e59c8afee7aaf", "detail_info": {"tag": "\u533b\u7597;\u5176\u4ed6", "type": "hospital", "detail_url": "http://api.map.baidu.com/place/detail?uid=624493bb738e59c8afee7aaf&output=html&source=placeapi_v2", "image_num": "1", "children": [], "lat": 32.034517490293844, "lng": 118.72979915737814}}, {"name": "\u601d\u7f8e\u5c14\u53e3\u8154\u8bca\u6240", "location": {"lat": 32.03331012890814, "lng": 118.7290499412151}, "address": "\u6c5f\u82cf\u7701\u5357\u4eac\u5e02\u5efa\u90ba\u533a\u71d5\u5c71\u8def79-1\u53f7", "province": "\u6c5f\u82cf\u7701", "city": "\u5357\u4eac\u5e02", "area": "\u5efa\u90ba\u533a", "detail": 1, "uid": "778b2ba793df83566e20b981", "detail_info": {"tag": "\u533b\u7597;\u8bca\u6240", "type": "hospital", "detail_url": "http://api.map.baidu.com/place/detail?uid=778b2ba793df83566e20b981&output=html&source=placeapi_v2", "overall_rating": "0.0", "image_num": "5", "comment_num": "1", "children": [], "lat": 32.03331012890814, "lng": 118.7290499412151}}, {"name": "\u5357\u4eac\u798f\u5b89\u56ed\u8bca\u6240", "location": {"lat": 32.04330330027534, "lng": 118.73790259153917}, "address": "\u51e4\u51f0\u8857\u9053\u51e4\u51f0\u897f\u8857200\u53f7", "province": "\u6c5f\u82cf\u7701", "city": "\u5357\u4eac\u5e02", "area": "\u9f13\u697c\u533a", "street_id": "3f9337d61b12e3aaf62310a4", "telephone": "(025)86603092", "detail": 1, "uid": "3f9337d61b12e3aaf62310a4", "detail_info": {"tag": "\u533b\u7597;\u8bca\u6240", "type": "hospital", "detail_url": "http://api.map.baidu.com/place/detail?uid=3f9337d61b12e3aaf62310a4&output=html&source=placeapi_v2", "overall_rating": "0.0", "image_num": "8", "children": [], "lat": 32.04330330027534, "lng": 118.73790259153917}}, {"name": "\u7259\u4e00\u751f\u53e3\u8154", "location": {"lat": 32.036261243025464, "lng": 118.74023020984308}, "address": "\u6c5f\u82cf\u7701\u5357\u4eac\u5e02\u5efa\u90ba\u533a\u6c34\u897f\u95e8\u5927\u8857271\u53f7", "province": "\u6c5f\u82cf\u7701", "city": "\u5357\u4eac\u5e02", "area": "\u5efa\u90ba\u533a", "telephone": "(025)58801555", "detail": 1, "uid": "5defa27dbe151e87591093a0", "detail_info": {"tag": "\u533b\u7597;\u8bca\u6240", "type": "hospital", "detail_url": "http://api.map.baidu.com/place/detail?uid=5defa27dbe151e87591093a0&output=html&source=placeapi_v2", "overall_rating": "0.0", "image_num": "4", "comment_num": "2", "children": [], "lat": 32.036261243025464, "lng": 118.74023020984308}}, {"name": "\u5357\u4eac\u5efa\u90ba\u5b89\u5eb7\u8bca\u6240", "location": {"lat": 32.04012615910943, "lng": 118.73657372141122}, "address": "\u6c5f\u82cf\u7701\u5357\u4eac\u5e02\u5efa\u90ba\u533a\u6c5f\u6c4a\u8def\u8299\u84c9\u91cc8\u53f7", "province": "\u6c5f\u82cf\u7701", "city": "\u5357\u4eac\u5e02", "area": "\u5efa\u90ba\u533a", "street_id": "a81dd03796ba1fe687420e60", "telephone": "(025)86508377", "detail": 1, "uid": "a81dd03796ba1fe687420e60", "detail_info": {"tag": "\u533b\u7597;\u8bca\u6240", "navi_location": {"lng": 118.74837780317, "lat": 32.043770835588}, "type": "hospital", "detail_url": "http://api.map.baidu.com/place/detail?uid=a81dd03796ba1fe687420e60&output=html&source=placeapi_v2", "image_num": "8", "children": [], "lat": 32.04012615910943, "lng": 118.73657372141122}}, {"name": "\u5357\u4eac\u5efa\u90ba\u8336\u5357\u53e3\u8154\u8bca\u6240", "location": {"lat": 32.033299313912174, "lng": 118.74292146788487}, "address": "\u6c5f\u82cf\u7701\u5357\u4eac\u5e02\u5efa\u90ba\u533a\u8336\u5357\u5927\u885771\u53f7", "province": "\u6c5f\u82cf\u7701", "city": "\u5357\u4eac\u5e02", "area": "\u5efa\u90ba\u533a", "street_id": "4edf9fbf19c03894cd06a4b2", "telephone": "(025)86326132", "detail": 1, "uid": "4edf9fbf19c03894cd06a4b2", "detail_info": {"tag": "\u533b\u7597;\u8bca\u6240", "type": "hospital", "detail_url": "http://api.map.baidu.com/place/detail?uid=4edf9fbf19c03894cd06a4b2&output=html&source=placeapi_v2", "overall_rating": "0.0", "image_num": "17", "comment_num": "1", "children": [], "lat": 32.033299313912174, "lng": 118.74292146788487}}, {"name": "\u5ba0\u5b89\u5fc3\u5ba0\u7269\u8bca\u6240", "location": {"lat": 32.032822184307854, "lng": 118.73805585816503}, "address": "\u5efa\u90ba\u533a\u4e91\u9526\u8def86-3\u53f7(\u8fd1\u96c6\u5e86\u95e8\u5927\u8857)", "province": "\u6c5f\u82cf\u7701", "city": "\u5357\u4eac\u5e02", "area": "\u5efa\u90ba\u533a", "street_id": "b221f2aa4ed9e1c5b726555d", "telephone": "(025)85655253", "detail": 1, "uid": "b221f2aa4ed9e1c5b726555d", "detail_info": {"tag": "\u751f\u6d3b\u670d\u52a1;\u5ba0\u7269\u670d\u52a1", "navi_location": {"lng": 118.75009744738, "lat": 32.036360358302}, "type": "life", "detail_url": "http://api.map.baidu.com/place/detail?uid=b221f2aa4ed9e1c5b726555d&output=html&source=placeapi_v2", "price": "1075", "overall_rating": "3.7", "image_num": "21", "comment_num": "15", "children": [], "lat": 32.032822184307854, "lng": 118.73805585816503}}, {"name": "\u5357\u4eac\u91d1\u9675\u53e3\u8154\u533b\u9662", "location": {"lat": 32.042051544045954, "lng": 118.73278647427223}, "address": "\u5357\u4eac\u5e02\u9f13\u697c\u533a\u6c5f\u4e1c\u5317\u8def91\u53f7", "province": "\u6c5f\u82cf\u7701", "city": "\u5357\u4eac\u5e02", "area": "\u9f13\u697c\u533a", "street_id": "6c4886bfcf4f1bceb6f42f0d", "telephone": "(025)66107777", "detail": 1, "uid": "6c4886bfcf4f1bceb6f42f0d", "detail_info": {"tag": "\u533b\u7597;\u4e13\u79d1\u533b\u9662", "navi_location": {"lng": 118.74502965145, "lat": 32.045501961192},