"{'name': '江心洲社区卫生服务中心', 'location': {'lat': 32.012277583876596, 'lng': 118.68887533884946}, 'address': '南京市建邺区中棚路57号', 'province': '江苏省', 'city': '南京市', 'area': '建邺区', 'street_id': 'a9a4e6f6d4d19f974354d7e3', 'telephone': '(025)86420534', 'detail': 1, 'uid': 'a9a4e6f6d4d19f974354d7e3', 'detail_info': {'tag': '医疗;诊所', 'navi_location': {'lng': 118.70071035045, 'lat': 32.016815653941}, 'type': 'hospital', 'detail_url': 'http://api.map.baidu.com/place/detail?uid=a9a4e6f6d4d19f974354d7e3&output=html&source=placeapi_v2', 'image_num': '6', 'children': [], 'lat': 32.012277583876596, 'lng': 118.68887533884946}}"
"{'name': '建邺区老年公寓', 'location': {'lat': 32.01291633613731, 'lng': 118.69034414365639}, 'address': '民安路1', 'province': '江苏省', 'city': '南京市', 'area': '建邺区', 'street_id': 'a8d4c2b4b7d252f11ce9993b', 'telephone': '(025)86333022', 'detail': 1, 'uid': 'a8d4c2b4b7d252f11ce9993b', 'detail_info': {'tag': '医疗;疗养院', 'navi_location': {'lng': 118.70139774461, 'lat': 32.01652379459}, 'type': 'hospital', 'detail_url': 'http://api.map.baidu.com/place/detail?uid=a8d4c2b4b7d252f11ce9993b&output=html&source=placeapi_v2', 'image_num': '1', 'children': [], 'lat': 32.01291633613731, 'lng': 118.69034414365639}}"
"{'name': '同和堂大药房(江心洲店)', 'location': {'lat': 32.028012668134984, 'lng': 118.69080365980325}, 'address': '江心洲红星街86号二楼苏果超市入口旁', 'province': '江苏省', 'city': '南京市', 'area': '建邺区', 'detail': 1, 'uid': 'c62e01dc36ca1c2815c9053a', 'detail_info': {'tag': '医疗;药店', 'type': 'hospital', 'detail_url': 'http://api.map.baidu.com/place/detail?uid=c62e01dc36ca1c2815c9053a&output=html&source=placeapi_v2', 'overall_rating': '0.0', 'image_num': '1', 'comment_num': '1', 'children': [], 'lat': 32.028012668134984, 'lng': 118.69080365980325}}"
"{'name': '皓齐口腔', 'location': {'lat': 32.015098945244446, 'lng': 118.72162312035114}, 'address': '南京市建邺区梦都大街150号706室', 'province': '江苏省', 'city': '南京市', 'area': '建邺区', 'street_id': '708be68f46e88f31cafa5f94', 'detail': 1, 'uid': '708be68f46e88f31cafa5f94', 'detail_info': {'tag': '医疗;诊所', 'navi_location': {'lng': 118.73429622561, 'lat': 32.018595102784}, 'type': 'hospital', 'detail_url': 'http://api.map.baidu.com/place/detail?uid=708be68f46e88f31cafa5f94&output=html&source=placeapi_v2', 'overall_rating': '5.0', 'image_num': '11', 'comment_num': '2', 'children': [], 'lat': 32.015098945244446, 'lng': 118.72162312035114}}"
"{'name': 'AMC中心动物医院(梦都大街分院)', 'location': {'lat': 32.01754634385537, 'lng': 118.71623348974315}, 'address': '江苏省南京市建邺区梦都大街176-2号地铁10号线梦都大街站4号出口旁', 'province': '江苏省', 'city': '南京市', 'area': '建邺区', 'street_id': '2d7b451cc5773f00b5147f93', 'telephone': '(025)58790763', 'detail': 1, 'uid': '2d7b451cc5773f00b5147f93', 'detail_info': {'tag': '生活服务;宠物服务', 'navi_location': {'lng': 118.72802280398, 'lat': 32.021193479864}, 'type': 'life', 'detail_url': 'http://api.map.baidu.com/place/detail?uid=2d7b451cc5773f00b5147f93&output=html&source=placeapi_v2', 'overall_rating': '4.6', 'image_num': '5', 'comment_num': '19', 'children': [], 'lat': 32.01754634385537, 'lng': 118.71623348974315}}"
"{'name': '圣安宠物医院(富春江西街)', 'location': {'lat': 32.00625009583226, 'lng': 118.71367080846144}, 'address': '江苏省南京市建邺区富春江西街28-18号', 'province': '江苏省', 'city': '南京市', 'area': '建邺区', 'street_id': 'cd173e760ccd973e6d47607e', 'telephone': '(025)87715727', 'detail': 1, 'uid': 'cd173e760ccd973e6d47607e', 'detail_info': {'tag': '生活服务;宠物服务', 'type': 'life', 'detail_url': 'http://api.map.baidu.com/place/detail?uid=cd173e760ccd973e6d47607e&output=html&source=placeapi_v2', 'overall_rating': '5.0', 'image_num': '30', 'comment_num': '7', 'children': [], 'lat': 32.00625009583226, 'lng': 118.71367080846144}}"
"{'name': '极草堂', 'location': {'lat': 32.01788993933449, 'lng': 118.71718927818252}, 'address': '江苏省南京市建邺区梦都大街176-112号东南50米', 'province': '江苏省', 'city': '南京市', 'area': '建邺区', 'street_id': '3f084219c95e19e83310af3a', 'detail': 1, 'uid': '3f084219c95e19e83310af3a', 'detail_info': {'tag': '医疗;其他', 'type': 'hospital', 'detail_url': 'http://api.map.baidu.com/place/detail?uid=3f084219c95e19e83310af3a&output=html&source=placeapi_v2', 'image_num': '5', 'children': [], 'lat': 32.01788993933449, 'lng': 118.71718927818252}}"
"{'name': '台宝儿科', 'location': {'lat': 32.0175021166493, 'lng': 118.71699146227999}, 'address': '江苏省南京市建邺区乐山路167-19~20号', 'province': '江苏省', 'city': '南京市', 'area': '建邺区', 'street_id': 'd0bd0046a8494be930870a8d', 'telephone': '(025)58372227', 'detail': 1, 'uid': 'd0bd0046a8494be930870a8d', 'detail_info': {'tag': '医疗;诊所', 'type': 'hospital', 'detail_url': 'http://api.map.baidu.com/place/detail?uid=d0bd0046a8494be930870a8d&output=html&source=placeapi_v2', 'overall_rating': '5.0', 'image_num': '6', 'comment_num': '1', 'children': [], 'lat': 32.0175021166493, 'lng': 118.71699146227999}}"
"{'name': '联强国际大厦林医生', 'location': {'lat': 32.010989364984134, 'lng': 118.71724841414392}, 'address': '江苏省南京市建邺区河西中央商务区江东中路289号联强国际大厦林医生', 'province': '江苏省', 'city': '南京市', 'area': '建邺区', 'detail': 1, 'uid': '61b580cbccdf59785fbe8639', 'detail_info': {'tag': '医疗;诊所', 'type': 'hospital', 'detail_url': 'http://api.map.baidu.com/place/detail?uid=61b580cbccdf59785fbe8639&output=html&source=placeapi_v2', 'image_num': '1', 'children': [], 'lat': 32.010989364984134, 'lng': 118.71724841414392}}"
"{'name': '秀派宠物会所(金马郦城店)', 'location': {'lat': 32.00931640229782, 'lng': 118.71013183075256}, 'address': '江苏省南京市建邺区奥体大街199号金马郦城3幢112', 'province': '江苏省', 'city': '南京市', 'area': '建邺区', 'street_id': 'fc9b91b723125e0c4107c1af', 'telephone': '(025)57720300', 'detail': 1, 'uid': 'fc9b91b723125e0c4107c1af', 'detail_info': {'tag': '生活服务;宠物服务', 'type': 'life', 'detail_url': 'http://api.map.baidu.com/place/detail?uid=fc9b91b723125e0c4107c1af&output=html&source=placeapi_v2', 'overall_rating': '5.0', 'image_num': '15', 'comment_num': '2', 'children': [], 'lat': 32.00931640229782, 'lng': 118.71013183075256}}"
"{'name': '北京同仁堂(中央商场店)', 'location': {'lat': 32.00876079949962, 'lng': 118.7266296294831}, 'address': '南京市建邺区江东中路235号中央商场F1', 'province': '江苏省', 'city': '南京市', 'area': '建邺区', 'street_id': 'f89e967b80e18f9fc72ba117', 'detail': 1, 'uid': 'f89e967b80e18f9fc72ba117', 'detail_info': {'tag': '医疗;药店', 'navi_location': {'lng': 118.7385928532, 'lat': 32.011782331342}, 'indoor_floor': 'F1', 'type': 'hospital', 'detail_url': 'http://api.map.baidu.com/place/detail?uid=f89e967b80e18f9fc72ba117&output=html&source=placeapi_v2', 'overall_rating': '3.0', 'image_num': '9', 'comment_num': '1', 'children': [], 'lat': 32.00876079949962, 'lng': 118.7266296294831}}"
"{'name': '奇冠药店(乐山路店)', 'location': {'lat': 32.018331768582094, 'lng': 118.71775418349482}, 'address': '江苏省南京市建邺区乐山路167-6', 'province': '江苏省', 'city': '南京市', 'area': '建邺区', 'street_id': '5e67185467afac895d17c396', 'telephone': '(025)83192249', 'detail': 1, 'uid': '5e67185467afac895d17c396', 'detail_info': {'tag': '医疗;药店', 'navi_location': {'lng': 118.7295442384, 'lat': 32.022233929057}, 'type': 'hospital', 'detail_url': 'http://api.map.baidu.com/place/detail?uid=5e67185467afac895d17c396&output=html&source=placeapi_v2', 'overall_rating': '1.0', 'image_num': '11', 'comment_num': '3', 'children': [], 'lat': 32.018331768582094, 'lng': 118.71775418349482}}"
"{'name': '海王星辰健康药房(南京富春江西街店)', 'location': {'lat': 32.006151381792776, 'lng': 118.71388354443324}, 'address': '江苏省南京市建邺区富春江西街28-14号', 'province': '江苏省', 'city': '南京市', 'area': '建邺区', 'street_id': '213b4f1592fedd822cb90860', 'telephone': '(025)83613395', 'detail': 1, 'uid': '213b4f1592fedd822cb90860', 'detail_info': {'tag': '医疗;药店', 'navi_location': {'lng': 118.72540670118, 'lat': 32.009811335354}, 'type': 'hospital', 'detail_url': 'http://api.map.baidu.com/place/detail?uid=213b4f1592fedd822cb90860&output=html&source=placeapi_v2', 'overall_rating': '4.0', 'image_num': '20', 'comment_num': '4', 'children': [], 'lat': 32.006151381792776, 'lng': 118.71388354443324}}"
"{'name': '艾贝尔宠物医院(奥体店)', 'location': {'lat': 32.020871142080516, 'lng': 118.72009162900356}, 'address': '兴隆大街196-4号', 'province': '江苏省', 'city': '南京市', 'area': '建邺区', 'street_id': 'cc6c4baa7412f9c675e5b68f', 'telephone': '(025)84614136', 'detail': 1, 'uid': 'cc6c4baa7412f9c675e5b68f', 'detail_info': {'tag': '生活服务;宠物服务', 'navi_location': {'lng': 118.73178137801, 'lat': 32.02440546521}, 'type': 'life', 'detail_url': 'http://api.map.baidu.com/place/detail?uid=cc6c4baa7412f9c675e5b68f&output=html&source=placeapi_v2', 'price': '855', 'overall_rating': '4.8', 'image_num': '15', 'comment_num': '30', 'children': [], 'lat': 32.020871142080516, 'lng': 118.72009162900356}}"
"{'name': '南京轻颜', 'location': {'lat': 32.021804511820136, 'lng': 118.71223741870485}, 'address': '江苏省南京市建邺区螺丝桥大街91号', 'province': '江苏省', 'city': '南京市', 'area': '建邺区', 'street_id': '816c5590a4c981628715416a', 'detail': 1, 'uid': '816c5590a4c981628715416a', 'detail_info': {'tag': '医疗;其他', 'navi_location': {'lng': 118.72411255092, 'lat': 32.02602665086}, 'type': 'hospital', 'detail_url': 'http://api.map.baidu.com/place/detail?uid=816c5590a4c981628715416a&output=html&source=placeapi_v2', 'overall_rating': '0.0', 'image_num': '2', 'comment_num': '1', 'children': [], 'lat': 32.021804511820136, 'lng': 118.71223741870485}}"
"{'name': '春语医疗美容', 'location': {'lat': 32.0196060580059, 'lng': 118.72329677155415}, 'address': '南京市建邺区兴隆大街170-8170-9号', 'province': '江苏省', 'city': '南京市', 'area': '建邺区', 'street_id': '4aa820232e49e1f28c1a894f', 'telephone': '(025)52238788', 'detail': 1, 'uid': '4aa820232e49e1f28c1a894f', 'detail_info': {'tag': '医疗;专科医院', 'navi_location': {'lng': 118.73497202893, 'lat': 32.023110595893}, 'type': 'hospital', 'detail_url': 'http://api.map.baidu.com/place/detail?uid=4aa820232e49e1f28c1a894f&output=html&source=placeapi_v2', 'image_num': '6', 'children': [], 'lat': 32.0196060580059, 'lng': 118.72329677155415}}"
"{'name': '艾米莉宠物医院', 'location': {'lat': 32.025441712940214, 'lng': 118.72069398090498}, 'address': '江苏省南京市建邺区乐山路111-24号(靠近应天高架)', 'province': '江苏省', 'city': '南京市', 'area': '建邺区', 'street_id': 'db22b8d53082a2e6d6851fa0', 'telephone': '15950587556', 'detail': 1, 'uid': 'db22b8d53082a2e6d6851fa0', 'detail_info': {'tag': '生活服务;宠物服务', 'navi_location': {'lng': 118.73239870074, 'lat': 32.029153014798}, 'type': 'life', 'detail_url': 'http://api.map.baidu.com/place/detail?uid=db22b8d53082a2e6d6851fa0&output=html&source=placeapi_v2', 'overall_rating': '5.0', 'image_num': '8', 'comment_num': '5', 'children': [], 'lat': 32.025441712940214, 'lng': 118.72069398090498}}"
"{'name': '萌达口腔', 'location': {'lat': 32.019285990360736, 'lng': 118.72211759026034}, 'address': '南京市兴隆大街175-6室175-7室', 'province': '江苏省', 'city': '南京市', 'area': '建邺区', 'street_id': '9c1b6b3272b1e92817a1906b', 'telephone': '(025)58069998', 'detail': 1, 'uid': '9c1b6b3272b1e92817a1906b', 'detail_info': {'tag': '医疗;诊所', 'type': 'hospital', 'detail_url': 'http://api.map.baidu.com/place/detail?uid=9c1b6b3272b1e92817a1906b&output=html&source=placeapi_v2', 'image_num': '3', 'children': [], 'lat': 32.019285990360736, 'lng': 118.72211759026034}}"
"{'name': '南京市建邺区顺康诊所', 'location': {'lat': 32.01995728825052, 'lng': 118.7131738067944}, 'address': '江苏省南京市建邺区松花江西街65号', 'province': '江苏省', 'city': '南京市', 'area': '建邺区', 'street_id': 'b97ef258a8513aa854bfff66', 'telephone': '13913841783', 'detail': 1, 'uid': 'b97ef258a8513aa854bfff66', 'detail_info': {'tag': '医疗;诊所', 'navi_location': {'lng': 118.72499155917, 'lat': 32.02390050275}, 'type': 'hospital', 'detail_url': 'http://api.map.baidu.com/place/detail?uid=b97ef258a8513aa854bfff66&output=html&source=placeapi_v2', 'overall_rating': '0.0', 'image_num': '13', 'comment_num': '3', 'children': [], 'lat': 32.01995728825052, 'lng': 118.7131738067944}}"
"{'name': '南京市第一医院河西院区-地面停车场', 'location': {'lat': 32.02354845166456, 'lng': 118.7278679635348}, 'address': '燕山路19号附近', 'province': '江苏省', 'city': '南京市', 'area': '建邺区', 'street_id': '3d0bf0d54721c198c056aca2', 'detail': 1, 'uid': '3d0bf0d54721c198c056aca2', 'detail_info': {'tag': '交通设施;停车场', 'navi_location': {'lng': 118.73961169758, 'lat': 32.026916892024}, 'type': 'life', 'detail_url': 'http://api.map.baidu.com/place/detail?uid=3d0bf0d54721c198c056aca2&output=html&source=placeapi_v2', 'image_num': '1', 'children': [], 'lat': 32.02354845166456, 'lng': 118.7278679635348}}"
"{'name': '先声再康药店(月安街药店)', 'location': {'lat': 32.02207605422085, 'lng': 118.72539804171187}, 'address': '江苏省南京市月安街31-3号,31-4号', 'province': '江苏省', 'city': '南京市', 'area': '建邺区', 'street_id': '9760edd8574c6a16715e807d', 'telephone': '(025)52367572', 'detail': 1, 'uid': '9760edd8574c6a16715e807d', 'detail_info': {'tag': '医疗;药店', 'type': 'hospital', 'detail_url': 'http://api.map.baidu.com/place/detail?uid=9760edd8574c6a16715e807d&output=html&source=placeapi_v2', 'overall_rating': '2.0', 'image_num': '16', 'comment_num': '3', 'children': [], 'lat': 32.02207605422085, 'lng': 118.72539804171187}}"
"{'name': '先声再康药店(兴隆大街药店)', 'location': {'lat': 32.020554931047975, 'lng': 118.71903278925261}, 'address': '南京市建邺区兴隆大街203-4\x7f', 'province': '江苏省', 'city': '南京市', 'area': '建邺区', 'street_id': '6fa17ee36a2065a9ed74f8e4', 'telephone': '(025)83373781', 'detail': 1, 'uid': '6fa17ee36a2065a9ed74f8e4', 'detail_info': {'tag': '医疗;药店', 'navi_location': {'lng': 118.73074313626, 'lat': 32.024399708902}, 'type': 'hospital', 'detail_url': 'http://api.map.baidu.com/place/detail?uid=6fa17ee36a2065a9ed74f8e4&output=html&source=placeapi_v2', 'image_num': '6', 'children': [], 'lat': 32.020554931047975, 'lng': 118.71903278925261}}"
"{'name': '百家药店', 'location': {'lat': 32.02245784230975, 'lng': 118.72699299065381}, 'address': '南京市建邺区燕山路与月安街交叉路口往东约100米(月安生活广场)', 'province': '江苏省', 'city': '南京市', 'area': '建邺区', 'telephone': '(025)87785610', 'detail': 1, 'uid': 'cb175d41a92a5c03c0364434', 'detail_info': {'tag': '医疗;药店', 'type': 'hospital', 'detail_url': 'http://api.map.baidu.com/place/detail?uid=cb175d41a92a5c03c0364434&output=html&source=placeapi_v2', 'image_num': '1', 'children': [], 'lat': 32.02245784230975, 'lng': 118.72699299065381}}"
"{'name': '海王星辰健康药房(南京月安街店)', 'location': {'lat': 32.024626924067945, 'lng': 118.71566771768525}, 'address': '月安街57号-2', 'province': '江苏省', 'city': '南京市', 'area': '建邺区', 'street_id': '20a2891fc96778bfce04efe8', 'telephone': '(025)58836702', 'detail': 1, 'uid': '20a2891fc96778bfce04efe8', 'detail_info': {'tag': '医疗;药店', 'navi_location': {'lng': 118.72741254372, 'lat': 32.028428242331}, 'type': 'hospital', 'detail_url': 'http://api.map.baidu.com/place/detail?uid=20a2891fc96778bfce04efe8&output=html&source=placeapi_v2', 'image_num': '11', 'children': [], 'lat': 32.024626924067945, 'lng': 118.71566771768525}}"
"{'name': '石城宠物', 'location': {'lat': 32.02875776991833, 'lng': 118.72621558948201}, 'address': '华山路99号积贤雅苑1栋104', 'province': '江苏省', 'city': '南京市', 'area': '建邺区', 'telephone': '(025)86702118', 'detail': 1, 'uid': '5eb1559e88b076d741e1924a', 'detail_info': {'tag': '生活服务;宠物服务', 'type': 'life', 'detail_url': 'http://api.map.baidu.com/place/detail?uid=5eb1559e88b076d741e1924a&output=html&source=placeapi_v2', 'image_num': '2', 'children': [], 'lat': 32.02875776991833, 'lng': 118.72621558948201}}"
"{'name': '南京优力大药房', 'location': {'lat': 32.0252952724412, 'lng': 118.71514911544845}, 'address': '江苏省南京市建邺区苍山路与月安街交叉口西北角凌江府01幢13室、14室', 'province': '江苏省', 'city': '南京市', 'area': '建邺区', 'street_id': '2f1bdd87567d985b4107c1dc', 'telephone': '(025)58639295', 'detail': 1, 'uid': '2f1bdd87567d985b4107c1dc', 'detail_info': {'tag': '医疗;药店', 'type': 'hospital', 'detail_url': 'http://api.map.baidu.com/place/detail?uid=2f1bdd87567d985b4107c1dc&output=html&source=placeapi_v2', 'overall_rating': '4.0', 'image_num': '19', 'comment_num': '6', 'children': [], 'lat': 32.0252952724412, 'lng': 118.71514911544845}}"
"{'name': '冬虫夏草', 'location': {'lat': 32.02072395345239, 'lng': 118.72041125015365}, 'address': '南京市建邺区兴隆大街196-1号', 'province': '江苏省', 'city': '南京市', 'area': '建邺区', 'street_id': '159268f1e5008314b426558d', 'telephone': '15652348889', 'detail': 1, 'uid': '159268f1e5008314b426558d', 'detail_info': {'tag': '购物', 'type': 'shopping', 'detail_url': 'http://api.map.baidu.com/place/detail?uid=159268f1e5008314b426558d&output=html&source=placeapi_v2', 'children': [], 'lat': 32.02072395345239, 'lng': 118.72041125015365}}"
"{'name': '先声再康药店(凌江府药店)', 'location': {'lat': 32.025598783480056, 'lng': 118.71620209368184}, 'address': '南京市建邺区苍山路(汇锦国际凌江府)', 'province': '江苏省', 'city': '南京市', 'area': '建邺区', 'street_id': 'de0cf219b4540780081cc7d5', 'telephone': '(025)57626463', 'detail': 1, 'uid': 'de0cf219b4540780081cc7d5', 'detail_info': {'tag': '医疗;药店', 'type': 'hospital', 'detail_url': 'http://api.map.baidu.com/place/detail?uid=de0cf219b4540780081cc7d5&output=html&source=placeapi_v2', 'image_num': '3', 'children': [], 'lat': 32.025598783480056, 'lng': 118.71620209368184}}"
"{'name': '街电(春语医疗美容诊所)', 'location': {'lat': 32.01965741351913, 'lng': 118.72333261090489}, 'address': '兴隆大街170-9号', 'province': '江苏省', 'city': '南京市', 'area': '建邺区', 'detail': 1, 'uid': '6f146eb5a24fc3e92902e1c1', 'detail_info': {'tag': '生活服务;其他', 'type': 'life', 'detail_url': 'http://api.map.baidu.com/place/detail?uid=6f146eb5a24fc3e92902e1c1&output=html&source=placeapi_v2', 'image_num': '1', 'children': [], 'lat': 32.01965741351913, 'lng': 118.72333261090489}}"
"{'name': '鼓楼区江东社区卫生服务中心', 'location': {'lat': 32.031961879492194, 'lng': 118.72569526730841}, 'address': '江苏省南京市鼓楼区润江路一号', 'province': '江苏省', 'city': '南京市', 'area': '鼓楼区', 'street_id': '8dc20685d2811626c336444a', 'detail': 1, 'uid': '8dc20685d2811626c336444a', 'detail_info': {'tag': '医疗;诊所', 'navi_location': {'lng': 118.73776069082, 'lat': 32.035630196609}, 'type': 'hospital', 'detail_url': 'http://api.map.baidu.com/place/detail?uid=8dc20685d2811626c336444a&output=html&source=placeapi_v2', 'overall_rating': '5.0', 'image_num': '15', 'comment_num': '5', 'children': [], 'lat': 32.031961879492194, 'lng': 118.72569526730841}}"
"{'name': '江苏省老年医院分院', 'location': {'lat': 32.03292472945795, 'lng': 118.71688401266482}, 'address': '江苏省南京市建邺区集庆门大街269号', 'province': '江苏省', 'city': '南京市', 'area': '建邺区', 'street_id': 'afc56c7c7fbbbdade115f9fe', 'telephone': '(025)86385130', 'detail': 1, 'uid': 'afc56c7c7fbbbdade115f9fe', 'detail_info': {'tag': '医疗;其他', 'navi_location': {'lng': 118.72832726127, 'lat': 32.037281756265}, 'type': 'hospital', 'detail_url': 'http://api.map.baidu.com/place/detail?uid=afc56c7c7fbbbdade115f9fe&output=html&source=placeapi_v2', 'overall_rating': '0.0', 'image_num': '5', 'comment_num': '2', 'children': [], 'lat': 32.03292472945795, 'lng': 118.71688401266482}}"
"{'name': '巨鲨医疗', 'location': {'lat': 32.041157032835294, 'lng': 118.7277806111741}, 'address': '江苏省南京市汉中门大街301号1幢8楼a座', 'province': '江苏省', 'city': '南京市', 'area': '鼓楼区', 'street_id': 'c78647b4bcf878262902e164', 'detail': 1, 'uid': 'c78647b4bcf878262902e164', 'detail_info': {'tag': '公司企业;公司', 'navi_location': {'lng': 118.7393766571, 'lat': 32.044987730503}, 'type': 'enterprise', 'detail_url': 'http://api.map.baidu.com/place/detail?uid=c78647b4bcf878262902e164&output=html&source=placeapi_v2', 'children': [], 'lat': 32.041157032835294, 'lng': 118.7277806111741}}"
"{'name': '南京丽维安医疗美容', 'location': {'lat': 32.0344259557542, 'lng': 118.7165472853525}, 'address': '南京市鼓楼区集庆门大街272号201室', 'province': '江苏省', 'city': '南京市', 'area': '鼓楼区', 'telephone': '(025)86290777', 'detail': 1, 'uid': 'f44979ce471842e176e5b673', 'detail_info': {'tag': '医疗;其他', 'type': 'hospital', 'detail_url': 'http://api.map.baidu.com/place/detail?uid=f44979ce471842e176e5b673&output=html&source=placeapi_v2', 'overall_rating': '0.0', 'image_num': '1', 'comment_num': '1', 'children': [], 'lat': 32.0344259557542, 'lng': 118.7165472853525}}"
"{'name': '江苏省老年医院分院-东北门', 'location': {'lat': 32.0334842760573, 'lng': 118.7166397485155}, 'address': '江苏省南京市建邺区集庆门大街269号', 'province': '江苏省', 'city': '南京市', 'area': '建邺区', 'street_id': '73bf636759bc8cc5da2f28c4', 'detail': 1, 'uid': '73bf636759bc8cc5da2f28c4', 'detail_info': {'tag': '出入口;门', 'type': 'life', 'detail_url': 'http://api.map.baidu.com/place/detail?uid=73bf636759bc8cc5da2f28c4&output=html&source=placeapi_v2', 'image_num': '1', 'children': [], 'lat': 32.0334842760573, 'lng': 118.7166397485155}}"
"{'name': '江苏南大苏富特医疗科技有限公司', 'location': {'lat': 32.0402270189507, 'lng': 118.72396647809548}, 'address': '南京市鼓楼区清江南路19号南大苏富特科技创新园2号楼', 'province': '江苏省', 'city': '南京市', 'area': '鼓楼区', 'street_id': '69993e5d8954c6d4ce04efd1', 'detail': 1, 'uid': '69993e5d8954c6d4ce04efd1', 'detail_info': {'tag': '公司企业;公司', 'type': 'enterprise', 'detail_url': 'http://api.map.baidu.com/place/detail?uid=69993e5d8954c6d4ce04efd1&output=html&source=placeapi_v2', 'children': [], 'lat': 32.0402270189507, 'lng': 118.72396647809548}}"
"{'name': '文蓓医疗用品有限公司', 'location': {'lat': 32.03387553065549, 'lng': 118.71803412618533}, 'address': '南京市鼓楼区苏宁慧谷2栋1408', 'province': '江苏省', 'city': '南京市', 'area': '鼓楼区', 'street_id': '75df418bcb0d297dbca82291', 'detail': 1, 'uid': '75df418bcb0d297dbca82291', 'detail_info': {'tag': '公司企业;公司', 'type': 'enterprise', 'detail_url': 'http://api.map.baidu.com/place/detail?uid=75df418bcb0d297dbca82291&output=html&source=placeapi_v2', 'children': [], 'lat': 32.03387553065549, 'lng': 118.71803412618533}}"
"{'name': '海王星辰健康药房(南京燕山路店)', 'location': {'lat': 32.03382522898583, 'lng': 118.72641123853903}, 'address': '江苏省南京市鼓楼区燕山路19号集贤路和润江路交叉口', 'province': '江苏省', 'city': '南京市', 'area': '鼓楼区', 'street_id': 'f878979071814632a4c7568a', 'telephone': '(025)84359768', 'detail': 1, 'uid': 'f878979071814632a4c7568a', 'detail_info': {'tag': '医疗;药店', 'navi_location': {'lng': 118.73795557426, 'lat': 32.037636386915}, 'type': 'hospital', 'detail_url': 'http://api.map.baidu.com/place/detail?uid=f878979071814632a4c7568a&output=html&source=placeapi_v2', 'image_num': '20', 'children': [], 'lat': 32.03382522898583, 'lng': 118.72641123853903}}"
"{'name': '大德施恩SIR健康中心（鼓楼店）', 'location': {'lat': 32.034002749204426, 'lng': 118.72278558516498}, 'address': '江苏省南京市鼓楼区集贤路93号', 'province': '江苏省', 'city': '南京市', 'area': '鼓楼区', 'street_id': 'ece84a3512185be628fc4898', 'detail': 1, 'uid': 'ece84a3512185be628fc4898', 'detail_info': {'tag': '医疗;诊所', 'type': 'hospital', 'detail_url': 'http://api.map.baidu.com/place/detail?uid=ece84a3512185be628fc4898&output=html&source=placeapi_v2', 'overall_rating': '0.0', 'image_num': '4', 'comment_num': '1', 'children': [], 'lat': 32.034002749204426, 'lng': 118.72278558516498}}"
"{'name': '银源城诊所', 'location': {'lat': 32.05425839437021, 'lng': 118.72519842704658}, 'address': '闽江路102号', 'province': '江苏省', 'city': '南京市', 'area': '鼓楼区', 'street_id': 'd1e19ea341a4b713631c671e', 'telephone': '(025)86287939', 'detail': 1, 'uid': 'd1e19ea341a4b713631c671e', 'detail_info': {'tag': '医疗;诊所', 'type': 'hospital', 'detail_url': 'http://api.map.baidu.com/place/detail?uid=d1e19ea341a4b713631c671e&output=html&source=placeapi_v2', 'overall_rating': '5.0', 'image_num': '9', 'comment_num': '4', 'children': [], 'lat': 32.05425839437021, 'lng': 118.72519842704658}}"
"{'name': '康满堂', 'location': {'lat': 32.049124170918205, 'lng': 118.727685169636}, 'address': '南京市鼓楼区清凉门大街296号苏宁馨瑰园1栋104', 'province': '江苏省', 'city': '南京市', 'area': '鼓楼区', 'street_id': 'fadfc3dcddb0db64a2a934c9', 'detail': 1, 'uid': 'fadfc3dcddb0db64a2a934c9', 'detail_info': {'tag': '医疗', 'type': 'hospital', 'detail_url': 'http://api.map.baidu.com/place/detail?uid=fadfc3dcddb0db64a2a934c9&output=html&source=placeapi_v2', 'image_num': '2', 'children': [], 'lat': 32.049124170918205, 'lng': 118.727685169636}}"
"{'name': '药帮手智慧药房', 'location': {'lat': 32.04850472546032, 'lng': 118.7272898684592}, 'address': '江苏省南京市鼓楼区清凉门大街303-6', 'province': '江苏省', 'city': '南京市', 'area': '鼓楼区', 'street_id': '3131aa13d2b03a9aa2a93425', 'telephone': '17729993330', 'detail': 1, 'uid': '3131aa13d2b03a9aa2a93425', 'detail_info': {'tag': '医疗;药店', 'type': 'hospital', 'detail_url': 'http://api.map.baidu.com/place/detail?uid=3131aa13d2b03a9aa2a93425&output=html&source=placeapi_v2', 'image_num': '1', 'children': [], 'lat': 32.04850472546032, 'lng': 118.7272898684592}}"
"{'name': '颐年堂药房(苏宁环球商贸城店)', 'location': {'lat': 32.046113375290794, 'lng': 118.72505917775918}, 'address': '南京市鼓楼区清江路99号苏宁环球商贸城F1', 'province': '江苏省', 'city': '南京市', 'area': '鼓楼区', 'street_id': 'd46ed1b6c6d1f28f932ca37a', 'telephone': '(025)52442270', 'detail': 1, 'uid': 'd46ed1b6c6d1f28f932ca37a', 'detail_info': {'tag': '医疗;药店', 'indoor_floor': 'F1', 'type': 'hospital', 'detail_url': 'http://api.map.baidu.com/place/detail?uid=d46ed1b6c6d1f28f932ca37a&output=html&source=placeapi_v2', 'image_num': '11', 'children': [], 'lat': 32.046113375290794, 'lng': 118.72505917775918}}"
"{'name': '吾医堂', 'location': {'lat': 32.08253481535685, 'lng': 118.72704173927023}, 'address': '南京市鼓楼区唐山路与南通路交叉路口往北约150米(茂悦港)', 'province': '江苏省', 'city': '南京市', 'area': '鼓楼区', 'detail': 1, 'uid': 'd9dc1a22ef335b2783a00c37', 'detail_info': {'tag': '医疗;其他', 'type': 'hospital', 'detail_url': 'http://api.map.baidu.com/place/detail?uid=d9dc1a22ef335b2783a00c37&output=html&source=placeapi_v2', 'image_num': '4', 'children': [], 'lat': 32.08253481535685, 'lng': 118.72704173927023}}"
"{'name': '康丽医美', 'location': {'lat': 32.08230751324994, 'lng': 118.72716031698894}, 'address': '江苏省南京市鼓楼区南通路118号茂悦港3号楼301', 'province': '江苏省', 'city': '南京市', 'area': '鼓楼区', 'street_id': '8630d556d043009b58f6bee6', 'detail': 1, 'uid': '8630d556d043009b58f6bee6', 'detail_info': {'tag': '医疗;专科医院', 'type': 'hospital', 'detail_url': 'http://api.map.baidu.com/place/detail?uid=8630d556d043009b58f6bee6&output=html&source=placeapi_v2', 'image_num': '1', 'children': [], 'lat': 32.08230751324994, 'lng': 118.72716031698894}}"
"{'name': '南京市建邺区南苑社区卫生服务中心', 'location': {'lat': 32.01300826978202, 'lng': 118.732339727624}, 'address': '南京市建邺区庐山路90号', 'province': '江苏省', 'city': '南京市', 'area': '建邺区', 'street_id': '38d72e1ef1f0642b2b201a92', 'telephone': '(025)86475631', 'detail': 1, 'uid': '38d72e1ef1f0642b2b201a92', 'detail_info': {'tag': '医疗;诊所', 'navi_location': {'lng': 118.74406994047, 'lat': 32.01612814244}, 'type': 'hospital', 'detail_url': 'http://api.map.baidu.com/place/detail?uid=38d72e1ef1f0642b2b201a92&output=html&source=placeapi_v2', 'overall_rating': '5.0', 'image_num': '7', 'comment_num': '4', 'children': [], 'lat': 32.01300826978202, 'lng': 118.732339727624}}"
"{'name': '南京市口腔医院第五门诊部', 'location': {'lat': 32.0118855849687, 'lng': 118.73167271765948}, 'address': '南京市建邺区庐山路98-2号', 'province': '江苏省', 'city': '南京市', 'area': '建邺区', 'street_id': '37a967a3329dc901704b873b', 'telephone': '(025)83620113', 'detail': 1, 'uid': '37a967a3329dc901704b873b', 'detail_info': {'tag': '医疗;诊所', 'navi_location': {'lng': 118.74356552935, 'lat': 32.015413011502}, 'type': 'hospital', 'detail_url': 'http://api.map.baidu.com/place/detail?uid=37a967a3329dc901704b873b&output=html&source=placeapi_v2', 'image_num': '7', 'children': [], 'lat': 32.0118855849687, 'lng': 118.73167271765948}}"
"{'name': '南京易安体检中心', 'location': {'lat': 32.01758433543822, 'lng': 118.7319420980491}, 'address': '江苏省南京市建邺区江东中路211号凤凰文化广场A座7楼', 'province': '江苏省', 'city': '南京市', 'area': '建邺区', 'street_id': 'b2f029f51d1116c0373a71b0', 'telephone': '(025)84455558,(025)83136663', 'detail': 1, 'uid': 'b2f029f51d1116c0373a71b0', 'detail_info': {'tag': '医疗;体检机构', 'navi_location': {'lng': 118.74352819038, 'lat': 32.021162607864}, 'type': 'hospital', 'detail_url': 'http://api.map.baidu.com/place/detail?uid=b2f029f51d1116c0373a71b0&output=html&source=placeapi_v2', 'image_num': '7', 'children': [], 'lat': 32.01758433543822, 'lng': 118.7319420980491}}"
"{'name': '南京肛泰肛肠医院', 'location': {'lat': 32.018040539963735, 'lng': 118.74304478288141}, 'address': '江苏省南京市建邺区黄山路2号', 'province': '江苏省', 'city': '南京市', 'area': '建邺区', 'street_id': 'e93761f66aa7da15233bf2ab', 'telephone': '(025)82226851', 'detail': 1, 'uid': 'e93761f66aa7da15233bf2ab', 'detail_info': {'tag': '医疗;专科医院', 'navi_location': {'lng': 118.75521811397, 'lat': 32.021491065306}, 'type': 'hospital', 'detail_url': 'http://api.map.baidu.com/place/detail?uid=e93761f66aa7da15233bf2ab&output=html&source=placeapi_v2', 'price': '0.0', 'overall_rating': '4.1', 'image_num': '26', 'comment_num': '50', 'children': [], 'lat': 32.018040539963735, 'lng': 118.74304478288141}}"
"{'name': '江苏省口腔医院(南苑门诊部)', 'location': {'lat': 32.01273135100283, 'lng': 118.73241966482723}, 'address': '南京市建邺区庐山路90号南苑社区服务中心二层', 'province': '江苏省', 'city': '南京市', 'area': '建邺区', 'street_id': '4c592f444dc84103f90cadec', 'telephone': '(025)86516056', 'detail': 1, 'uid': '4c592f444dc84103f90cadec', 'detail_info': {'tag': '医疗;其他', 'navi_location': {'lng': 118.7441433491, 'lat': 32.016085762241}, 'type': 'hospital', 'detail_url': 'http://api.map.baidu.com/place/detail?uid=4c592f444dc84103f90cadec&output=html&source=placeapi_v2', 'overall_rating': '0.0', 'image_num': '8', 'comment_num': '1', 'children': [], 'lat': 32.01273135100283, 'lng': 118.73241966482723}}"
"{'name': '诺雅宠物医院(黄山路店)', 'location': {'lat': 32.01712459599622, 'lng': 118.7425010796834}, 'address': '南京市建邺区黄山路10号', 'province': '江苏省', 'city': '南京市', 'area': '建邺区', 'street_id': 'b1c556e8aa8fa60cb52655af', 'telephone': '(025)52466067', 'detail': 1, 'uid': 'b1c556e8aa8fa60cb52655af', 'detail_info': {'tag': '生活服务;宠物服务', 'navi_location': {'lng': 118.7548206021, 'lat': 32.020916399147}, 'type': 'life', 'detail_url': 'http://api.map.baidu.com/place/detail?uid=b1c556e8aa8fa60cb52655af&output=html&source=placeapi_v2', 'overall_rating': '3.0', 'image_num': '10', 'comment_num': '5', 'children': [], 'lat': 32.01712459599622, 'lng': 118.7425010796834}}"
"{'name': '玉蕙口腔', 'location': {'lat': 32.01692870660054, 'lng': 118.73475377412362}, 'address': '江苏省南京市建邺区白鹭东街92-6号', 'province': '江苏省', 'city': '南京市', 'area': '建邺区', 'street_id': '5d277989f4cd11c10089729b', 'telephone': '(025)83206168', 'detail': 1, 'uid': '5d277989f4cd11c10089729b', 'detail_info': {'tag': '医疗;诊所', 'detail_url': 'http://api.map.baidu.com/place/detail?uid=5d277989f4cd11c10089729b&output=html&source=placeapi_v2', 'children': [], 'lat': 32.01692870660054, 'lng': 118.73475377412362}}"
"{'name': '新华健康', 'location': {'lat': 32.01197169767925, 'lng': 118.73171065788297}, 'address': '庐山路94号欧洲城裙楼3楼', 'province': '江苏省', 'city': '南京市', 'area': '建邺区', 'street_id': 'a4ebccc62622a42d8936ee3b', 'telephone': '(025)52277898', 'detail': 1, 'uid': 'a4ebccc62622a42d8936ee3b', 'detail_info': {'tag': '医疗;体检机构', 'navi_location': {'lng': 118.74327480176, 'lat': 32.016308606228}, 'type': 'hospital', 'detail_url': 'http://api.map.baidu.com/place/detail?uid=a4ebccc62622a42d8936ee3b&output=html&source=placeapi_v2', 'price': '0.0', 'overall_rating': '0.0', 'image_num': '12', 'comment_num': '1', 'children': [], 'lat': 32.01197169767925, 'lng': 118.73171065788297}}"
"{'name': '允和泰中医诊所', 'location': {'lat': 32.014392553610406, 'lng': 118.74159227582786}, 'address': '江苏省南京市建邺区黄山路21号', 'province': '江苏省', 'city': '南京市', 'area': '建邺区', 'street_id': 'c534cdbadf7417fcb11e363f', 'telephone': '(025)86635390', 'detail': 1, 'uid': 'c534cdbadf7417fcb11e363f', 'detail_info': {'tag': '医疗;诊所', 'navi_location': {'lng': 118.75318978414, 'lat': 32.018175491354}, 'type': 'hospital', 'detail_url': 'http://api.map.baidu.com/place/detail?uid=c534cdbadf7417fcb11e363f&output=html&source=placeapi_v2', 'overall_rating': '4.0', 'image_num': '2', 'comment_num': '2', 'children': [], 'lat': 32.014392553610406, 'lng': 118.74159227582786}}"
"{'name': '建邺云康诊所', 'location': {'lat': 32.018544398511665, 'lng': 118.73743698690774}, 'address': '南京市建邺区庐山路30号', 'province': '江苏省', 'city': '南京市', 'area': '建邺区', 'street_id': 'f15ffb708ea28b71d0ff2317', 'telephone': '13505146119', 'detail': 1, 'uid': 'f15ffb708ea28b71d0ff2317', 'detail_info': {'tag': '医疗;诊所', 'navi_location': {'lng': 118.74923889099, 'lat': 32.022081351604}, 'type': 'hospital', 'detail_url': 'http://api.map.baidu.com/place/detail?uid=f15ffb708ea28b71d0ff2317&output=html&source=placeapi_v2', 'overall_rating': '0.0', 'image_num': '20', 'comment_num': '1', 'children': [], 'lat': 32.018544398511665, 'lng': 118.73743698690774}}"
"{'name': '建邺区国安诊所', 'location': {'lat': 32.01442414028379, 'lng': 118.74709113931183}, 'address': '江苏省南京市建邺区泰山路9-2临', 'province': '江苏省', 'city': '南京市', 'area': '建邺区', 'street_id': '26e8042acda0c223c61e5121', 'detail': 1, 'uid': '26e8042acda0c223c61e5121', 'detail_info': {'tag': '医疗;诊所', 'type': 'hospital', 'detail_url': 'http://api.map.baidu.com/place/detail?uid=26e8042acda0c223c61e5121&output=html&source=placeapi_v2', 'overall_rating': '0.0', 'image_num': '13', 'comment_num': '2', 'children': [], 'lat': 32.01442414028379, 'lng': 118.74709113931183}}"
"{'name': '海王星辰健康药房(南京兴隆大街店)', 'location': {'lat': 32.01514455098444, 'lng': 118.73178405599336}, 'address': '江苏省南京市建邺区兴隆大街113附近', 'province': '江苏省', 'city': '南京市', 'area': '建邺区', 'street_id': 'ad42f545da896b7c220262a0', 'telephone': '(025)83193286', 'detail': 1, 'uid': 'ad42f545da896b7c220262a0', 'detail_info': {'tag': '医疗;药店', 'navi_location': {'lng': 118.74371428785, 'lat': 32.01920007739}, 'type': 'hospital', 'detail_url': 'http://api.map.baidu.com/place/detail?uid=ad42f545da896b7c220262a0&output=html&source=placeapi_v2', 'image_num': '4', 'children': [], 'lat': 32.01514455098444, 'lng': 118.73178405599336}}"
"{'name': '建邺区虹苑-社区卫生站', 'location': {'lat': 32.017278125197905, 'lng': 118.74631002039698}, 'address': '南京市建邺区嵩山路与应天大街交叉路口往南约50米(虹苑新寓小区西北侧)', 'province': '江苏省', 'city': '南京市', 'area': '建邺区', 'street_id': 'b533ea4a28fc53414e6d46af', 'detail': 1, 'uid': 'b533ea4a28fc53414e6d46af', 'detail_info': {'tag': '医疗;诊所', 'type': 'hospital', 'detail_url': 'http://api.map.baidu.com/place/detail?uid=b533ea4a28fc53414e6d46af&output=html&source=placeapi_v2', 'overall_rating': '0.0', 'image_num': '8', 'comment_num': '1', 'children': [], 'lat': 32.017278125197905, 'lng': 118.74631002039698}}"
"{'name': '南京肛泰肛肠医院-地面停车场', 'location': {'lat': 32.01798880034133, 'lng': 118.74338249071624}, 'address': '黄山路2号', 'province': '江苏省', 'city': '南京市', 'area': '建邺区', 'street_id': '69df1b7b7c776072e01103f1', 'detail': 1, 'uid': '69df1b7b7c776072e01103f1', 'detail_info': {'tag': '交通设施;停车场', 'navi_location': {'lng': 118.75507490161, 'lat': 32.021642371247}, 'type': 'life', 'detail_url': 'http://api.map.baidu.com/place/detail?uid=69df1b7b7c776072e01103f1&output=html&source=placeapi_v2', 'image_num': '1', 'children': [], 'lat': 32.01798880034133, 'lng': 118.74338249071624}}"
"{'name': '君晏堂中医诊所', 'location': {'lat': 32.016689224735906, 'lng': 118.74140338166646}, 'address': '南京市建邺区怡康街68号', 'province': '江苏省', 'city': '南京市', 'area': '建邺区', 'street_id': 'b7b2ea519ebfd0b12dfaa7cc', 'telephone': '(025)83323933', 'detail': 1, 'uid': 'b7b2ea519ebfd0b12dfaa7cc', 'detail_info': {'tag': '医疗;诊所', 'type': 'hospital', 'detail_url': 'http://api.map.baidu.com/place/detail?uid=b7b2ea519ebfd0b12dfaa7cc&output=html&source=placeapi_v2', 'overall_rating': '5.0', 'image_num': '5', 'comment_num': '1', 'children': [], 'lat': 32.016689224735906, 'lng': 118.74140338166646}}"
"{'name': '创普医疗科技公司', 'location': {'lat': 32.016863092352054, 'lng': 118.73147600588264}, 'address': '南京市江东中路215号凤凰文化广场B座8楼', 'province': '江苏省', 'city': '南京市', 'area': '建邺区', 'street_id': 'fc3e85d0c30513c8c356ac42', 'telephone': '(025)52334365', 'detail': 1, 'uid': 'fc3e85d0c30513c8c356ac42', 'detail_info': {'tag': '公司企业;公司', 'navi_location': {'lng': 118.74359392748, 'lat': 32.019364028115}, 'type': 'enterprise', 'detail_url': 'http://api.map.baidu.com/place/detail?uid=fc3e85d0c30513c8c356ac42&output=html&source=placeapi_v2', 'children': [], 'lat': 32.016863092352054, 'lng': 118.73147600588264}}"
"{'name': '南京建邺万福园诊所', 'location': {'lat': 32.014035195654735, 'lng': 118.74418939650072}, 'address': '怡康街29号', 'province': '江苏省', 'city': '南京市', 'area': '建邺区', 'street_id': '58255984dfa1645f047ce86e', 'detail': 1, 'uid': '58255984dfa1645f047ce86e', 'detail_info': {'tag': '医疗;诊所', 'navi_location': {'lng': 118.755758142, 'lat': 32.017792348898}, 'type': 'hospital', 'detail_url': 'http://api.map.baidu.com/place/detail?uid=58255984dfa1645f047ce86e&output=html&source=placeapi_v2', 'overall_rating': '0.0', 'image_num': '8', 'comment_num': '1', 'children': [], 'lat': 32.014035195654735, 'lng': 118.74418939650072}}"
"{'name': '国安诊所-口腔科', 'location': {'lat': 32.01443077226161, 'lng': 118.7471242397268}, 'address': '江苏省南京市建邺区泰山路9-2临', 'province': '江苏省', 'city': '南京市', 'area': '建邺区', 'telephone': '15996498685', 'detail': 1, 'uid': '41b86c65da9d4f5f8936ee89', 'detail_info': {'tag': '医疗;其他', 'type': 'hospital', 'detail_url': 'http://api.map.baidu.com/place/detail?uid=41b86c65da9d4f5f8936ee89&output=html&source=placeapi_v2', 'overall_rating': '0.0', 'image_num': '4', 'comment_num': '1', 'children': [], 'lat': 32.01443077226161, 'lng': 118.7471242397268}}"
"{'name': '江苏省口腔医院南苑门诊部-西南门', 'location': {'lat': 32.01257299824857, 'lng': 118.73224689273037}, 'address': '南京市建邺区松花江东街80', 'province': '江苏省', 'city': '南京市', 'area': '建邺区', 'street_id': '25e8dd740d233c996f3e1b0c', 'detail': 1, 'uid': '25e8dd740d233c996f3e1b0c', 'detail_info': {'tag': '出入口;门', 'type': 'life', 'detail_url': 'http://api.map.baidu.com/place/detail?uid=25e8dd740d233c996f3e1b0c&output=html&source=placeapi_v2', 'image_num': '1', 'children': [], 'lat': 32.01257299824857, 'lng': 118.73224689273037}}"
"{'name': '三九药店', 'location': {'lat': 32.01782758995826, 'lng': 118.7472817282853}, 'address': '南京市建邺区应天大街与嵩山路交叉路口往西北约50米(天都芳庭)', 'province': '江苏省', 'city': '南京市', 'area': '建邺区', 'telephone': '(025)52466064', 'detail': 1, 'uid': '398dc46f8154d88b25d2bb83', 'detail_info': {'tag': '医疗;药店', 'type': 'hospital', 'detail_url': 'http://api.map.baidu.com/place/detail?uid=398dc46f8154d88b25d2bb83&output=html&source=placeapi_v2', 'price': '0.0', 'overall_rating': '4.0', 'image_num': '18', 'comment_num': '3', 'children': [], 'lat': 32.01782758995826, 'lng': 118.7472817282853}}"
"{'name': '筑康药房', 'location': {'lat': 32.01652608982368, 'lng': 118.73546364193655}, 'address': '庐山路与白鹭东街交叉口西北50米', 'province': '江苏省', 'city': '南京市', 'area': '建邺区', 'street_id': 'eb5e872a3483a5ad2bd7ab1f', 'telephone': '(025)85579097', 'detail': 1, 'uid': 'eb5e872a3483a5ad2bd7ab1f', 'detail_info': {'tag': '医疗;药店', 'navi_location': {'lng': 118.74718010501, 'lat': 32.020084803753}, 'type': 'hospital', 'detail_url': 'http://api.map.baidu.com/place/detail?uid=eb5e872a3483a5ad2bd7ab1f&output=html&source=placeapi_v2', 'image_num': '8', 'children': [], 'lat': 32.01652608982368, 'lng': 118.73546364193655}}"
"{'name': '老百姓大药房(泰山路店)', 'location': {'lat': 32.01150395176748, 'lng': 118.74563330837205}, 'address': '江苏省南京市建邺区泰山路65-11号', 'province': '江苏省', 'city': '南京市', 'area': '建邺区', 'street_id': '4f9d38079a33f4a5c056aca0', 'telephone': '(025)86287366', 'detail': 1, 'uid': '4f9d38079a33f4a5c056aca0', 'detail_info': {'tag': '医疗;药店', 'navi_location': {'lng': 118.75751854592, 'lat': 32.015325595972}, 'type': 'hospital', 'detail_url': 'http://api.map.baidu.com/place/detail?uid=4f9d38079a33f4a5c056aca0&output=html&source=placeapi_v2', 'overall_rating': '0.0', 'image_num': '8', 'children': [], 'lat': 32.01150395176748, 'lng': 118.74563330837205}}"
"{'name': '怪兽充电(南京肛泰中医医院)', 'location': {'lat': 32.01806732863069, 'lng': 118.7430718262854}, 'address': '黄山路2号', 'province': '江苏省', 'city': '南京市', 'area': '建邺区', 'detail': 1, 'uid': 'bab82adf8c773be029fc48f8', 'detail_info': {'detail_url': 'http://api.map.baidu.com/place/detail?uid=bab82adf8c773be029fc48f8&output=html&source=placeapi_v2', 'children': [], 'lat': 32.01806732863069, 'lng': 118.7430718262854}}"
"{'name': '无限极', 'location': {'lat': 32.01858418966422, 'lng': 118.73811527137376}, 'address': '南京市建邺区怡康街与庐山路交叉路口东侧(华隆新寓)', 'province': '江苏省', 'city': '南京市', 'area': '建邺区', 'street_id': '4dffcc9a00710610fea7780a', 'detail': 1, 'uid': '4dffcc9a00710610fea7780a', 'detail_info': {'tag': '购物;商铺', 'type': 'shopping', 'detail_url': 'http://api.map.baidu.com/place/detail?uid=4dffcc9a00710610fea7780a&output=html&source=placeapi_v2', 'children': [], 'lat': 32.01858418966422, 'lng': 118.73811527137376}}"
"{'name': '南京市第一医院(河西院区)', 'location': {'lat': 32.02281632835641, 'lng': 118.72838515210806}, 'address': '南京市建邺区燕山路139号', 'province': '江苏省', 'city': '南京市', 'area': '建邺区', 'street_id': '63df605ee06471639b68b4c6', 'detail': 1, 'uid': '63df605ee06471639b68b4c6', 'detail_info': {'tag': '医疗;综合医院', 'navi_location': {'lng': 118.7402340924, 'lat': 32.025658751101}, 'type': 'hospital', 'detail_url': 'http://api.map.baidu.com/place/detail?uid=63df605ee06471639b68b4c6&output=html&source=placeapi_v2', 'overall_rating': '3.2', 'image_num': '26', 'comment_num': '11', 'children': [], 'lat': 32.02281632835641, 'lng': 118.72838515210806}}"
"{'name': '南京市建邺区妇幼保健所', 'location': {'lat': 32.022413590484696, 'lng': 118.72923247250115}, 'address': '南京市建邺区月安街18-2号', 'province': '江苏省', 'city': '南京市', 'area': '建邺区', 'street_id': '37d60a46cc7b35791e1d1144', 'telephone': '(025)84205200', 'detail': 1, 'uid': '37d60a46cc7b35791e1d1144', 'detail_info': {'tag': '医疗;专科医院', 'navi_location': {'lng': 118.74080904655, 'lat': 32.025762427898}, 'type': 'hospital', 'detail_url': 'http://api.map.baidu.com/place/detail?uid=37d60a46cc7b35791e1d1144&output=html&source=placeapi_v2', 'overall_rating': '4.0', 'image_num': '15', 'comment_num': '5', 'children': [], 'lat': 32.022413590484696, 'lng': 118.72923247250115}}"
"{'name': '美年大健康(河西分院)', 'location': {'lat': 32.02966757745118, 'lng': 118.7334685895227}, 'address': '江苏省南京市建邺区江东中路118号', 'province': '江苏省', 'city': '南京市', 'area': '建邺区', 'detail': 1, 'uid': '8b03427a5e8bb12d3904b120', 'detail_info': {'tag': '医疗;体检机构', 'navi_location': {'lng': 118.74539724546, 'lat': 32.033270345074}, 'type': 'hospital', 'detail_url': 'http://api.map.baidu.com/place/detail?uid=8b03427a5e8bb12d3904b120&output=html&source=placeapi_v2', 'image_num': '7', 'children': [], 'lat': 32.02966757745118, 'lng': 118.7334685895227}}"
"{'name': '建邺区兴隆社区卫生服务中心', 'location': {'lat': 32.02350533100371, 'lng': 118.72983055493297}, 'address': '江苏省南京市建邺区应天大街919号', 'province': '江苏省', 'city': '南京市', 'area': '建邺区', 'street_id': 'd1de8cb0c390d54a17c8f611', 'telephone': '(025)83361131', 'detail': 1, 'uid': 'd1de8cb0c390d54a17c8f611', 'detail_info': {'tag': '医疗;诊所', 'navi_location': {'lng': 118.74188865527, 'lat': 32.027804303}, 'type': 'hospital', 'detail_url': 'http://api.map.baidu.com/place/detail?uid=d1de8cb0c390d54a17c8f611&output=html&source=placeapi_v2', 'image_num': '10', 'children': [], 'lat': 32.02350533100371, 'lng': 118.72983055493297}}"
"{'name': '伊美荟医疗', 'location': {'lat': 32.031290176789526, 'lng': 118.73236324970267}, 'address': '江苏省南京市万达广场D座13层', 'province': '江苏省', 'city': '南京市', 'area': '建邺区', 'detail': 1, 'uid': 'c53da8ec80546249a104647c', 'detail_info': {'tag': '医疗;其他', 'type': 'hospital', 'detail_url': 'http://api.map.baidu.com/place/detail?uid=c53da8ec80546249a104647c&output=html&source=placeapi_v2', 'image_num': '1', 'children': [], 'lat': 32.031290176789526, 'lng': 118.73236324970267}}"
"{'name': '河西中心动物医院', 'location': {'lat': 32.019374545599966, 'lng': 118.73242375087624}, 'address': '江东中路203号301室', 'province': '江苏省', 'city': '南京市', 'area': '建邺区', 'street_id': '232b2d2881c20281f03cbacc', 'telephone': '(025)58786120', 'detail': 1, 'uid': '232b2d2881c20281f03cbacc', 'detail_info': {'tag': '生活服务;宠物服务', 'navi_location': {'lng': 118.74407431971, 'lat': 32.022965027982}, 'type': 'life', 'detail_url': 'http://api.map.baidu.com/place/detail?uid=232b2d2881c20281f03cbacc&output=html&source=placeapi_v2', 'overall_rating': '3.7', 'image_num': '5', 'comment_num': '3', 'children': [], 'lat': 32.019374545599966, 'lng': 118.73242375087624}}"
"{'name': '南京华韩奇致美容医院', 'location': {'lat': 32.02959556414548, 'lng': 118.73345266745339}, 'address': '江东中路126号德盈大厦1层', 'province': '江苏省', 'city': '南京市', 'area': '建邺区', 'street_id': '83c4d3f4c2aba84ee9f8531b', 'detail': 1, 'uid': '83c4d3f4c2aba84ee9f8531b', 'detail_info': {'tag': '医疗;专科医院', 'navi_location': {'lng': 118.74550385346, 'lat': 32.033973382488}, 'type': 'hospital', 'detail_url': 'http://api.map.baidu.com/place/detail?uid=83c4d3f4c2aba84ee9f8531b&output=html&source=placeapi_v2', 'overall_rating': '3.3', 'image_num': '8', 'comment_num': '3', 'children': [], 'lat': 32.02959556414548, 'lng': 118.73345266745339}}"
"{'name': '石城宠物医院(集庆门大街店)', 'location': {'lat': 32.02913407889003, 'lng': 118.74282718139838}, 'address': '集庆门大街151-1(集庆门大街与湖西街交叉路西南角)', 'province': '江苏省', 'city': '南京市', 'area': '建邺区', 'street_id': '5ff6329aa623f893220220e0', 'telephone': '(025)86302118', 'detail': 1, 'uid': '5ff6329aa623f893220220e0', 'detail_info': {'tag': '生活服务;宠物服务', 'navi_location': {'lng': 118.75419352287, 'lat': 32.033072469014}, 'type': 'life', 'detail_url': 'http://api.map.baidu.com/place/detail?uid=5ff6329aa623f893220220e0&output=html&source=placeapi_v2', 'overall_rating': '3.1', 'image_num': '24', 'comment_num': '8', 'children': [], 'lat': 32.02913407889003, 'lng': 118.74282718139838}}"
"{'name': '南京师皇宠物医院(河西店)', 'location': {'lat': 32.02810427291464, 'lng': 118.73740288448505}, 'address': '江苏省南京市建邺区云锦路139号', 'province': '江苏省', 'city': '南京市', 'area': '建邺区', 'street_id': '00d410f62189a68c1c389434', 'telephone': '(025)86800910,13338613406', 'detail': 1, 'uid': '00d410f62189a68c1c389434', 'detail_info': {'tag': '生活服务;宠物服务', 'navi_location': {'lng': 118.74896851989, 'lat': 32.031791010524}, 'type': 'life', 'detail_url': 'http://api.map.baidu.com/place/detail?uid=00d410f62189a68c1c389434&output=html&source=placeapi_v2', 'overall_rating': '2.7', 'image_num': '18', 'comment_num': '23', 'children': [], 'lat': 32.02810427291464, 'lng': 118.73740288448505}}"
"{'name': '建邺区疾病预防控制中心', 'location': {'lat': 32.02230747265512, 'lng': 118.72920958551374}, 'address': '江苏省南京市建邺区月安街18-1号', 'province': '江苏省', 'city': '南京市', 'area': '建邺区', 'street_id': 'cdef4edf67dd034e28d7ab42', 'detail': 1, 'uid': 'cdef4edf67dd034e28d7ab42', 'detail_info': {'tag': '医疗;疾控中心', 'navi_location': {'lng': 118.74094824438, 'lat': 32.02574666355}, 'type': 'hospital', 'detail_url': 'http://api.map.baidu.com/place/detail?uid=cdef4edf67dd034e28d7ab42&output=html&source=placeapi_v2', 'overall_rating': '3.0', 'image_num': '11', 'comment_num': '5', 'children': [], 'lat': 32.02230747265512, 'lng': 118.72920958551374}}"
"{'name': '南京市第一医院(河西院区)门诊部-西北门', 'location': {'lat': 32.023126147542435, 'lng': 118.72816748601385}, 'address': '月安街18号附近', 'province': '江苏省', 'city': '南京市', 'area': '建邺区', 'street_id': '2ce9ec5bdf1d58852b201a8b', 'detail': 1, 'uid': '2ce9ec5bdf1d58852b201a8b', 'detail_info': {'tag': '出入口;门', 'navi_location': {'lng': 118.73952054318, 'lat': 32.026934503729}, 'type': 'life', 'detail_url': 'http://api.map.baidu.com/place/detail?uid=2ce9ec5bdf1d58852b201a8b&output=html&source=placeapi_v2', 'image_num': '1', 'children': [], 'lat': 32.023126147542435, 'lng': 118.72816748601385}}"
"{'name': '南京市第一医院河西院区-南门', 'location': {'lat': 32.02206858429315, 'lng': 118.72844546026992}, 'address': '江苏省南京市建邺区月安路18', 'province': '江苏省', 'city': '南京市', 'area': '建邺区', 'street_id': '7d3406342d475838db13180d', 'detail': 1, 'uid': '7d3406342d475838db13180d', 'detail_info': {'tag': '出入口;门', 'navi_location': {'lng': 118.74019399564, 'lat': 32.025598986962}, 'type': 'life', 'detail_url': 'http://api.map.baidu.com/place/detail?uid=7d3406342d475838db13180d&output=html&source=placeapi_v2', 'image_num': '1', 'children': [], 'lat': 32.02206858429315, 'lng': 118.72844546026992}}"
"{'name': '康合营养家(集庆门店)', 'location': {'lat': 32.030237285241796, 'lng': 118.73947035235454}, 'address': '集庆门大街186-2号附近', 'province': '江苏省', 'city': '南京市', 'area': '建邺区', 'street_id': '9d0689e6ea88ec286168580d', 'detail': 1, 'uid': '9d0689e6ea88ec286168580d', 'detail_info': {'tag': '医疗;其他', 'type': 'hospital', 'detail_url': 'http://api.map.baidu.com/place/detail?uid=9d0689e6ea88ec286168580d&output=html&source=placeapi_v2', 'image_num': '12', 'children': [], 'lat': 32.030237285241796, 'lng': 118.73947035235454}}"
"{'name': '牙仙子口腔', 'location': {'lat': 32.03137161799385, 'lng': 118.73007173027632}, 'address': '江苏省南京市建邺区集庆门大街222-3号', 'province': '江苏省', 'city': '南京市', 'area': '建邺区', 'street_id': '8cf938dfa3ca08dce4e965be', 'telephone': '(025)86700566', 'detail': 1, 'uid': '8cf938dfa3ca08dce4e965be', 'detail_info': {'tag': '医疗;诊所', 'navi_location': {'lng': 118.74198450357, 'lat': 32.03489180433}, 'type': 'hospital', 'detail_url': 'http://api.map.baidu.com/place/detail?uid=8cf938dfa3ca08dce4e965be&output=html&source=placeapi_v2', 'overall_rating': '0.0', 'image_num': '2', 'comment_num': '1', 'children': [], 'lat': 32.03137161799385, 'lng': 118.73007173027632}}"
"{'name': '建邺晓海诊所', 'location': {'lat': 32.021490247996404, 'lng': 118.74770032540769}, 'address': '南苑思园9幢101室', 'province': '江苏省', 'city': '南京市', 'area': '建邺区', 'street_id': '4eb3b533fc7fd075420245af', 'detail': 1, 'uid': '4eb3b533fc7fd075420245af', 'detail_info': {'tag': '医疗;诊所', 'type': 'hospital', 'detail_url': 'http://api.map.baidu.com/place/detail?uid=4eb3b533fc7fd075420245af&output=html&source=placeapi_v2', 'overall_rating': '4.5', 'image_num': '9', 'comment_num': '3', 'children': [], 'lat': 32.021490247996404, 'lng': 118.74770032540769}}"
"{'name': '癸源堂中医馆', 'location': {'lat': 32.0313130579722, 'lng': 118.73074757189741}, 'address': '集庆门大街216号-9号', 'province': '江苏省', 'city': '南京市', 'area': '建邺区', 'street_id': 'f57d6044ac05231ff8f0cb47', 'telephone': '(025)83359976', 'detail': 1, 'uid': 'f57d6044ac05231ff8f0cb47', 'detail_info': {'tag': '医疗;诊所', 'navi_location': {'lng': 118.74251142712, 'lat': 32.034805173962}, 'type': 'hospital', 'detail_url': 'http://api.map.baidu.com/place/detail?uid=f57d6044ac05231ff8f0cb47&output=html&source=placeapi_v2', 'overall_rating': '5.0', 'image_num': '7', 'comment_num': '11', 'children': [], 'lat': 32.0313130579722, 'lng': 118.73074757189741}}"
"{'name': '集庆堂中医诊所', 'location': {'lat': 32.03162472029698, 'lng': 118.74536168196148}, 'address': '南京市建邺区玉塘村10栋31号102室', 'province': '江苏省', 'city': '南京市', 'area': '建邺区', 'street_id': 'c0f7b94e528e660a1e5800dd', 'telephone': '(025)86613557', 'detail': 1, 'uid': 'c0f7b94e528e660a1e5800dd', 'detail_info': {'tag': '医疗;诊所', 'type': 'hospital', 'detail_url': 'http://api.map.baidu.com/place/detail?uid=c0f7b94e528e660a1e5800dd&output=html&source=placeapi_v2', 'overall_rating': '0.0', 'image_num': '4', 'comment_num': '1', 'children': [], 'lat': 32.03162472029698, 'lng': 118.74536168196148}}"
"{'name': '南京建邺广灵斋中医诊所', 'location': {'lat': 32.026168017326235, 'lng': 118.73185629007911}, 'address': '南京市建邺区江东中路与积贤街交叉路口往西南约100米(积善新寓东区)', 'province': '江苏省', 'city': '南京市', 'area': '建邺区', 'detail': 1, 'uid': '06095b7d54eff653ab059ddf', 'detail_info': {'tag': '医疗;诊所', 'type': 'hospital', 'detail_url': 'http://api.map.baidu.com/place/detail?uid=06095b7d54eff653ab059ddf&output=html&source=placeapi_v2', 'image_num': '1', 'children': [], 'lat': 32.026168017326235, 'lng': 118.73185629007911}}"
"{'name': '泰乐城健康管理中心', 'location': {'lat': 32.03100293273124, 'lng': 118.7388901455611}, 'address': '莫愁湖街道集庆门大街188号', 'province': '江苏省', 'city': '南京市', 'area': '建邺区', 'street_id': 'cd201cffa5f1bc3e0e3dda7b', 'telephone': '(025)85433332', 'detail': 1, 'uid': 'cd201cffa5f1bc3e0e3dda7b', 'detail_info': {'tag': '医疗;诊所', 'navi_location': {'lng': 118.75066826538, 'lat': 32.034514034521}, 'type': 'hospital', 'detail_url': 'http://api.map.baidu.com/place/detail?uid=cd201cffa5f1bc3e0e3dda7b&output=html&source=placeapi_v2', 'image_num': '14', 'children': [], 'lat': 32.03100293273124, 'lng': 118.7388901455611}}"
"{'name': '京城御医', 'location': {'lat': 32.0313038490511, 'lng': 118.73133963012347}, 'address': '江苏省南京市建邺区集庆门大街216-5附近', 'province': '江苏省', 'city': '南京市', 'area': '建邺区', 'detail': 1, 'uid': '1a383d7ff9afcbc7c27da23f', 'detail_info': {'tag': '医疗;其他', 'type': 'hospital', 'detail_url': 'http://api.map.baidu.com/place/detail?uid=1a383d7ff9afcbc7c27da23f&output=html&source=placeapi_v2', 'image_num': '3', 'children': [], 'lat': 32.0313038490511, 'lng': 118.73133963012347}}"
"{'name': '先声再康药店(积贤街药店)', 'location': {'lat': 32.02738243012716, 'lng': 118.73335863248448}, 'address': '南京市建邺区积贤街与江东中路交叉路口往东约50米(积善新寓东区)', 'province': '江苏省', 'city': '南京市', 'area': '建邺区', 'street_id': 'e117657a2eaccb347bf7964e', 'telephone': '(025)57027742', 'detail': 1, 'uid': 'e117657a2eaccb347bf7964e', 'detail_info': {'tag': '医疗;药店', 'type': 'hospital', 'detail_url': 'http://api.map.baidu.com/place/detail?uid=e117657a2eaccb347bf7964e&output=html&source=placeapi_v2', 'image_num': '6', 'children': [], 'lat': 32.02738243012716, 'lng': 118.73335863248448}}"
"{'name': '石城品阁宠物医院', 'location': {'lat': 32.029190430652854, 'lng': 118.74291029331445}, 'address': '集庆门大街151号', 'province': '江苏省', 'city': '南京市', 'area': '建邺区', 'telephone': '(025)86302118', 'detail': 1, 'uid': '850766a9ee0639d44c3a5943', 'detail_info': {'tag': '生活服务;宠物服务', 'type': 'life', 'detail_url': 'http://api.map.baidu.com/place/detail?uid=850766a9ee0639d44c3a5943&output=html&source=placeapi_v2', 'overall_rating': '0.0', 'image_num': '1', 'comment_num': '0', 'children': [], 'lat': 32.029190430652854, 'lng': 118.74291029331445}}"
"{'name': '益丰大药房(南京应天大街店)', 'location': {'lat': 32.02330573887331, 'lng': 118.73837691298367}, 'address': '江苏省南京市建邺区应天大街866号欧尚(应天店)1层', 'province': '江苏省', 'city': '南京市', 'area': '建邺区', 'street_id': 'f349efe2745f64ef7adbd2cf', 'telephone': '(025)85617706', 'detail': 1, 'uid': 'f349efe2745f64ef7adbd2cf', 'detail_info': {'tag': '医疗;药店', 'type': 'hospital', 'detail_url': 'http://api.map.baidu.com/place/detail?uid=f349efe2745f64ef7adbd2cf&output=html&source=placeapi_v2', 'price': '0.0', 'image_num': '1', 'children': [], 'lat': 32.02330573887331, 'lng': 118.73837691298367}}"
"{'name': '益丰大药房(庐山路店)', 'location': {'lat': 32.02058234347629, 'lng': 118.73866368326094}, 'address': '江苏省南京市建邺区应天大街855号', 'province': '江苏省', 'city': '南京市', 'area': '建邺区', 'street_id': 'fa5bcb9cd22354bae5e965a4', 'telephone': '(025)86223937', 'detail': 1, 'uid': 'fa5bcb9cd22354bae5e965a4', 'detail_info': {'tag': '医疗;药店', 'navi_location': {'lng': 118.75074305595, 'lat': 32.024163928793}, 'type': 'hospital', 'detail_url': 'http://api.map.baidu.com/place/detail?uid=fa5bcb9cd22354bae5e965a4&output=html&source=placeapi_v2', 'price': '0.0', 'image_num': '12', 'children': [], 'lat': 32.02058234347629, 'lng': 118.73866368326094}}"
"{'name': '南京世科医疗器械有限公司', 'location': {'lat': 32.0261037480831, 'lng': 118.7368193409738}, 'address': '所街169号云锦路所街交界处新悦天地4楼', 'province': '江苏省', 'city': '南京市', 'area': '建邺区', 'detail': 1, 'uid': '3de97b203b202d1703ff2d21', 'detail_info': {'tag': '医疗;医疗器械', 'type': 'hospital', 'detail_url': 'http://api.map.baidu.com/place/detail?uid=3de97b203b202d1703ff2d21&output=html&source=placeapi_v2', 'children': [], 'lat': 32.0261037480831, 'lng': 118.7368193409738}}"
"{'name': '南京市第一医院(河西院区)-东北1门', 'location': {'lat': 32.02433690003992, 'lng': 118.72926416127065}, 'address': '江苏省南京市建邺区应天大街与睦和路交汇处西行40米路南', 'province': '江苏省', 'city': '南京市', 'area': '建邺区', 'street_id': '413ee2b78a72e818eb56faa4', 'detail': 1, 'uid': '413ee2b78a72e818eb56faa4', 'detail_info': {'tag': '出入口;门', 'type': 'life', 'detail_url': 'http://api.map.baidu.com/place/detail?uid=413ee2b78a72e818eb56faa4&output=html&source=placeapi_v2', 'image_num': '1', 'children': [], 'lat': 32.02433690003992, 'lng': 118.72926416127065}}"
"{'name': '南京清澍医疗用品有限公司', 'location': {'lat': 32.028703747115436, 'lng': 118.73377218248453}, 'address': '江东中路128号万和源居4幢1单元1803室', 'province': '江苏省', 'city': '南京市', 'area': '建邺区', 'street_id': 'b1af46570ddf29a9c91b953f', 'detail': 1, 'uid': 'b1af46570ddf29a9c91b953f', 'detail_info': {'tag': '公司企业;公司', 'type': 'enterprise', 'detail_url': 'http://api.map.baidu.com/place/detail?uid=b1af46570ddf29a9c91b953f&output=html&source=placeapi_v2', 'children': [], 'lat': 32.028703747115436, 'lng': 118.73377218248453}}"
"{'name': '好药师大药房(湖西店)', 'location': {'lat': 32.026606699146356, 'lng': 118.74273910244582}, 'address': '湖西街50号', 'province': '江苏省', 'city': '南京市', 'area': '建邺区', 'street_id': '11219e8ae0ab98160c0e6b8f', 'detail': 1, 'uid': '11219e8ae0ab98160c0e6b8f', 'detail_info': {'tag': '医疗;药店', 'type': 'hospital', 'detail_url': 'http://api.map.baidu.com/place/detail?uid=11219e8ae0ab98160c0e6b8f&output=html&source=placeapi_v2', 'overall_rating': '0.0', 'image_num': '12', 'children': [], 'lat': 32.026606699146356, 'lng': 118.74273910244582}}"
"{'name': '益丰大药房(莺歌苑店)', 'location': {'lat': 32.030643198642856, 'lng': 118.73667249009684}, 'address': '南京市建邺区集庆门大街与云锦路交叉路口往西北约50米(莺歌苑小区)', 'province': '江苏省', 'city': '南京市', 'area': '建邺区', 'street_id': 'b884b45598f8e4e321f017bd', 'telephone': '(025)83317827', 'detail': 1, 'uid': 'b884b45598f8e4e321f017bd', 'detail_info': {'tag': '医疗;药店', 'type': 'hospital', 'detail_url': 'http://api.map.baidu.com/place/detail?uid=b884b45598f8e4e321f017bd&output=html&source=placeapi_v2', 'price': '0.0', 'overall_rating': '0.0', 'image_num': '13', 'comment_num': '2', 'children': [], 'lat': 32.030643198642856, 'lng': 118.73667249009684}}"
"{'name': '葆宁堂大药房', 'location': {'lat': 32.03182102376094, 'lng': 118.7329141280767}, 'address': '江东中路106-9', 'province': '江苏省', 'city': '南京市', 'area': '建邺区', 'street_id': '40a7295f04a38eac601c6714', 'telephone': '13337824877', 'detail': 1, 'uid': '40a7295f04a38eac601c6714', 'detail_info': {'tag': '医疗;药店', 'navi_location': {'lng': 118.74565950285, 'lat': 32.03544199036}, 'type': 'hospital', 'detail_url': 'http://api.map.baidu.com/place/detail?uid=40a7295f04a38eac601c6714&output=html&source=placeapi_v2', 'overall_rating': '1.2', 'image_num': '13', 'comment_num': '5', 'children': [], 'lat': 32.03182102376094, 'lng': 118.7329141280767}}"
"{'name': '唐瑞健康管理中心(康泰街)', 'location': {'lat': 32.02475027745927, 'lng': 118.74692383317834}, 'address': '江苏省南京市建邺区南苑街道康泰街安泰村21栋', 'province': '江苏省', 'city': '南京市', 'area': '建邺区', 'street_id': '9d659c079b8027e66b49f385', 'detail': 1, 'uid': '9d659c079b8027e66b49f385', 'detail_info': {'tag': '医疗;体检机构', 'type': 'hospital', 'detail_url': 'http://api.map.baidu.com/place/detail?uid=9d659c079b8027e66b49f385&output=html&source=placeapi_v2', 'image_num': '9', 'children': [], 'lat': 32.02475027745927, 'lng': 118.74692383317834}}"
"{'name': '速通充电站(南京市第一医院河西院区南门进右拐直走到头)', 'location': {'lat': 32.02861920695126, 'lng': 118.7354623789161}, 'address': '江苏省南京市建邺区应天大街919号(南京市第一医院河西院区6号楼停车场)', 'province': '江苏省', 'city': '南京市', 'area': '建邺区', 'detail': 1, 'uid': '0cd17c29946e7b97220220ef', 'detail_info': {'tag': '交通设施;充电站', 'type': 'life', 'detail_url': 'http://api.map.baidu.com/place/detail?uid=0cd17c29946e7b97220220ef&output=html&source=placeapi_v2', 'image_num': '1', 'children': [], 'lat': 32.02861920695126, 'lng': 118.7354623789161}}"
"{'name': '南京人民药店', 'location': {'lat': 32.03128230758843, 'lng': 118.73114894498705}, 'address': '江苏省南京市建邺区集庆门大街216-4', 'province': '江苏省', 'city': '南京市', 'area': '建邺区', 'telephone': '(025)57051615', 'detail': 1, 'uid': '38f6bb1269ad51c93686f40e', 'detail_info': {'tag': '医疗;药店', 'type': 'hospital', 'detail_url': 'http://api.map.baidu.com/place/detail?uid=38f6bb1269ad51c93686f40e&output=html&source=placeapi_v2', 'overall_rating': '0.0', 'image_num': '7', 'comment_num': '1', 'children': [], 'lat': 32.03128230758843, 'lng': 118.73114894498705}}"
"{'name': '南京达迪嘉医疗器械有限公司', 'location': {'lat': 32.02005618135237, 'lng': 118.74220532382219}, 'address': '江苏省南京市建邺区应天大街837号8楼', 'province': '江苏省', 'city': '南京市', 'area': '建邺区', 'telephone': '13390778068', 'detail': 1, 'uid': '767d6a5d26592164d4851f49', 'detail_info': {'tag': '医疗;医疗器械', 'type': 'hospital', 'detail_url': 'http://api.map.baidu.com/place/detail?uid=767d6a5d26592164d4851f49&output=html&source=placeapi_v2', 'image_num': '1', 'children': [], 'lat': 32.02005618135237, 'lng': 118.74220532382219}}"
"{'name': '奇冠药店(应天大街店)', 'location': {'lat': 32.02186889386908, 'lng': 118.73856090887409}, 'address': '南苑街道应天大街859号', 'province': '江苏省', 'city': '南京市', 'area': '建邺区', 'street_id': '9f537bac19fa9df89f09f7b9', 'telephone': '(025)58837341', 'detail': 1, 'uid': '9f537bac19fa9df89f09f7b9', 'detail_info': {'tag': '医疗;药店', 'type': 'hospital', 'detail_url': 'http://api.map.baidu.com/place/detail?uid=9f537bac19fa9df89f09f7b9&output=html&source=placeapi_v2', 'overall_rating': '0.0', 'image_num': '18', 'comment_num': '2', 'children': [], 'lat': 32.02186889386908, 'lng': 118.73856090887409}}"
"{'name': '星益城', 'location': {'lat': 32.03068415754891, 'lng': 118.74748069541778}, 'address': '茶亭东街79号', 'province': '江苏省', 'city': '南京市', 'area': '建邺区', 'street_id': 'fa9309de9f16bece0a5cb359', 'detail': 1, 'uid': 'fa9309de9f16bece0a5cb359', 'detail_info': {'tag': '房地产;住宅区', 'type': 'house', 'detail_url': 'http://api.map.baidu.com/place/detail?uid=fa9309de9f16bece0a5cb359&output=html&source=placeapi_v2', 'children': [], 'lat': 32.03068415754891, 'lng': 118.74748069541778}}"
"{'name': '南京传统中医门诊部', 'location': {'lat': 32.04332257313482, 'lng': 118.73715929255805}, 'address': '江苏省南京市鼓楼区凤凰西街208号', 'province': '江苏省', 'city': '南京市', 'area': '鼓楼区', 'street_id': '5c56edd6cfa2e15aa1d2305d', 'telephone': '(025)66039012', 'detail': 1, 'uid': '5c56edd6cfa2e15aa1d2305d', 'detail_info': {'tag': '医疗;诊所', 'navi_location': {'lng': 118.74914331128, 'lat': 32.046804954816}, 'type': 'hospital', 'detail_url': 'http://api.map.baidu.com/place/detail?uid=5c56edd6cfa2e15aa1d2305d&output=html&source=placeapi_v2', 'overall_rating': '4.7', 'image_num': '6', 'comment_num': '8', 'children': [], 'lat': 32.04332257313482, 'lng': 118.73715929255805}}"
"{'name': '固生堂(南京宁西门诊部)', 'location': {'lat': 32.03620252529866, 'lng': 118.7401792119576}, 'address': '江苏省南京市建邺区水西门大街273号', 'province': '江苏省', 'city': '南京市', 'area': '建邺区', 'street_id': '49a02a7a29cd23592a201a9b', 'telephone': '(025)86664120', 'detail': 1, 'uid': '49a02a7a29cd23592a201a9b', 'detail_info': {'tag': '医疗;其他', 'navi_location': {'lng': 118.75191489369, 'lat': 32.039940119406}, 'type': 'hospital', 'detail_url': 'http://api.map.baidu.com/place/detail?uid=49a02a7a29cd23592a201a9b&output=html&source=placeapi_v2', 'overall_rating': '4.4', 'image_num': '3', 'comment_num': '8', 'children': [], 'lat': 32.03620252529866, 'lng': 118.7401792119576}}"
"{'name': '建邺区滨湖社区卫生服务中心(凤栖路)', 'location': {'lat': 32.0322598728154, 'lng': 118.73934533834525}, 'address': '江苏省南京市建邺区凤栖路131号', 'province': '江苏省', 'city': '南京市', 'area': '建邺区', 'street_id': 'f1f5cac51d4c3e8137b06cbd', 'telephone': '(025)87770576,(025)87770581', 'detail': 1, 'uid': 'f1f5cac51d4c3e8137b06cbd', 'detail_info': {'tag': '医疗;诊所', 'navi_location': {'lng': 118.75131983636, 'lat': 32.035847435588}, 'type': 'hospital', 'detail_url': 'http://api.map.baidu.com/place/detail?uid=f1f5cac51d4c3e8137b06cbd&output=html&source=placeapi_v2', 'overall_rating': '0.0', 'image_num': '27', 'comment_num': '4', 'children': [], 'lat': 32.0322598728154, 'lng': 118.73934533834525}}"
"{'name': '环球医生康瑞家建邺门诊部', 'location': {'lat': 32.03621843230957, 'lng': 118.7398197960716}, 'address': '江苏省南京市建邺区水西门大街283号', 'province': '江苏省', 'city': '南京市', 'area': '建邺区', 'street_id': 'd57eeb42ae041f76e60738fc', 'telephone': '(025)86518600', 'detail': 1, 'uid': 'd57eeb42ae041f76e60738fc', 'detail_info': {'tag': '医疗;其他', 'navi_location': {'lng': 118.75145941058, 'lat': 32.039894539843}, 'type': 'hospital', 'detail_url': 'http://api.map.baidu.com/place/detail?uid=d57eeb42ae041f76e60738fc&output=html&source=placeapi_v2', 'overall_rating': '5.0', 'image_num': '4', 'comment_num': '1', 'children': [], 'lat': 32.03621843230957, 'lng': 118.7398197960716}}"
"{'name': '君和堂中医馆', 'location': {'lat': 32.03582971435706, 'lng': 118.7363903394575}, 'address': '江苏省南京市建邺区水西门大街343号', 'province': '江苏省', 'city': '南京市', 'area': '建邺区', 'street_id': 'f7fd477113068d47b5147f0e', 'telephone': '(025)86524200', 'detail': 1, 'uid': 'f7fd477113068d47b5147f0e', 'detail_info': {'tag': '医疗;诊所', 'navi_location': {'lng': 118.75066269444, 'lat': 32.039379183558}, 'type': 'hospital', 'detail_url': 'http://api.map.baidu.com/place/detail?uid=f7fd477113068d47b5147f0e&output=html&source=placeapi_v2', 'overall_rating': '1.0', 'image_num': '11', 'comment_num': '4', 'children': [], 'lat': 32.03582971435706, 'lng': 118.7363903394575}}"
"{'name': '瑞鹏宠物医院(启明分院)', 'location': {'lat': 32.040324000000254, 'lng': 118.73309007063446}, 'address': '江苏省南京市建邺区江东中路24号', 'province': '江苏省', 'city': '南京市', 'area': '建邺区', 'street_id': '5abfb09ea1aae3e603ec0155', 'telephone': '(025)84862322', 'detail': 1, 'uid': '5abfb09ea1aae3e603ec0155', 'detail_info': {'tag': '生活服务;宠物服务', 'navi_location': {'lng': 118.74500793941, 'lat': 32.043818533336}, 'type': 'life', 'detail_url': 'http://api.map.baidu.com/place/detail?uid=5abfb09ea1aae3e603ec0155&output=html&source=placeapi_v2', 'overall_rating': '4.3', 'image_num': '9', 'comment_num': '18', 'children': [], 'lat': 32.040324000000254, 'lng': 118.73309007063446}}"
"{'name': '南京汉中门大街门诊部', 'location': {'lat': 32.04110140312577, 'lng': 118.7381881755678}, 'address': '南京市建邺区汉中门大街195号', 'province': '江苏省', 'city': '南京市', 'area': '建邺区', 'street_id': 'eef2d528c4cbfda73ae4a6b2', 'telephone': '(025)86565181', 'detail': 1, 'uid': 'eef2d528c4cbfda73ae4a6b2', 'detail_info': {'tag': '医疗;其他', 'navi_location': {'lng': 118.75002977622, 'lat': 32.044868324835}, 'type': 'hospital', 'detail_url': 'http://api.map.baidu.com/place/detail?uid=eef2d528c4cbfda73ae4a6b2&output=html&source=placeapi_v2', 'overall_rating': '4.3', 'image_num': '4', 'comment_num': '3', 'children': [], 'lat': 32.04110140312577, 'lng': 118.7381881755678}}"
"{'name': '南京歌美晞医疗美容有限公司', 'location': {'lat': 32.03276626982252, 'lng': 118.72998455296667}, 'address': '集庆门大街220-55号', 'province': '江苏省', 'city': '南京市', 'area': '建邺区', 'telephone': '(025)85408885', 'detail': 1, 'uid': 'c9892e933dcb8f2c1329358d', 'detail_info': {'tag': '医疗;其他', 'type': 'hospital', 'detail_url': 'http://api.map.baidu.com/place/detail?uid=c9892e933dcb8f2c1329358d&output=html&source=placeapi_v2', 'image_num': '1', 'children': [], 'lat': 32.03276626982252, 'lng': 118.72998455296667}}"
"{'name': '三叶儿童', 'location': {'lat': 32.04216871354418, 'lng': 118.73291820572759}, 'address': '江苏省南京市鼓楼区江东北路91号南京金陵口腔医院2楼', 'province': '江苏省', 'city': '南京市', 'area': '鼓楼区', 'street_id': '6cd636558a3b2d94d3ff23af', 'telephone': '(025)66107332,(025)66107777', 'detail': 1, 'uid': '6cd636558a3b2d94d3ff23af', 'detail_info': {'tag': '医疗;诊所', 'navi_location': {'lng': 118.74492549652, 'lat': 32.045393095858}, 'type': 'hospital', 'detail_url': 'http://api.map.baidu.com/place/detail?uid=6cd636558a3b2d94d3ff23af&output=html&source=placeapi_v2', 'image_num': '1', 'children': [], 'lat': 32.04216871354418, 'lng': 118.73291820572759}}"
"{'name': '伊美辰医疗整形', 'location': {'lat': 32.033267696594535, 'lng': 118.73211764005084}, 'address': '江苏省南京市建邺区福园街129号1308室', 'province': '江苏省', 'city': '南京市', 'area': '建邺区', 'detail': 1, 'uid': '980c5300e694f7f3b54f547a', 'detail_info': {'tag': '医疗;其他', 'type': 'hospital', 'detail_url': 'http://api.map.baidu.com/place/detail?uid=980c5300e694f7f3b54f547a&output=html&source=placeapi_v2', 'overall_rating': '0.0', 'image_num': '2', 'comment_num': '1', 'children': [], 'lat': 32.033267696594535, 'lng': 118.73211764005084}}"
"{'name': '江苏省口腔医院第一门诊部', 'location': {'lat': 32.043412014777765, 'lng': 118.74548155239388}, 'address': '南京市鼓楼区凤凰西街142号', 'province': '江苏省', 'city': '南京市', 'area': '鼓楼区', 'street_id': 'bcaebff8753d4e54c8e33ca0', 'telephone': '(025)86864040', 'detail': 1, 'uid': 'bcaebff8753d4e54c8e33ca0', 'detail_info': {'tag': '医疗;诊所', 'navi_location': {'lng': 118.75733644951, 'lat': 32.046853080979}, 'type': 'hospital', 'detail_url': 'http://api.map.baidu.com/place/detail?uid=bcaebff8753d4e54c8e33ca0&output=html&source=placeapi_v2', 'overall_rating': '4.3', 'image_num': '9', 'comment_num': '10', 'children': [], 'lat': 32.043412014777765, 'lng': 118.74548155239388}}"
"{'name': '杏仁门诊', 'location': {'lat': 32.040465303400985, 'lng': 118.74165264012834}, 'address': '南京市建邺区汉中门大街151号西城广场4113、4229、4230', 'province': '江苏省', 'city': '南京市', 'area': '建邺区', 'street_id': '7668027b096fe75cb45f1e9c', 'telephone': '(025)83176595', 'detail': 1, 'uid': '7668027b096fe75cb45f1e9c', 'detail_info': {'tag': '医疗;其他', 'navi_location': {'lng': 118.75268185983, 'lat': 32.044268370301}, 'type': 'hospital', 'detail_url': 'http://api.map.baidu.com/place/detail?uid=7668027b096fe75cb45f1e9c&output=html&source=placeapi_v2', 'image_num': '1', 'children': [], 'lat': 32.040465303400985, 'lng': 118.74165264012834}}"
"{'name': '月牙儿口腔医学中心', 'location': {'lat': 32.04027727233909, 'lng': 118.74194833057572}, 'address': '南京市汉中门大街151号西城广场4101室', 'province': '江苏省', 'city': '南京市', 'area': '建邺区', 'telephone': '(025)86757520', 'detail': 1, 'uid': '6c293c61e233749b49fd3f82', 'detail_info': {'tag': '医疗;诊所', 'type': 'hospital', 'detail_url': 'http://api.map.baidu.com/place/detail?uid=6c293c61e233749b49fd3f82&output=html&source=placeapi_v2', 'image_num': '1', 'children': [], 'lat': 32.04027727233909, 'lng': 118.74194833057572}}"
"{'name': '益民中医', 'location': {'lat': 32.04334522542463, 'lng': 118.73728430253612}, 'address': '江苏省南京市鼓楼区凤凰西街江东北路凤凰花园城南门', 'province': '江苏省', 'city': '南京市', 'area': '鼓楼区', 'street_id': 'a1d3c3c86692f225bbbd63e4', 'detail': 1, 'uid': 'a1d3c3c86692f225bbbd63e4', 'detail_info': {'tag': '医疗;诊所', 'navi_location': {'lng': 118.74907365667, 'lat': 32.046776791808}, 'type': 'hospital', 'detail_url': 'http://api.map.baidu.com/place/detail?uid=a1d3c3c86692f225bbbd63e4&output=html&source=placeapi_v2', 'image_num': '1', 'children': [], 'lat': 32.04334522542463, 'lng': 118.73728430253612}}"
"{'name': '宁康诊所', 'location': {'lat': 32.034270094384325, 'lng': 118.74281829322979}, 'address': '南京市建邺区茶南大街与露园西街交叉路口北侧(明清园西南侧)', 'province': '江苏省', 'city': '南京市', 'area': '建邺区', 'street_id': '620eb8bc5f2bbbf51b11d58d', 'detail': 1, 'uid': '620eb8bc5f2bbbf51b11d58d', 'detail_info': {'tag': '医疗;诊所', 'navi_location': {'lng': 118.75446339451, 'lat': 32.037911632325}, 'type': 'hospital', 'detail_url': 'http://api.map.baidu.com/place/detail?uid=620eb8bc5f2bbbf51b11d58d&output=html&source=placeapi_v2', 'overall_rating': '0.0', 'image_num': '14', 'comment_num': '2', 'children': [], 'lat': 32.034270094384325, 'lng': 118.74281829322979}}"
"{'name': '南京万宁门诊部', 'location': {'lat': 32.04298521936356, 'lng': 118.74164484792823}, 'address': '南京市鼓楼区凤凰西街182-7号', 'province': '江苏省', 'city': '南京市', 'area': '鼓楼区', 'street_id': '7503683519e1b9b65f0d02b1', 'telephone': '4008008120', 'detail': 1, 'uid': '7503683519e1b9b65f0d02b1', 'detail_info': {'tag': '医疗;其他', 'navi_location': {'lng': 118.75350173404, 'lat': 32.046495074006}, 'type': 'hospital', 'detail_url': 'http://api.map.baidu.com/place/detail?uid=7503683519e1b9b65f0d02b1&output=html&source=placeapi_v2', 'overall_rating': '0.0', 'image_num': '9', 'comment_num': '1', 'children': [], 'lat': 32.04298521936356, 'lng': 118.74164484792823}}"
"{'name': '善承汇医疗', 'location': {'lat': 32.03988627578718, 'lng': 118.74195076362763}, 'address': '江苏省南京市建邺区汉中门大街151号', 'province': '江苏省', 'city': '南京市', 'area': '建邺区', 'detail': 1, 'uid': 'f76de8f1215f1d5872455b47', 'detail_info': {'tag': '医疗;其他', 'type': 'hospital', 'detail_url': 'http://api.map.baidu.com/place/detail?uid=f76de8f1215f1d5872455b47&output=html&source=placeapi_v2', 'overall_rating': '0.0', 'image_num': '1', 'comment_num': '1', 'children': [], 'lat': 32.03988627578718, 'lng': 118.74195076362763}}"
"{'name': '南京德摩可口腔门诊部', 'location': {'lat': 32.04298017422591, 'lng': 118.74194133824349}, 'address': '江苏省南京市鼓楼区凤凰西街182号-4', 'province': '江苏省', 'city': '南京市', 'area': '鼓楼区', 'street_id': '28961be1e1f1660e16a19062', 'telephone': '(025)87793330,(025)57477773', 'detail': 1, 'uid': '28961be1e1f1660e16a19062', 'detail_info': {'tag': '医疗;其他', 'type': 'hospital', 'detail_url': 'http://api.map.baidu.com/place/detail?uid=28961be1e1f1660e16a19062&output=html&source=placeapi_v2', 'overall_rating': '5.0', 'image_num': '8', 'comment_num': '1', 'children': [], 'lat': 32.04298017422591, 'lng': 118.74194133824349}}"
"{'name': '献血点(建邺万达)', 'location': {'lat': 32.034517490293844, 'lng': 118.72979915737814}, 'address': '南京市建邺区江东中路万达广场C门', 'province': '江苏省', 'city': '南京市', 'area': '建邺区', 'detail': 1, 'uid': '624493bb738e59c8afee7aaf', 'detail_info': {'tag': '医疗;其他', 'type': 'hospital', 'detail_url': 'http://api.map.baidu.com/place/detail?uid=624493bb738e59c8afee7aaf&output=html&source=placeapi_v2', 'image_num': '1', 'children': [], 'lat': 32.034517490293844, 'lng': 118.72979915737814}}"
"{'name': '思美尔口腔诊所', 'location': {'lat': 32.03331012890814, 'lng': 118.7290499412151}, 'address': '江苏省南京市建邺区燕山路79-1号', 'province': '江苏省', 'city': '南京市', 'area': '建邺区', 'detail': 1, 'uid': '778b2ba793df83566e20b981', 'detail_info': {'tag': '医疗;诊所', 'type': 'hospital', 'detail_url': 'http://api.map.baidu.com/place/detail?uid=778b2ba793df83566e20b981&output=html&source=placeapi_v2', 'overall_rating': '0.0', 'image_num': '5', 'comment_num': '1', 'children': [], 'lat': 32.03331012890814, 'lng': 118.7290499412151}}"
"{'name': '南京福安园诊所', 'location': {'lat': 32.04330330027534, 'lng': 118.73790259153917}, 'address': '凤凰街道凤凰西街200号', 'province': '江苏省', 'city': '南京市', 'area': '鼓楼区', 'street_id': '3f9337d61b12e3aaf62310a4', 'telephone': '(025)86603092', 'detail': 1, 'uid': '3f9337d61b12e3aaf62310a4', 'detail_info': {'tag': '医疗;诊所', 'type': 'hospital', 'detail_url': 'http://api.map.baidu.com/place/detail?uid=3f9337d61b12e3aaf62310a4&output=html&source=placeapi_v2', 'overall_rating': '0.0', 'image_num': '8', 'children': [], 'lat': 32.04330330027534, 'lng': 118.73790259153917}}"
"{'name': '牙一生口腔', 'location': {'lat': 32.036261243025464, 'lng': 118.74023020984308}, 'address': '江苏省南京市建邺区水西门大街271号', 'province': '江苏省', 'city': '南京市', 'area': '建邺区', 'telephone': '(025)58801555', 'detail': 1, 'uid': '5defa27dbe151e87591093a0', 'detail_info': {'tag': '医疗;诊所', 'type': 'hospital', 'detail_url': 'http://api.map.baidu.com/place/detail?uid=5defa27dbe151e87591093a0&output=html&source=placeapi_v2', 'overall_rating': '0.0', 'image_num': '4', 'comment_num': '2', 'children': [], 'lat': 32.036261243025464, 'lng': 118.74023020984308}}"
"{'name': '南京建邺安康诊所', 'location': {'lat': 32.04012615910943, 'lng': 118.73657372141122}, 'address': '江苏省南京市建邺区江汊路芙蓉里8号', 'province': '江苏省', 'city': '南京市', 'area': '建邺区', 'street_id': 'a81dd03796ba1fe687420e60', 'telephone': '(025)86508377', 'detail': 1, 'uid': 'a81dd03796ba1fe687420e60', 'detail_info': {'tag': '医疗;诊所', 'navi_location': {'lng': 118.74837780317, 'lat': 32.043770835588}, 'type': 'hospital', 'detail_url': 'http://api.map.baidu.com/place/detail?uid=a81dd03796ba1fe687420e60&output=html&source=placeapi_v2', 'image_num': '8', 'children': [], 'lat': 32.04012615910943, 'lng': 118.73657372141122}}"
"{'name': '南京建邺茶南口腔诊所', 'location': {'lat': 32.033299313912174, 'lng': 118.74292146788487}, 'address': '江苏省南京市建邺区茶南大街71号', 'province': '江苏省', 'city': '南京市', 'area': '建邺区', 'street_id': '4edf9fbf19c03894cd06a4b2', 'telephone': '(025)86326132', 'detail': 1, 'uid': '4edf9fbf19c03894cd06a4b2', 'detail_info': {'tag': '医疗;诊所', 'type': 'hospital', 'detail_url': 'http://api.map.baidu.com/place/detail?uid=4edf9fbf19c03894cd06a4b2&output=html&source=placeapi_v2', 'overall_rating': '0.0', 'image_num': '17', 'comment_num': '1', 'children': [], 'lat': 32.033299313912174, 'lng': 118.74292146788487}}"
"{'name': '宠安心宠物诊所', 'location': {'lat': 32.032822184307854, 'lng': 118.73805585816503}, 'address': '建邺区云锦路86-3号(近集庆门大街)', 'province': '江苏省', 'city': '南京市', 'area': '建邺区', 'street_id': 'b221f2aa4ed9e1c5b726555d', 'telephone': '(025)85655253', 'detail': 1, 'uid': 'b221f2aa4ed9e1c5b726555d', 'detail_info': {'tag': '生活服务;宠物服务', 'navi_location': {'lng': 118.75009744738, 'lat': 32.036360358302}, 'type': 'life', 'detail_url': 'http://api.map.baidu.com/place/detail?uid=b221f2aa4ed9e1c5b726555d&output=html&source=placeapi_v2', 'price': '1075', 'overall_rating': '3.7', 'image_num': '21', 'comment_num': '15', 'children': [], 'lat': 32.032822184307854, 'lng': 118.73805585816503}}"
"{'name': '南京金陵口腔医院', 'location': {'lat': 32.042051544045954, 'lng': 118.73278647427223}, 'address': '南京市鼓楼区江东北路91号', 'province': '江苏省', 'city': '南京市', 'area': '鼓楼区', 'street_id': '6c4886bfcf4f1bceb6f42f0d', 'telephone': '(025)66107777', 'detail': 1, 'uid': '6c4886bfcf4f1bceb6f42f0d', 'detail_info': {'tag': '医疗;专科医院', 'navi_location': {'lng': 118.74502965145, 'lat': 32.045501961192}, 'type': 'hospital', 'detail_url': 'http://api.map.baidu.com/place/detail?uid=6c4886bfcf4f1bceb6f42f0d&output=html&source=placeapi_v2', 'price': '124.0', 'overall_rating': '5.0', 'image_num': '41', 'comment_num': '3', 'children': [], 'lat': 32.042051544045954, 'lng': 118.73278647427223}}"
"{'name': '欧普康视眼科诊所', 'location': {'lat': 32.033521247074475, 'lng': 118.7305128306212}, 'address': '江苏省南京市建邺区福园街139-8号', 'province': '江苏省', 'city': '南京市', 'area': '建邺区', 'telephone': '(025)86533309', 'detail': 1, 'uid': '203469f55c8548e2c91b950b', 'detail_info': {'tag': '医疗;诊所', 'type': 'hospital', 'detail_url': 'http://api.map.baidu.com/place/detail?uid=203469f55c8548e2c91b950b&output=html&source=placeapi_v2', 'image_num': '3', 'children': [], 'lat': 32.033521247074475, 'lng': 118.7305128306212}}"
"{'name': '泰乐城护理院', 'location': {'lat': 32.03195948956105, 'lng': 118.73921350935322}, 'address': '南京市建邺区凤栖路131号泰乐城生活广场', 'province': '江苏省', 'city': '南京市', 'area': '建邺区', 'street_id': '151a84c248005ce403294fa2', 'detail': 1, 'uid': '151a84c248005ce403294fa2', 'detail_info': {'tag': '政府机构;福利机构', 'navi_location': {'lng': 118.75088203351, 'lat': 32.034517903685}, 'type': 'life', 'detail_url': 'http://api.map.baidu.com/place/detail?uid=151a84c248005ce403294fa2&output=html&source=placeapi_v2', 'overall_rating': '5.0', 'image_num': '3', 'comment_num': '1', 'children': [], 'lat': 32.03195948956105, 'lng': 118.73921350935322}}"
"{'name': '益丰大药房(福园街二店)', 'location': {'lat': 32.03290788264802, 'lng': 118.73174549348835}, 'address': '江苏省南京市建邺区福园街129-12号', 'province': '江苏省', 'city': '南京市', 'area': '建邺区', 'telephone': '(025)57069679', 'detail': 1, 'uid': 'db38f2e8151b54c815a19015', 'detail_info': {'tag': '医疗;药店', 'type': 'hospital', 'detail_url': 'http://api.map.baidu.com/place/detail?uid=db38f2e8151b54c815a19015&output=html&source=placeapi_v2', 'overall_rating': '0.0', 'image_num': '9', 'comment_num': '1', 'children': [], 'lat': 32.03290788264802, 'lng': 118.73174549348835}}"
"{'name': '中共南京金陵口腔医院党支部', 'location': {'lat': 32.04210072430017, 'lng': 118.732924274722}, 'address': '江苏省南京市鼓楼区江东街道汉中门大街金陵世纪花园', 'province': '江苏省', 'city': '南京市', 'area': '鼓楼区', 'street_id': 'f0d388eb37bff601d12dd69d', 'detail': 1, 'uid': 'f0d388eb37bff601d12dd69d', 'detail_info': {'tag': '政府机构;各级政府', 'navi_location': {'lng': 118.74488544198, 'lat': 32.045357152139}, 'type': 'life', 'detail_url': 'http://api.map.baidu.com/place/detail?uid=f0d388eb37bff601d12dd69d&output=html&source=placeapi_v2', 'image_num': '1', 'children': [], 'lat': 32.04210072430017, 'lng': 118.732924274722}}"
"{'name': '小儿益站', 'location': {'lat': 32.032105708407315, 'lng': 118.73035949618652}, 'address': '集庆门大街220-32号', 'province': '江苏省', 'city': '南京市', 'area': '建邺区', 'telephone': '(025)69559679', 'detail': 1, 'uid': '267fdc33c91d7a4fa1a9340d', 'detail_info': {'tag': '医疗;其他', 'type': 'hospital', 'detail_url': 'http://api.map.baidu.com/place/detail?uid=267fdc33c91d7a4fa1a9340d&output=html&source=placeapi_v2', 'image_num': '3', 'children': [], 'lat': 32.032105708407315, 'lng': 118.73035949618652}}"
"{'name': '南京晓庄学院(奇致美容医院)-地上停车场', 'location': {'lat': 32.039902982872235, 'lng': 118.74637890195243}, 'address': '汉中门大街123号', 'province': '江苏省', 'city': '南京市', 'area': '建邺区', 'street_id': 'da36a4f7acedc5ba2b201a31', 'detail': 1, 'uid': 'da36a4f7acedc5ba2b201a31', 'detail_info': {'tag': '交通设施;停车场', 'navi_location': {'lng': 118.75947062488, 'lat': 32.042356058255}, 'type': 'life', 'detail_url': 'http://api.map.baidu.com/place/detail?uid=da36a4f7acedc5ba2b201a31&output=html&source=placeapi_v2', 'image_num': '1', 'children': [], 'lat': 32.039902982872235, 'lng': 118.74637890195243}}"
"{'name': '橘子宠屋', 'location': {'lat': 32.03231084441951, 'lng': 118.73786626173994}, 'address': '南京市建邺区云锦路90-3号', 'province': '江苏省', 'city': '南京市', 'area': '建邺区', 'street_id': '9d7646c9f2059cf78f55eca1', 'telephone': '(025)86600616', 'detail': 1, 'uid': '9d7646c9f2059cf78f55eca1', 'detail_info': {'tag': '生活服务;宠物服务', 'type': 'life', 'detail_url': 'http://api.map.baidu.com/place/detail?uid=9d7646c9f2059cf78f55eca1&output=html&source=placeapi_v2', 'overall_rating': '4.3', 'image_num': '9', 'comment_num': '13', 'children': [], 'lat': 32.03231084441951, 'lng': 118.73786626173994}}"
"{'name': '爱宠侍卫', 'location': {'lat': 32.033508859424344, 'lng': 118.74285112264947}, 'address': '江苏省南京市建邺区茶南大街71号附近', 'province': '江苏省', 'city': '南京市', 'area': '建邺区', 'telephone': '17502506543', 'detail': 1, 'uid': 'b4abc85658a704cc593ac82c', 'detail_info': {'tag': '生活服务;宠物服务', 'type': 'life', 'detail_url': 'http://api.map.baidu.com/place/detail?uid=b4abc85658a704cc593ac82c&output=html&source=placeapi_v2', 'image_num': '4', 'children': [], 'lat': 32.033508859424344, 'lng': 118.74285112264947}}"
"{'name': '先声再康药店(凤凰西街药店)', 'location': {'lat': 32.04382130308138, 'lng': 118.74767855543821}, 'address': '凤凰西街124-1号', 'province': '江苏省', 'city': '南京市', 'area': '鼓楼区', 'street_id': 'af1ae56bb596830b4207c147', 'telephone': '(025)86518007', 'detail': 1, 'uid': 'af1ae56bb596830b4207c147', 'detail_info': {'tag': '医疗;药店', 'navi_location': {'lng': 118.75949461862, 'lat': 32.047363641037}, 'type': 'hospital', 'detail_url': 'http://api.map.baidu.com/place/detail?uid=af1ae56bb596830b4207c147&output=html&source=placeapi_v2', 'overall_rating': '4.0', 'image_num': '11', 'comment_num': '5', 'children': [], 'lat': 32.04382130308138, 'lng': 118.74767855543821}}"
"{'name': '百信药房(凤栖苑药店)', 'location': {'lat': 32.03325145457809, 'lng': 118.74002305605626}, 'address': '南京市建邺区福园街与凤栖路交叉路口东北侧(白鹭花园凤栖苑)', 'province': '江苏省', 'city': '南京市', 'area': '建邺区', 'street_id': '5c2dc21d94a9ef1d6ec02cac', 'telephone': '(025)86468179', 'detail': 1, 'uid': '5c2dc21d94a9ef1d6ec02cac', 'detail_info': {'tag': '医疗;药店', 'navi_location': {'lng': 118.75189394072, 'lat': 32.036991178778}, 'type': 'hospital', 'detail_url': 'http://api.map.baidu.com/place/detail?uid=5c2dc21d94a9ef1d6ec02cac&output=html&source=placeapi_v2', 'overall_rating': '0.0', 'image_num': '19', 'comment_num': '3', 'children': [], 'lat': 32.03325145457809, 'lng': 118.74002305605626}}"
"{'name': '海王星辰健康药房(南京集庆门大街二店)', 'location': {'lat': 32.03207784111665, 'lng': 118.73012894842142}, 'address': '南京市建邺区商业文化旅游中心区集庆门大街220-25220号', 'province': '江苏省', 'city': '南京市', 'area': '建邺区', 'street_id': '2c8b76268cafc5269a0050ed', 'telephone': '(025)84805506', 'detail': 1, 'uid': '2c8b76268cafc5269a0050ed', 'detail_info': {'tag': '医疗;药店', 'type': 'hospital', 'detail_url': 'http://api.map.baidu.com/place/detail?uid=2c8b76268cafc5269a0050ed&output=html&source=placeapi_v2', 'image_num': '12', 'children': [], 'lat': 32.03207784111665, 'lng': 118.73012894842142}}"
"{'name': '金陵大药房(湖西街药房)', 'location': {'lat': 32.0322822763427, 'lng': 118.74434853501022}, 'address': '湖西街18号2幢101室', 'province': '江苏省', 'city': '南京市', 'area': '建邺区', 'street_id': 'fa01e93711a40b53764ff1aa', 'telephone': '(025)52890971', 'detail': 1, 'uid': 'fa01e93711a40b53764ff1aa', 'detail_info': {'tag': '医疗;药店', 'type': 'hospital', 'detail_url': 'http://api.map.baidu.com/place/detail?uid=fa01e93711a40b53764ff1aa&output=html&source=placeapi_v2', 'price': '0.0', 'overall_rating': '0.0', 'image_num': '14', 'children': [], 'lat': 32.0322822763427, 'lng': 118.74434853501022}}"
"{'name': '老百姓大药房(茶南大街店)', 'location': {'lat': 32.035796293350835, 'lng': 118.74238992197152}, 'address': '江苏省南京市建邺区莫愁湖街道拓园小区21栋', 'province': '江苏省', 'city': '南京市', 'area': '建邺区', 'street_id': 'b297691f3e17067c4151c0ba', 'telephone': '(025)83324445', 'detail': 1, 'uid': 'b297691f3e17067c4151c0ba', 'detail_info': {'tag': '医疗;药店', 'navi_location': {'lng': 118.75442986022, 'lat': 32.039386746617}, 'type': 'hospital', 'detail_url': 'http://api.map.baidu.com/place/detail?uid=b297691f3e17067c4151c0ba&output=html&source=placeapi_v2', 'image_num': '7', 'children': [], 'lat': 32.035796293350835, 'lng': 118.74238992197152}}"
"{'name': '益丰大药房(汉中门大街二店)', 'location': {'lat': 32.0401912459512, 'lng': 118.74209367202998}, 'address': '江苏省南京市建邺区汉中门大街151号', 'province': '江苏省', 'city': '南京市', 'area': '建邺区', 'detail': 1, 'uid': '1a5bc3da120c8c8195ca0707', 'detail_info': {'tag': '医疗;药店', 'type': 'hospital', 'detail_url': 'http://api.map.baidu.com/place/detail?uid=1a5bc3da120c8c8195ca0707&output=html&source=placeapi_v2', 'overall_rating': '5.0', 'image_num': '3', 'comment_num': '2', 'children': [], 'lat': 32.0401912459512, 'lng': 118.74209367202998}}"
"{'name': '嘉伦光彩大药房(水西门店)', 'location': {'lat': 32.03646337100771, 'lng': 118.74409971500445}, 'address': '水西门大街233-4号', 'province': '江苏省', 'city': '南京市', 'area': '建邺区', 'street_id': 'ef773a0f9ac04c2d22022050', 'telephone': '(025)86510741', 'detail': 1, 'uid': 'ef773a0f9ac04c2d22022050', 'detail_info': {'tag': '医疗;药店', 'navi_location': {'lng': 118.75593240975, 'lat': 32.040273185604}, 'type': 'hospital', 'detail_url': 'http://api.map.baidu.com/place/detail?uid=ef773a0f9ac04c2d22022050&output=html&source=placeapi_v2', 'price': '0.0', 'overall_rating': '0.0', 'image_num': '13', 'children': [], 'lat': 32.03646337100771, 'lng': 118.74409971500445}}"
"{'name': '燕山路药房', 'location': {'lat': 32.03366073189355, 'lng': 118.72820954212112}, 'address': '集贤路1号', 'province': '江苏省', 'city': '南京市', 'area': '鼓楼区', 'street_id': '79c7ffdd9a1535e498005094', 'telephone': '(025)86280689', 'detail': 1, 'uid': '79c7ffdd9a1535e498005094', 'detail_info': {'tag': '医疗;药店', 'navi_location': {'lng': 118.74003252418, 'lat': 32.037531409079}, 'type': 'hospital', 'detail_url': 'http://api.map.baidu.com/place/detail?uid=79c7ffdd9a1535e498005094&output=html&source=placeapi_v2', 'overall_rating': '5.0', 'image_num': '20', 'comment_num': '3', 'children': [], 'lat': 32.03366073189355, 'lng': 118.72820954212112}}"
"{'name': '江苏省人民医院宿舍区-南2门', 'location': {'lat': 32.04334734716716, 'lng': 118.74574733826437}, 'address': '凤凰西街138号附近', 'province': '江苏省', 'city': '南京市', 'area': '鼓楼区', 'street_id': '9de3833179d2e4609cf77950', 'detail': 1, 'uid': '9de3833179d2e4609cf77950', 'detail_info': {'tag': '出入口;门', 'type': 'life', 'detail_url': 'http://api.map.baidu.com/place/detail?uid=9de3833179d2e4609cf77950&output=html&source=placeapi_v2', 'image_num': '1', 'children': [], 'lat': 32.04334734716716, 'lng': 118.74574733826437}}"
"{'name': '益丰大药房(典雅居店)', 'location': {'lat': 32.04142870087622, 'lng': 118.73225477762081}, 'address': '江苏省南京市建邺区汉中门大街281-5', 'province': '江苏省', 'city': '南京市', 'area': '建邺区', 'street_id': '15cda2d637976796d3ff23e0', 'telephone': '(025)86791660', 'detail': 1, 'uid': '15cda2d637976796d3ff23e0', 'detail_info': {'tag': '医疗;药店', 'navi_location': {'lng': 118.7441212957, 'lat': 32.045093281346}, 'type': 'hospital', 'detail_url': 'http://api.map.baidu.com/place/detail?uid=15cda2d637976796d3ff23e0&output=html&source=placeapi_v2', 'overall_rating': '0.0', 'image_num': '8', 'comment_num': '1', 'children': [], 'lat': 32.04142870087622, 'lng': 118.73225477762081}}"
"{'name': '益丰大药房(凤凰西街店)', 'location': {'lat': 32.042925611517376, 'lng': 118.73886661709423}, 'address': '凤凰西街323号-2', 'province': '江苏省', 'city': '南京市', 'area': '鼓楼区', 'street_id': '9ee7cc788bb1466916c90549', 'telephone': '(025)86611011', 'detail': 1, 'uid': '9ee7cc788bb1466916c90549', 'detail_info': {'tag': '医疗;药店', 'navi_location': {'lng': 118.75064348148, 'lat': 32.046728440269}, 'type': 'hospital', 'detail_url': 'http://api.map.baidu.com/place/detail?uid=9ee7cc788bb1466916c90549&output=html&source=placeapi_v2', 'price': '0.0', 'overall_rating': '3.0', 'image_num': '17', 'comment_num': '6', 'children': [], 'lat': 32.042925611517376, 'lng': 118.73886661709423}}"
"{'name': '江苏省人民医院宿舍区-南门', 'location': {'lat': 32.04341075393073, 'lng': 118.746096234567}, 'address': '凤凰西街140号', 'province': '江苏省', 'city': '南京市', 'area': '鼓楼区', 'street_id': '0d12b82e6b51fb9e8f1a89fd', 'detail': 1, 'uid': '0d12b82e6b51fb9e8f1a89fd', 'detail_info': {'tag': '出入口;门', 'type': 'life', 'detail_url': 'http://api.map.baidu.com/place/detail?uid=0d12b82e6b51fb9e8f1a89fd&output=html&source=placeapi_v2', 'image_num': '1', 'children': [], 'lat': 32.04341075393073, 'lng': 118.746096234567}}"
"{'name': '南京晓庄学院(奇致美容医院)地上停车场-出入口', 'location': {'lat': 32.04029794589535, 'lng': 118.74619093103968}, 'address': '汉中门大街123号', 'province': '江苏省', 'city': '南京市', 'area': '建邺区', 'street_id': '90c6f1a5ac3cd8f19900505e', 'detail': 1, 'uid': '90c6f1a5ac3cd8f19900505e', 'detail_info': {'tag': '出入口;停车场出入口', 'type': 'life', 'detail_url': 'http://api.map.baidu.com/place/detail?uid=90c6f1a5ac3cd8f19900505e&output=html&source=placeapi_v2', 'image_num': '1', 'children': [], 'lat': 32.04029794589535, 'lng': 118.74619093103968}}"
"{'name': '江苏省人民医院宿舍区', 'location': {'lat': 32.0437148327243, 'lng': 118.74599060395983}, 'address': '南京市鼓楼区凤凰西街140号', 'province': '江苏省', 'city': '南京市', 'area': '鼓楼区', 'street_id': '83012ca6b3b5c9c4c61b751a', 'detail': 1, 'uid': '83012ca6b3b5c9c4c61b751a', 'detail_info': {'tag': '房地产;宿舍', 'navi_location': {'lng': 118.75779429427, 'lat': 32.04695776389}, 'type': 'house', 'detail_url': 'http://api.map.baidu.com/place/detail?uid=83012ca6b3b5c9c4c61b751a&output=html&source=placeapi_v2', 'children': [], 'lat': 32.0437148327243, 'lng': 118.74599060395983}}"
"{'name': '益丰大药房(水西门大街一店)', 'location': {'lat': 32.03659302381557, 'lng': 118.74343913144983}, 'address': '江苏省南京市建邺区水西门大街237号', 'province': '江苏省', 'city': '南京市', 'area': '建邺区', 'street_id': '3af7463d7bf32a65902ca37e', 'telephone': '(025)58930163', 'detail': 1, 'uid': '3af7463d7bf32a65902ca37e', 'detail_info': {'tag': '医疗;药店', 'navi_location': {'lng': 118.75488894788, 'lat': 32.040460238083}, 'type': 'hospital', 'detail_url': 'http://api.map.baidu.com/place/detail?uid=3af7463d7bf32a65902ca37e&output=html&source=placeapi_v2', 'image_num': '7', 'children': [], 'lat': 32.03659302381557, 'lng': 118.74343913144983}}"
"{'name': '虫草参茸行(冬虫夏草海参燕窝行)', 'location': {'lat': 32.032570570347794, 'lng': 118.73794604800294}, 'address': '云锦路90-1', 'province': '江苏省', 'city': '南京市', 'area': '建邺区', 'street_id': '3652d69d93fae537d418b7bf', 'telephone': '18651651099', 'detail': 1, 'uid': '3652d69d93fae537d418b7bf', 'detail_info': {'tag': '医疗;医疗保健', 'navi_location': {'lng': 118.75002116327, 'lat': 32.036079033771}, 'type': 'hospital', 'detail_url': 'http://api.map.baidu.com/place/detail?uid=3652d69d93fae537d418b7bf&output=html&source=placeapi_v2', 'overall_rating': '4.9', 'image_num': '24', 'comment_num': '13', 'children': [], 'lat': 32.032570570347794, 'lng': 118.73794604800294}}"
"{'name': '益丰大药房(南京福园街店)', 'location': {'lat': 32.0340250434936, 'lng': 118.73779753307663}, 'address': '江苏省南京市建邺区福园街82号', 'province': '江苏省', 'city': '南京市', 'area': '建邺区', 'street_id': 'dafc92cce14622344e776eb2', 'telephone': '(025)58766061', 'detail': 1, 'uid': 'dafc92cce14622344e776eb2', 'detail_info': {'tag': '医疗;药店', 'navi_location': {'lng': 118.74951082513, 'lat': 32.037437484499}, 'type': 'hospital', 'detail_url': 'http://api.map.baidu.com/place/detail?uid=dafc92cce14622344e776eb2&output=html&source=placeapi_v2', 'price': '0.0', 'image_num': '8', 'children': [], 'lat': 32.0340250434936, 'lng': 118.73779753307663}}"
"{'name': '海之声助听器(河西VIP体验中心)', 'location': {'lat': 32.032561348990384, 'lng': 118.73320212659203}, 'address': '南京市建邺区江东中路102号201室河西万达中心a座', 'province': '江苏省', 'city': '南京市', 'area': '建邺区', 'street_id': 'ce9451ca3c0e851c94ec84b5', 'telephone': '(025)83720966', 'detail': 1, 'uid': 'ce9451ca3c0e851c94ec84b5', 'detail_info': {'tag': '医疗;医疗器械', 'type': 'hospital', 'detail_url': 'http://api.map.baidu.com/place/detail?uid=ce9451ca3c0e851c94ec84b5&output=html&source=placeapi_v2', 'overall_rating': '5.0', 'image_num': '7', 'comment_num': '9', 'children': [], 'lat': 32.032561348990384, 'lng': 118.73320212659203}}"
"{'name': '海王星辰健康药房(凤凰西街二店)', 'location': {'lat': 32.043307135597644, 'lng': 118.73795061098798}, 'address': '凤凰西街198-2号', 'province': '江苏省', 'city': '南京市', 'area': '鼓楼区', 'street_id': '293fee4d0106d3c492114c45', 'telephone': '(025)86613069,(025)58802672', 'detail': 1, 'uid': '293fee4d0106d3c492114c45', 'detail_info': {'tag': '医疗;药店', 'type': 'hospital', 'detail_url': 'http://api.map.baidu.com/place/detail?uid=293fee4d0106d3c492114c45&output=html&source=placeapi_v2', 'image_num': '9', 'children': [], 'lat': 32.043307135597644, 'lng': 118.73795061098798}}"
"{'name': '益丰大药房(湖西街二店)', 'location': {'lat': 32.03524606053465, 'lng': 118.74629865141533}, 'address': '江苏省南京市建邺区湖西街四号1层', 'province': '江苏省', 'city': '南京市', 'area': '建邺区', 'street_id': '597a00ddc665f66d54bfff62', 'telephone': '(025)58837203', 'detail': 1, 'uid': '597a00ddc665f66d54bfff62', 'detail_info': {'tag': '医疗;药店', 'type': 'hospital', 'detail_url': 'http://api.map.baidu.com/place/detail?uid=597a00ddc665f66d54bfff62&output=html&source=placeapi_v2', 'image_num': '9', 'children': [], 'lat': 32.03524606053465, 'lng': 118.74629865141533}}"
"{'name': '先声再康', 'location': {'lat': 32.03619061877417, 'lng': 118.74473350246211}, 'address': '莫愁湖街道水西门大街223号先声再康大药房', 'province': '江苏省', 'city': '南京市', 'area': '建邺区', 'detail': 1, 'uid': '43b7d1ec28e6fe8036b06cfc', 'detail_info': {'tag': '医疗;药店', 'navi_location': {'lng': 118.75664700004, 'lat': 32.040003017853}, 'type': 'hospital', 'detail_url': 'http://api.map.baidu.com/place/detail?uid=43b7d1ec28e6fe8036b06cfc&output=html&source=placeapi_v2', 'image_num': '5', 'children': [], 'lat': 32.03619061877417, 'lng': 118.74473350246211}}"
"{'name': '中药', 'location': {'lat': 32.03647413120204, 'lng': 118.74412676542886}, 'address': '江苏省南京市建邺区水西门大街225号附近', 'province': '江苏省', 'city': '南京市', 'area': '建邺区', 'street_id': '734e3032e0af7723b8bd63c8', 'detail': 1, 'uid': '734e3032e0af7723b8bd63c8', 'detail_info': {'tag': '医疗;药店', 'type': 'hospital', 'detail_url': 'http://api.map.baidu.com/place/detail?uid=734e3032e0af7723b8bd63c8&output=html&source=placeapi_v2', 'image_num': '3', 'children': [], 'lat': 32.03647413120204, 'lng': 118.74412676542886}}"
"{'name': '源参堂', 'location': {'lat': 32.034953342476584, 'lng': 118.74278352813774}, 'address': '江苏省南京市建邺区水西门大街茶南大街露园87号源参堂', 'province': '江苏省', 'city': '南京市', 'area': '建邺区', 'detail': 1, 'uid': 'e7fdbfd7f14f3996593ac895', 'detail_info': {'tag': '医疗;药店', 'type': 'hospital', 'detail_url': 'http://api.map.baidu.com/place/detail?uid=e7fdbfd7f14f3996593ac895&output=html&source=placeapi_v2', 'image_num': '4', 'children': [], 'lat': 32.034953342476584, 'lng': 118.74278352813774}}"
"{'name': '江苏省国医馆', 'location': {'lat': 32.04864185850965, 'lng': 118.7365304170901}, 'address': '江苏省南京市鼓楼区清凉门大街168-6附近', 'province': '江苏省', 'city': '南京市', 'area': '鼓楼区', 'street_id': 'c5605e7d1572affdab175ac6', 'detail': 1, 'uid': 'c5605e7d1572affdab175ac6', 'detail_info': {'tag': '医疗;其他', 'navi_location': {'lng': 118.74824717967, 'lat': 32.052305295463}, 'type': 'hospital', 'detail_url': 'http://api.map.baidu.com/place/detail?uid=c5605e7d1572affdab175ac6&output=html&source=placeapi_v2', 'image_num': '5', 'children': [], 'lat': 32.04864185850965, 'lng': 118.7365304170901}}"
"{'name': '南京消防医院-北门', 'location': {'lat': 32.0483985179074, 'lng': 118.73182571800061}, 'address': '江苏省南京市清凉门大街203号', 'province': '江苏省', 'city': '南京市', 'area': '鼓楼区', 'detail': 1, 'uid': 'd6cecde57ba4fe6c213bf266', 'detail_info': {'tag': '出入口;门', 'type': 'life', 'detail_url': 'http://api.map.baidu.com/place/detail?uid=d6cecde57ba4fe6c213bf266&output=html&source=placeapi_v2', 'image_num': '1', 'children': [], 'lat': 32.0483985179074, 'lng': 118.73182571800061}}"
"{'name': 'AMC中心动物医院(清凉门大街店)', 'location': {'lat': 32.04807591776086, 'lng': 118.7405387247594}, 'address': '江苏省南京市鼓楼区清凉门大街121号', 'province': '江苏省', 'city': '南京市', 'area': '鼓楼区', 'street_id': '7763ab704e69673badcb665c', 'telephone': '(025)86538945', 'detail': 1, 'uid': '7763ab704e69673badcb665c', 'detail_info': {'tag': '生活服务;宠物服务', 'navi_location': {'lng': 118.75237005072, 'lat': 32.051977620154}, 'type': 'life', 'detail_url': 'http://api.map.baidu.com/place/detail?uid=7763ab704e69673badcb665c&output=html&source=placeapi_v2', 'overall_rating': '4.2', 'image_num': '6', 'comment_num': '5', 'children': [], 'lat': 32.04807591776086, 'lng': 118.7405387247594}}"
"{'name': 'AMC猫科异宠专科医院', 'location': {'lat': 32.04810241722439, 'lng': 118.74172441069571}, 'address': '江苏省南京市鼓楼区清凉门大街99号', 'province': '江苏省', 'city': '南京市', 'area': '鼓楼区', 'street_id': '82780c9bf261d1c4882fb5c3', 'telephone': '(025)83434670', 'detail': 1, 'uid': '82780c9bf261d1c4882fb5c3', 'detail_info': {'tag': '生活服务;宠物服务', 'navi_location': {'lng': 118.75355106831, 'lat': 32.051947822995}, 'type': 'life', 'detail_url': 'http://api.map.baidu.com/place/detail?uid=82780c9bf261d1c4882fb5c3&output=html&source=placeapi_v2', 'overall_rating': '4.5', 'image_num': '1', 'comment_num': '3', 'children': [], 'lat': 32.04810241722439, 'lng': 118.74172441069571}}"
"{'name': '德美医疗', 'location': {'lat': 32.057173156962506, 'lng': 118.73387519769743}, 'address': '江苏省南京市鼓楼区江东北路289号银城广场A座4楼', 'province': '江苏省', 'city': '南京市', 'area': '鼓楼区', 'street_id': '06e0a7125864de11c356acd8', 'detail': 1, 'uid': '06e0a7125864de11c356acd8', 'detail_info': {'tag': '医疗;诊所', 'navi_location': {'lng': 118.74575926956, 'lat': 32.061186001379}, 'type': 'hospital', 'detail_url': 'http://api.map.baidu.com/place/detail?uid=06e0a7125864de11c356acd8&output=html&source=placeapi_v2', 'image_num': '3', 'children': [], 'lat': 32.057173156962506, 'lng': 118.73387519769743}}"
"{'name': '南京市口腔医院第三门诊部', 'location': {'lat': 32.05000580500238, 'lng': 118.73796141272685}, 'address': '江苏省南京市鼓楼区湛江路69号', 'province': '江苏省', 'city': '南京市', 'area': '鼓楼区', 'street_id': '59e72d76b62850a7a8f729f6', 'telephone': '(025)86220179', 'detail': 1, 'uid': '59e72d76b62850a7a8f729f6', 'detail_info': {'tag': '医疗;专科医院', 'navi_location': {'lng': 118.75032903233, 'lat': 32.053501632328}, 'type': 'hospital', 'detail_url': 'http://api.map.baidu.com/place/detail?uid=59e72d76b62850a7a8f729f6&output=html&source=placeapi_v2', 'overall_rating': '2.3', 'image_num': '21', 'comment_num': '11', 'children': [], 'lat': 32.05000580500238, 'lng': 118.73796141272685}}"
"{'name': '江苏省中医院制剂部', 'location': {'lat': 32.04590043328975, 'lng': 118.74282973716406}, 'address': '南京市鼓楼区凤凰西街150-1号', 'province': '江苏省', 'city': '南京市', 'area': '鼓楼区', 'street_id': '0fe872d05e611711b21e362b', 'detail': 1, 'uid': '0fe872d05e611711b21e362b', 'detail_info': {'tag': '医疗;其他', 'navi_location': {'lng': 118.75446785819, 'lat': 32.049443662364}, 'type': 'hospital', 'detail_url': 'http://api.map.baidu.com/place/detail?uid=0fe872d05e611711b21e362b&output=html&source=placeapi_v2', 'overall_rating': '0.0', 'image_num': '5', 'comment_num': '3', 'children': [], 'lat': 32.04590043328975, 'lng': 118.74282973716406}}"
"{'name': '南京市鼓楼区石城金康老年护理中心', 'location': {'lat': 32.05744824383482, 'lng': 118.74629486070008}, 'address': '南京市鼓楼区石头城9号', 'province': '江苏省', 'city': '南京市', 'area': '鼓楼区', 'street_id': '4a9b673659e5d55e0f0e6b8c', 'detail': 1, 'uid': '4a9b673659e5d55e0f0e6b8c', 'detail_info': {'tag': '医疗;疗养院', 'navi_location': {'lng': 118.75821619693, 'lat': 32.061211492731}, 'type': 'hospital', 'detail_url': 'http://api.map.baidu.com/place/detail?uid=4a9b673659e5d55e0f0e6b8c&output=html&source=placeapi_v2', 'overall_rating': '0.0', 'image_num': '7', 'comment_num': '1', 'children': [], 'lat': 32.05744824383482, 'lng': 118.74629486070008}}"
"{'name': '澳维特宠物医院', 'location': {'lat': 32.054757625980855, 'lng': 118.73080797748956},