[{"name": "\u82cf\u5317\u6c34\u679c\u852c\u83dc\u5e97", "location": {"lat": 32.01042698207384, "lng": 118.69466753923686}, "address": "\u5357\u4eac\u5e02\u5efa\u90ba\u533a\u6c11\u5b89\u8def\u4e0e\u6d32\u6cf0\u8def\u4ea4\u53c9\u8def\u53e3\u897f\u4fa7(\u5357\u4eac\u5e02\u516c\u5b89\u5c40\u5efa\u90ba\u5206\u5c40\u6c5f\u5fc3\u6d32\u6d3e\u51fa\u6240\u897f\u5317\u4fa7\u7ea650\u7c73)", "province": "\u6c5f\u82cf\u7701", "city": "\u5357\u4eac\u5e02", "area": "\u5efa\u90ba\u533a", "telephone": "15370554387", "detail": 1, "uid": "3659f0ec0ccc47ebf13cba96", "detail_info": {"tag": "\u8d2d\u7269;\u5546\u94fa", "navi_location": {"lng": 118.70615284039, "lat": 32.014679057708}, "type": "shopping", "detail_url": "http://api.map.baidu.com/place/detail?uid=3659f0ec0ccc47ebf13cba96&output=html&source=placeapi_v2", "children": [], "lat": 32.01042698207384, "lng": 118.69466753923686}}, {"name": "\u6709\u559c\u4e4b\u5bb6\u6bcd\u5a74\u5eb7\u5065\u4f1a\u6240(\u6c5f\u6ee8\u5e97)", "location": {"lat": 32.01252550918211, "lng": 118.7046347102784}, "address": "\u5357\u4eac\u626c\u5b50\u6c5f\u5927\u9053\u4e07\u666f\u56ed\u8def8\u53f7(\u5965\u4f53\u4e2d\u5fc3\u897f\u4fa7)(\u5965\u4f53\u4e2d\u5fc3)", "province": "\u6c5f\u82cf\u7701", "city": "\u5357\u4eac\u5e02", "area": "\u5efa\u90ba\u533a", "street_id": "31f3b248ca63af58f8f0cbdb", "detail": 1, "uid": "31f3b248ca63af58f8f0cbdb", "detail_info": {"tag": "\u8d2d\u7269;\u5546\u94fa", "type": "shopping", "detail_url": "http://api.map.baidu.com/place/detail?uid=31f3b248ca63af58f8f0cbdb&output=html&source=placeapi_v2", "overall_rating": "5.0", "comment_num": "20", "children": [], "lat": 32.01252550918211, "lng": 118.7046347102784}}, {"name": "\u8d2d\u597d\u751f\u6d3b\u8d85\u5e02(\u6c11\u5b89\u8def\u5e97)", "location": {"lat": 32.01028768129999, "lng": 118.69485536411891}, "address": "\u5357\u4eac\u5e02\u5efa\u90ba\u533a\u6d32\u6cf0\u8def\u4e0e\u6c11\u5b89\u8def\u4ea4\u53c9\u8def\u53e3\u897f\u5357\u4fa7(\u5357\u4eac\u5e02\u516c\u5b89\u5c40\u5efa\u90ba\u5206\u5c40\u6c5f\u5fc3\u6d32\u6d3e\u51fa\u6240\u897f\u5317\u4fa7)", "province": "\u6c5f\u82cf\u7701", "city": "\u5357\u4eac\u5e02", "area": "\u5efa\u90ba\u533a", "street_id": "6113ef774e3d56148f7727b2", "telephone": "15050585279", "detail": 1, "uid": "6113ef774e3d56148f7727b2", "detail_info": {"tag": "\u8d2d\u7269;\u4fbf\u5229\u5e97", "type": "shopping", "detail_url": "http://api.map.baidu.com/place/detail?uid=6113ef774e3d56148f7727b2&output=html&source=placeapi_v2", "overall_rating": "0.0", "children": [], "lat": 32.01028768129999, "lng": 118.69485536411891}}, {"name": "\u79a7\u5b9d\u6bcd\u5a74", "location": {"lat": 32.01245214899419, "lng": 118.7046724660472}, "address": "\u626c\u5b50\u6c5f\u5927\u9053260\u53f7\u4e07\u666f\u56ed\u8def\u91d1\u9675\u6c5f\u6ee8\u9152\u5e97-\u7cbe\u54c1\u697c", "province": "\u6c5f\u82cf\u7701", "city": "\u5357\u4eac\u5e02", "area": "\u5efa\u90ba\u533a", "detail": 1, "uid": "274c161d8e11da51f219374a", "detail_info": {"tag": "\u8d2d\u7269;\u5546\u94fa", "type": "shopping", "detail_url": "http://api.map.baidu.com/place/detail?uid=274c161d8e11da51f219374a&output=html&source=placeapi_v2", "children": [], "lat": 32.01245214899419, "lng": 118.7046724660472}}, {"name": "\u534e\u7965\u82d1(\u5357\u4eac\u91d1\u9675\u6c5f\u6ee8\u9152\u5e97)", "location": {"lat": 32.013416316699534, "lng": 118.70432466095815}, "address": "\u626c\u5b50\u6c5f\u5927\u9053\u4e07\u666f\u56ed\u8def8\u53f7\u91d1\u9675\u6c5f\u6ee8\u9152\u5e97", "province": "\u6c5f\u82cf\u7701", "city": "\u5357\u4eac\u5e02", "area": "\u5efa\u90ba\u533a", "street_id": "95804484e5c67ed8fbf0cbb2", "telephone": "(025)82226266", "detail": 1, "uid": "95804484e5c67ed8fbf0cbb2", "detail_info": {"tag": "\u8d2d\u7269;\u5546\u94fa", "navi_location": {"lng": 118.71616517933, "lat": 32.017606679725}, "type": "shopping", "detail_url": "http://api.map.baidu.com/place/detail?uid=95804484e5c67ed8fbf0cbb2&output=html&source=placeapi_v2", "overall_rating": "0.0", "children": [], "lat": 32.013416316699534, "lng": 118.70432466095815}}, {"name": "\u4fbf\u6c11\u5c0f\u5bb6\u7535", "location": {"lat": 32.00928846310883, "lng": 118.69458304762104}, "address": "\u6c5f\u82cf\u7701\u5357\u4eac\u5e02\u5efa\u90ba\u533a\u6c11\u5b89\u8def\u5357\u4eac\u5e02\u6c5f\u5fc3\u6d32\u4e2d\u5fc3\u5e7c\u513f\u56ed\u9644\u8fd1", "province": "\u6c5f\u82cf\u7701", "city": "\u5357\u4eac\u5e02", "area": "\u5efa\u90ba\u533a", "street_id": "70d48b9d6461cc449222e036", "telephone": "13016935598,15380899583", "detail": 1, "uid": "70d48b9d6461cc449222e036", "detail_info": {"tag": "\u8d2d\u7269;\u5bb6\u7535\u6570\u7801", "navi_location": {"lng": 118.70573790768, "lat": 32.013466962529}, "type": "shopping", "detail_url": "http://api.map.baidu.com/place/detail?uid=70d48b9d6461cc449222e036&output=html&source=placeapi_v2", "children": [], "lat": 32.00928846310883, "lng": 118.69458304762104}}, {"name": "KATE(\u4e07\u8fbe\u6cb3\u897f\u5e97)", "location": {"lat": 32.008522781991275, "lng": 118.70169549540708}, "address": "\u6c5f\u4e2d\u8def98\u53f72\u697c", "province": "\u6c5f\u82cf\u7701", "city": "\u5357\u4eac\u5e02", "area": "\u5efa\u90ba\u533a", "detail": 1, "uid": "dd73a4505ed596fd5bf6be07", "detail_info": {"tag": "\u8d2d\u7269;\u5546\u94fa", "type": "shopping", "detail_url": "http://api.map.baidu.com/place/detail?uid=dd73a4505ed596fd5bf6be07&output=html&source=placeapi_v2", "children": [], "lat": 32.008522781991275, "lng": 118.70169549540708}}, {"name": "\u5b9a\u505a\u76ae\u978b", "location": {"lat": 32.011524345695406, "lng": 118.69143504048269}, "address": "\u5357\u4eac\u5e02\u5efa\u90ba\u533a\u6c11\u5b89\u8def(\u7eff\u5c9b\u65b0\u6751)", "province": "\u6c5f\u82cf\u7701", "city": "\u5357\u4eac\u5e02", "area": "\u5efa\u90ba\u533a", "detail": 1, "uid": "33367fad1e0a96c02d4733d0", "detail_info": {"tag": "\u8d2d\u7269;\u5546\u94fa", "type": "shopping", "detail_url": "http://api.map.baidu.com/place/detail?uid=33367fad1e0a96c02d4733d0&output=html&source=placeapi_v2", "children": [], "lat": 32.011524345695406, "lng": 118.69143504048269}}, {"name": "\u6c5f\u6d77\u4e94\u91d1\u5efa\u6750\u603b\u6c47", "location": {"lat": 32.010237855648626, "lng": 118.69514057053068}, "address": "\u5357\u4eac\u5e02\u5efa\u90ba\u533a\u6d32\u6cf0\u8def\u4e0e\u6c11\u5b89\u8def\u4ea4\u53c9\u8def\u53e3\u897f\u5357\u4fa7(\u5357\u4eac\u5e02\u516c\u5b89\u5c40\u5efa\u90ba\u5206\u5c40\u6c5f\u5fc3\u6d32\u6d3e\u51fa\u6240\u897f\u5317\u4fa7)", "province": "\u6c5f\u82cf\u7701", "city": "\u5357\u4eac\u5e02", "area": "\u5efa\u90ba\u533a", "street_id": "a4efdeef862093fa3586f483", "telephone": "13770599123", "detail": 1, "uid": "a4efdeef862093fa3586f483", "detail_info": {"tag": "\u8d2d\u7269;\u5bb6\u5c45\u5efa\u6750", "navi_location": {"lng": 118.70662460185, "lat": 32.014320787611}, "type": "shopping", "detail_url": "http://api.map.baidu.com/place/detail?uid=a4efdeef862093fa3586f483&output=html&source=placeapi_v2", "children": [], "lat": 32.010237855648626, "lng": 118.69514057053068}}, {"name": "\u4fca\u9752\u70df\u9152\u767e\u8d27\u5e97", "location": {"lat": 32.00974060445578, "lng": 118.69465362264889}, "address": "\u6c5f\u82cf\u7701\u5357\u4eac\u5e02\u5efa\u90ba\u533a\u6c11\u5b89\u8def\u4e0e\u6d32\u6cf0\u8def\u4ea4\u53c9\u53e3\u897f\u5357100\u7c73", "province": "\u6c5f\u82cf\u7701", "city": "\u5357\u4eac\u5e02", "area": "\u5efa\u90ba\u533a", "street_id": "17cc686b6bc8df0beb56fa65", "detail": 1, "uid": "17cc686b6bc8df0beb56fa65", "detail_info": {"tag": "\u8d2d\u7269;\u5546\u94fa", "navi_location": {"lng": 118.70614393548, "lat": 32.013849903494}, "type": "shopping", "detail_url": "http://api.map.baidu.com/place/detail?uid=17cc686b6bc8df0beb56fa65&output=html&source=placeapi_v2", "children": [], "lat": 32.00974060445578, "lng": 118.69465362264889}}, {"name": "\u6e05\u84b8\u8349\u9e21\u5364\u83dc\u70df\u9152\u767e\u8d27\u5e97", "location": {"lat": 32.012420387535016, "lng": 118.68922144435622}, "address": "\u6c5f\u5fc3\u6d32\u533b\u9662\u65c1\u70df\u9152\u767e\u8d27\u5364\u83dc\u5e97", "province": "\u6c5f\u82cf\u7701", "city": "\u5357\u4eac\u5e02", "area": "\u5efa\u90ba\u533a", "telephone": "13276678686", "detail": 1, "uid": "1f43775966d096297402690c", "detail_info": {"tag": "\u8d2d\u7269;\u5546\u94fa", "type": "shopping", "detail_url": "http://api.map.baidu.com/place/detail?uid=1f43775966d096297402690c&output=html&source=placeapi_v2", "children": [], "lat": 32.012420387535016, "lng": 118.68922144435622}}, {"name": "\u548c\u4e30\u79be\u9ad8\u5c14\u592b\u4e13\u5356\u5e97", "location": {"lat": 32.00593167669642, "lng": 118.70226028746919}, "address": "\u5174\u9686\u8857\u9053\u626c\u5b50\u6c5f\u5927\u9053268\u53f7\u9999\u9633\u697c\u5927\u9152\u5e97\u5185", "province": "\u6c5f\u82cf\u7701", "city": "\u5357\u4eac\u5e02", "area": "\u5efa\u90ba\u533a", "street_id": "7eb98e02e9558d36ce04efa2", "detail": 1, "uid": "7eb98e02e9558d36ce04efa2", "detail_info": {"tag": "\u8d2d\u7269;\u5546\u94fa", "type": "shopping", "detail_url": "http://api.map.baidu.com/place/detail?uid=7eb98e02e9558d36ce04efa2&output=html&source=placeapi_v2", "children": [], "lat": 32.00593167669642, "lng": 118.70226028746919}}, {"name": "\u4e91\u9f0e\u7a97\u5e18", "location": {"lat": 32.00920398706768, "lng": 118.69462080760107}, "address": "\u6c5f\u82cf\u7701\u5357\u4eac\u5e02\u5efa\u90ba\u533a\u6d32\u6cf0\u8def\u6c5f\u5fc3\u6d32\u68cb\u6746\u4e2d\u5fc3\u8857111\u53f7", "province": "\u6c5f\u82cf\u7701", "city": "\u5357\u4eac\u5e02", "area": "\u5efa\u90ba\u533a", "detail": 1, "uid": "d622bb33fb28ea755cbe86f7", "detail_info": {"tag": "\u8d2d\u7269;\u5bb6\u5c45\u5efa\u6750", "detail_url": "http://api.map.baidu.com/place/detail?uid=d622bb33fb28ea755cbe86f7&output=html&source=placeapi_v2", "children": [], "lat": 32.00920398706768, "lng": 118.69462080760107}}, {"name": "\u5357\u4eac\u5e02\u6c5f\u5c9b\u65b0\u5929\u5730", "location": {"lat": 32.02771449268373, "lng": 118.70067766088887}, "address": "\u5357\u4eac\u5e02\u5efa\u90ba\u533a\u73af\u5c9b\u4e1c\u8def99\u53f7", "province": "\u6c5f\u82cf\u7701", "city": "\u5357\u4eac\u5e02", "area": "\u5efa\u90ba\u533a", "street_id": "532982df3b13754f744ff1f2", "detail": 1, "uid": "532982df3b13754f744ff1f2", "detail_info": {"tag": "\u8d2d\u7269;\u8d2d\u7269\u4e2d\u5fc3", "navi_location": {"lng": 118.71215308552, "lat": 32.032364223276}, "type": "shopping", "detail_url": "http://api.map.baidu.com/place/detail?uid=532982df3b13754f744ff1f2&output=html&source=placeapi_v2", "overall_rating": "4.0", "comment_num": "5", "children": [], "lat": 32.02771449268373, "lng": 118.70067766088887}}, {"name": "\u4ec1\u6052\u7f6e\u5730\u5e7f\u573a", "location": {"lat": 32.031222125529965, "lng": 118.69803799618235}, "address": "\u6c5f\u82cf\u7701\u5357\u4eac\u5e02\u5efa\u90ba\u533a\u4ec1\u6052\u7eff\u6d32\u65b0\u5c9b\u6c34\u6728\u56ed\u5317(\u661f\u5c9b\u8def\u5317)", "province": "\u6c5f\u82cf\u7701", "city": "\u5357\u4eac\u5e02", "area": "\u5efa\u90ba\u533a", "detail": 1, "uid": "a73d596cfb7d241b72455bbd", "detail_info": {"tag": "\u8d2d\u7269;\u8d2d\u7269\u4e2d\u5fc3", "type": "shopping", "detail_url": "http://api.map.baidu.com/place/detail?uid=a73d596cfb7d241b72455bbd&output=html&source=placeapi_v2", "children": [], "lat": 32.031222125529965, "lng": 118.69803799618235}}, {"name": "\u82cf\u679c\u8d85\u5e02(\u7ea2\u661f\u8857\u5e97)", "location": {"lat": 32.02807614289161, "lng": 118.69051127042437}, "address": "\u6d32\u5c9b\u5bb6\u56ed\u90bb\u91cc\u4e2d\u5fc3\u4e8c\u697c", "province": "\u6c5f\u82cf\u7701", "city": "\u5357\u4eac\u5e02", "area": "\u5efa\u90ba\u533a", "street_id": "52bd183f5dd34f9ebea240f3", "telephone": "(025)86526605", "detail": 1, "uid": "52bd183f5dd34f9ebea240f3", "detail_info": {"tag": "\u8d2d\u7269;\u8d85\u5e02", "navi_location": {"lng": 118.70259567274, "lat": 32.03254647128}, "type": "shopping", "detail_url": "http://api.map.baidu.com/place/detail?uid=52bd183f5dd34f9ebea240f3&output=html&source=placeapi_v2", "overall_rating": "4.0", "comment_num": "3", "children": [], "lat": 32.02807614289161, "lng": 118.69051127042437}}, {"name": "\u79d1\u5df7\u83dc\u573a(\u6d32\u5c9b\u5bb6\u56ed\u5e97)", "location": {"lat": 32.02787220008353, "lng": 118.69043288748541}, "address": "\u4e2d\u65b0\u5357\u4eac\u751f\u6001\u79d1\u6280\u5c9b\u6c5f\u5fc3\u6d32\u6d32\u5c9b\u5bb6\u56ed", "province": "\u6c5f\u82cf\u7701", "city": "\u5357\u4eac\u5e02", "area": "\u5efa\u90ba\u533a", "street_id": "860a23ccc9f4e6ad00ff2d42", "detail": 1, "uid": "860a23ccc9f4e6ad00ff2d42", "detail_info": {"tag": "\u8d2d\u7269;\u5546\u94fa", "navi_location": {"lng": 118.70186360888, "lat": 32.032072379284}, "type": "shopping", "detail_url": "http://api.map.baidu.com/place/detail?uid=860a23ccc9f4e6ad00ff2d42&output=html&source=placeapi_v2", "overall_rating": "3.8", "comment_num": "6", "children": [], "lat": 32.02787220008353, "lng": 118.69043288748541}}, {"name": "\u6d32\u5c9b\u5bb6\u56ed\u90bb\u91cc\u4e2d\u5fc3", "location": {"lat": 32.02816310507394, "lng": 118.69067426983752}, "address": "\u5357\u4eac\u5e02\u5efa\u90ba\u533a\u7ea2\u661f\u8857(\u6d32\u5c9b\u5bb6\u56ed-\u7eff\u6d32\u82d1)", "province": "\u6c5f\u82cf\u7701", "city": "\u5357\u4eac\u5e02", "area": "\u5efa\u90ba\u533a", "street_id": "49d26ee1bb53103c77026956", "detail": 1, "uid": "49d26ee1bb53103c77026956", "detail_info": {"tag": "\u8d2d\u7269;\u5176\u4ed6", "navi_location": {"lng": 118.70261766146, "lat": 32.032553166664}, "type": "shopping", "detail_url": "http://api.map.baidu.com/place/detail?uid=49d26ee1bb53103c77026956&output=html&source=placeapi_v2", "children": [], "lat": 32.02816310507394, "lng": 118.69067426983752}}, {"name": "\u8d2d\u597d\u8d85\u5e02\u7eff\u6d32\u82d1\u5e97", "location": {"lat": 32.02527540125552, "lng": 118.69333390355798}, "address": "\u6c5f\u82cf\u7701\u5357\u4eac\u5e02\u5efa\u90ba\u533a\u7eff\u6d32\u82d13\u5e62", "province": "\u6c5f\u82cf\u7701", "city": "\u5357\u4eac\u5e02", "area": "\u5efa\u90ba\u533a", "telephone": "(025)85871778", "detail": 1, "uid": "cbc825b50cc5a6d6bca822fc", "detail_info": {"tag": "\u8d2d\u7269;\u8d85\u5e02", "type": "shopping", "detail_url": "http://api.map.baidu.com/place/detail?uid=cbc825b50cc5a6d6bca822fc&output=html&source=placeapi_v2", "children": [], "lat": 32.02527540125552, "lng": 118.69333390355798}}, {"name": "\u90bb\u4ed5\u5bb6\u9ad8\u7ea7\u8fde\u9501\u4fbf\u5229(\u6c5f\u5fc3\u6d322\u5e97)", "location": {"lat": 32.0282107399891, "lng": 118.69089099083615}, "address": "\u5357\u4eac\u5e02\u5efa\u90ba\u533a\u6c5f\u5fc3\u6d32\u7ea2\u661f\u8def86\u53f7\u6d32\u5c9b\u5bb6\u56ed\u90bb\u91cc\u793e\u533a\u4e2d\u5fc32\u697c", "province": "\u6c5f\u82cf\u7701", "city": "\u5357\u4eac\u5e02", "area": "\u5efa\u90ba\u533a", "detail": 1, "uid": "1aa2019b7c575d39db131813", "detail_info": {"tag": "\u8d2d\u7269;\u5176\u4ed6", "type": "shopping", "detail_url": "http://api.map.baidu.com/place/detail?uid=1aa2019b7c575d39db131813&output=html&source=placeapi_v2", "overall_rating": "5.0", "comment_num": "1", "children": [], "lat": 32.0282107399891, "lng": 118.69089099083615}}, {"name": "\u7ea2\u661f\u70df\u9152(\u6797\u836b\u8def\u5e97)", "location": {"lat": 32.02555718346614, "lng": 118.69698074738538}, "address": "\u5357\u4eac\u5e02\u5efa\u90ba\u533a\u6797\u836b\u8def(\u4ec1\u6052\u00b7\u7eff\u6d32\u65b0\u5c9b2\u671f\u4e1c\u5357\u4fa7\u7ea6200\u7c73)", "province": "\u6c5f\u82cf\u7701", "city": "\u5357\u4eac\u5e02", "area": "\u5efa\u90ba\u533a", "detail": 1, "uid": "39a8db3477a013748605bfdb", "detail_info": {"tag": "\u8d2d\u7269;\u5546\u94fa", "type": "shopping", "detail_url": "http://api.map.baidu.com/place/detail?uid=39a8db3477a013748605bfdb&output=html&source=placeapi_v2", "children": [], "lat": 32.02555718346614, "lng": 118.69698074738538}}, {"name": "\u80d6\u5b50\u8f66\u884c(\u6797\u836b\u8def\u5e97)", "location": {"lat": 32.02164979830559, "lng": 118.69316634499829}, "address": "\u6797\u836b\u8def\u897f50\u7c73", "province": "\u6c5f\u82cf\u7701", "city": "\u5357\u4eac\u5e02", "area": "\u5efa\u90ba\u533a", "detail": 1, "uid": "8e68fa72828a5fffea12e434", "detail_info": {"tag": "\u8d2d\u7269;\u5546\u94fa", "type": "shopping", "detail_url": "http://api.map.baidu.com/place/detail?uid=8e68fa72828a5fffea12e434&output=html&source=placeapi_v2", "children": [], "lat": 32.02164979830559, "lng": 118.69316634499829}}, {"name": "\u6d77\u76d7\u8239", "location": {"lat": 32.02798903055901, "lng": 118.70593028525599}, "address": "\u6c5f\u82cf\u7701\u5357\u4eac\u5e02\u5efa\u90ba\u533a\u626c\u5b50\u6c5f\u5927\u9053228", "province": "\u6c5f\u82cf\u7701", "city": "\u5357\u4eac\u5e02", "area": "\u5efa\u90ba\u533a", "street_id": "ee456429e5777ef683288a26", "detail": 1, "uid": "ee456429e5777ef683288a26", "detail_info": {"tag": "\u8d2d\u7269;\u5546\u94fa", "type": "shopping", "detail_url": "http://api.map.baidu.com/place/detail?uid=ee456429e5777ef683288a26&output=html&source=placeapi_v2", "children": [], "lat": 32.02798903055901, "lng": 118.70593028525599}}, {"name": "\u6c5f\u5c9b\u5c0f\u5c4b", "location": {"lat": 32.027943279642464, "lng": 118.69077190020299}, "address": "\u6c5f\u5fc3\u6d32\u8857\u9053\u7ea2\u661f\u885786\u53f7\u79d1\u5df7\u83dc\u573a\u6d32\u5c9b\u5bb6\u56ed\u5e97\u5305\u95f425", "province": "\u6c5f\u82cf\u7701", "city": "\u5357\u4eac\u5e02", "area": "\u5efa\u90ba\u533a", "telephone": "15380954365", "detail": 1, "uid": "98872e5489efb30900ff2d84", "detail_info": {"tag": "\u8d2d\u7269;\u5546\u94fa", "type": "shopping", "detail_url": "http://api.map.baidu.com/place/detail?uid=98872e5489efb30900ff2d84&output=html&source=placeapi_v2", "children": [], "lat": 32.027943279642464, "lng": 118.69077190020299}}, {"name": "\u8001\u77f3\u7092\u8d27(\u6c5f\u5fc3\u6d32\u5e97)", "location": {"lat": 32.02793735194663, "lng": 118.69077787112138}, "address": "\u6c5f\u5fc3\u6d32\u7ea2\u661f\u885786\u53f7\u79d1\u5df7\u83dc\u573a\u5305\u95f422\u53f7", "province": "\u6c5f\u82cf\u7701", "city": "\u5357\u4eac\u5e02", "area": "\u5efa\u90ba\u533a", "telephone": "15295553513", "detail": 1, "uid": "abd03a21c8d1c2876c3e1ba0", "detail_info": {"tag": "\u8d2d\u7269;\u5546\u94fa", "type": "life", "detail_url": "http://api.map.baidu.com/place/detail?uid=abd03a21c8d1c2876c3e1ba0&output=html&source=placeapi_v2", "image_num": "1", "children": [], "lat": 32.02793735194663, "lng": 118.69077787112138}}, {"name": "\u6613\u829d\u8fe6", "location": {"lat": 32.028077428737305, "lng": 118.70049457700105}, "address": "\u6c5f\u82cf\u7701\u5357\u4eac\u5e02\u5efa\u90ba\u533a\u6c5f\u5fc3\u6d32\u73af\u5c9b\u4e1c\u8def99\u53f7", "province": "\u6c5f\u82cf\u7701", "city": "\u5357\u4eac\u5e02", "area": "\u5efa\u90ba\u533a", "street_id": "61555efeec7d9aee3b221cf9", "detail": 1, "uid": "61555efeec7d9aee3b221cf9", "detail_info": {"tag": "\u7f8e\u98df;\u5496\u5561\u5385", "type": "cater", "detail_url": "http://api.map.baidu.com/place/detail?uid=61555efeec7d9aee3b221cf9&output=html&source=placeapi_v2", "children": [], "lat": 32.028077428737305, "lng": 118.70049457700105}}, {"name": "\u8d2d\u597d\u751f\u6d3b\u8d85\u5e02", "location": {"lat": 32.0421531906456, "lng": 118.70381396148996}, "address": "\u7eff\u6c34\u885729\u53f7", "province": "\u6c5f\u82cf\u7701", "city": "\u5357\u4eac\u5e02", "area": "\u5efa\u90ba\u533a", "street_id": "ad886febb74503679cec2b6a", "detail": 1, "uid": "ad886febb74503679cec2b6a", "detail_info": {"tag": "\u8d2d\u7269;\u8d85\u5e02", "type": "shopping", "detail_url": "http://api.map.baidu.com/place/detail?uid=ad886febb74503679cec2b6a&output=html&source=placeapi_v2", "comment_num": "1", "children": [], "lat": 32.0421531906456, "lng": 118.70381396148996}}, {"name": "\u6c47\u76df\u6e90\u8d85\u5e02", "location": {"lat": 32.04330903229534, "lng": 118.70065484975942}, "address": "\u7eff\u6c34\u885716\u53f7-1", "province": "\u6c5f\u82cf\u7701", "city": "\u5357\u4eac\u5e02", "area": "\u5efa\u90ba\u533a", "street_id": "38d6c5ea118255f716c8f631", "telephone": "13675134024", "detail": 1, "uid": "38d6c5ea118255f716c8f631", "detail_info": {"tag": "\u8d2d\u7269;\u8d85\u5e02", "navi_location": {"lng": 118.71240185146, "lat": 32.047472438737}, "type": "shopping", "detail_url": "http://api.map.baidu.com/place/detail?uid=38d6c5ea118255f716c8f631&output=html&source=placeapi_v2", "children": [], "lat": 32.04330903229534, "lng": 118.70065484975942}}, {"name": "\u54c1\u4e45\u574a\u70df\u9152\u8d85\u5e02", "location": {"lat": 32.042865759507755, "lng": 118.7014649224742}, "address": "\u6c5f\u82cf\u7701\u5357\u4eac\u5e02\u5efa\u90ba\u533a\u7eff\u6c34\u885720-3\u53f7", "province": "\u6c5f\u82cf\u7701", "city": "\u5357\u4eac\u5e02", "area": "\u5efa\u90ba\u533a", "street_id": "bd5ff70c24d49d2aeb12e4c9", "telephone": "13951693445", "detail": 1, "uid": "bd5ff70c24d49d2aeb12e4c9", "detail_info": {"tag": "\u8d2d\u7269;\u5546\u94fa", "type": "shopping", "detail_url": "http://api.map.baidu.com/place/detail?uid=bd5ff70c24d49d2aeb12e4c9&output=html&source=placeapi_v2", "price": "0.0", "children": [], "lat": 32.042865759507755, "lng": 118.7014649224742}}, {"name": "\u68a6\u4e4b\u84dd\u5fb7\u79b9\u8431\u70df\u9152\u5546\u884c", "location": {"lat": 32.043127136431224, "lng": 118.70095703184023}, "address": "\u6c5f\u82cf\u7701\u5357\u4eac\u5e02\u5efa\u90ba\u533a\u7eff\u6c34\u885716-5", "province": "\u6c5f\u82cf\u7701", "city": "\u5357\u4eac\u5e02", "area": "\u5efa\u90ba\u533a", "street_id": "8360b77c5d02a6e114b54be4", "detail": 1, "uid": "8360b77c5d02a6e114b54be4", "detail_info": {"tag": "\u8d2d\u7269;\u5546\u94fa", "type": "shopping", "detail_url": "http://api.map.baidu.com/place/detail?uid=8360b77c5d02a6e114b54be4&output=html&source=placeapi_v2", "children": [], "lat": 32.043127136431224, "lng": 118.70095703184023}}, {"name": "\u798f\u6da6\u56ed\u8d85\u5e02", "location": {"lat": 32.043334593916484, "lng": 118.70648486149229}, "address": "\u661f\u5f71\u885728\u53f7", "province": "\u6c5f\u82cf\u7701", "city": "\u5357\u4eac\u5e02", "area": "\u5efa\u90ba\u533a", "street_id": "703969c2c55738fa00ec01cc", "telephone": "15062263862", "detail": 1, "uid": "703969c2c55738fa00ec01cc", "detail_info": {"tag": "\u8d2d\u7269;\u4fbf\u5229\u5e97", "type": "shopping", "detail_url": "http://api.map.baidu.com/place/detail?uid=703969c2c55738fa00ec01cc&output=html&source=placeapi_v2", "children": [], "lat": 32.043334593916484, "lng": 118.70648486149229}}, {"name": "\u82cf\u5b81\u5c0f\u5e97(\u89c2\u6f9c\u5e97)", "location": {"lat": 32.04313206949533, "lng": 118.7067423867514}, "address": "\u5efa\u90ba\u533a\u661f\u5f71\u885732-2\u53f7", "province": "\u6c5f\u82cf\u7701", "city": "\u5357\u4eac\u5e02", "area": "\u5efa\u90ba\u533a", "street_id": "a4de958c0cb97c945d0d0263", "detail": 1, "uid": "a4de958c0cb97c945d0d0263", "detail_info": {"tag": "\u8d2d\u7269;\u4fbf\u5229\u5e97", "navi_location": {"lng": 118.71842899994, "lat": 32.047125019132}, "type": "shopping", "detail_url": "http://api.map.baidu.com/place/detail?uid=a4de958c0cb97c945d0d0263&output=html&source=placeapi_v2", "price": "0.0", "overall_rating": "5.0", "comment_num": "1", "children": [], "lat": 32.04313206949533, "lng": 118.7067423867514}}, {"name": "\u4e91\u53a8\u4e00\u7ad9(\u6c5f\u5fc3\u6d32\u5e97)", "location": {"lat": 32.04286257372429, "lng": 118.70145399915313}, "address": "\u6c5f\u5fc3\u6d32\u89c2\u6f9c\u6c50\u56ed2\u5e624\u5ba4", "province": "\u6c5f\u82cf\u7701", "city": "\u5357\u4eac\u5e02", "area": "\u5efa\u90ba\u533a", "street_id": "bb9934c4e972d7c43b221c7a", "detail": 1, "uid": "bb9934c4e972d7c43b221c7a", "detail_info": {"tag": "\u8d2d\u7269;\u5176\u4ed6", "type": "shopping", "detail_url": "http://api.map.baidu.com/place/detail?uid=bb9934c4e972d7c43b221c7a&output=html&source=placeapi_v2", "overall_rating": "5.0", "comment_num": "4", "children": [], "lat": 32.04286257372429, "lng": 118.70145399915313}}, {"name": "ECO CITY", "location": {"lat": 32.03244991276988, "lng": 118.70163989268747}, "address": "\u5357\u4eac\u5e02\u5efa\u90ba\u533a\u8461\u56ed\u8def\u4e0e\u8d24\u5764\u8def\u4ea4\u53c9\u8def\u53e3\u4e1c\u4fa7(\u65b0\u52a0\u5761\u00b7\u5357\u4eac\u751f\u6001\u79d1\u6280\u5c9b\u79d1\u521b\u4e2d\u5fc3)", "province": "\u6c5f\u82cf\u7701", "city": "\u5357\u4eac\u5e02", "area": "\u5efa\u90ba\u533a", "street_id": "ed2b50a560ca05c321f0179f", "detail": 1, "uid": "ed2b50a560ca05c321f0179f", "detail_info": {"tag": "\u8d2d\u7269;\u5546\u94fa", "type": "shopping", "detail_url": "http://api.map.baidu.com/place/detail?uid=ed2b50a560ca05c321f0179f&output=html&source=placeapi_v2", "children": [], "lat": 32.03244991276988, "lng": 118.70163989268747}}, {"name": "\u5357\u4eac\u8239\u884c", "location": {"lat": 32.043327660498974, "lng": 118.70631598532448}, "address": "\u5357\u4eac\u5e02\u5efa\u90ba\u533a\u661f\u5f71\u8857\u4e0e\u4e2d\u65b0\u5927\u9053\u4ea4\u53c9\u8def\u53e3\u4e1c\u5357\u4fa7(\u957f\u5c9b\u89c2\u6f9c\u6da6\u56ed)", "province": "\u6c5f\u82cf\u7701", "city": "\u5357\u4eac\u5e02", "area": "\u5efa\u90ba\u533a", "detail": 1, "uid": "6fbf9f595357e9a4dc1e5245", "detail_info": {"tag": "\u8d2d\u7269;\u5546\u94fa", "type": "shopping", "detail_url": "http://api.map.baidu.com/place/detail?uid=6fbf9f595357e9a4dc1e5245&output=html&source=placeapi_v2", "children": [], "lat": 32.043327660498974, "lng": 118.70631598532448}}, {"name": "\u957f\u5c9b\u89c2\u6f9c\u6c81\u56ed\u53ee\u549a\u67dc", "location": {"lat": 32.04345313841525, "lng": 118.70148811732649}, "address": "\u5357\u4eac\u5e02\u5efa\u90ba\u533a\u7eff\u6c34\u8857\u4e0e\u4e9a\u9e4f\u8def\u4ea4\u53c9\u8def\u53e3\u4e1c\u4fa7(\u957f\u5c9b\u89c2\u6f9c\u94f6\u57ce\u6c81\u56ed)", "province": "\u6c5f\u82cf\u7701", "city": "\u5357\u4eac\u5e02", "area": "\u5efa\u90ba\u533a", "detail": 1, "uid": "d380253391fc47c17702697b", "detail_info": {"tag": "\u8d2d\u7269;\u5546\u94fa", "type": "shopping", "detail_url": "http://api.map.baidu.com/place/detail?uid=d380253391fc47c17702697b&output=html&source=placeapi_v2", "children": [], "lat": 32.04345313841525, "lng": 118.70148811732649}}, {"name": "\u7f8e\u7684\u4e2d\u592e\u7a7a\u8c03(\u661f\u5f71\u8857\u5e97)", "location": {"lat": 32.043008658555856, "lng": 118.70694916212078}, "address": "\u661f\u5f71\u8857\u4e0e\u79d1\u6280\u8def\u4ea4\u53c9\u53e3\u897f100\u7c73", "province": "\u6c5f\u82cf\u7701", "city": "\u5357\u4eac\u5e02", "area": "\u5efa\u90ba\u533a", "detail": 1, "uid": "a2be3436e223c8bf35b06c6d", "detail_info": {"tag": "\u8d2d\u7269;\u5bb6\u7535\u6570\u7801", "type": "shopping", "detail_url": "http://api.map.baidu.com/place/detail?uid=a2be3436e223c8bf35b06c6d&output=html&source=placeapi_v2", "children": [], "lat": 32.043008658555856, "lng": 118.70694916212078}}, {"name": "\u4e09\u83f1\u91cd\u5de5\u7a7a\u8c03(\u661f\u5f71\u8857\u4f53\u9a8c\u5e97)", "location": {"lat": 32.043546663499605, "lng": 118.70614388202993}, "address": "\u6c5f\u82cf\u7701\u5357\u4eac\u5e02\u5efa\u90ba\u533a\u661f\u5f71\u885728-4\u53f7", "province": "\u6c5f\u82cf\u7701", "city": "\u5357\u4eac\u5e02", "area": "\u5efa\u90ba\u533a", "street_id": "8f8da16abe32bfb6902ca345", "detail": 1, "uid": "8f8da16abe32bfb6902ca345", "detail_info": {"tag": "\u8d2d\u7269;\u5bb6\u7535\u6570\u7801", "navi_location": {"lng": 118.71795628553, "lat": 32.047565589222}, "type": "shopping", "detail_url": "http://api.map.baidu.com/place/detail?uid=8f8da16abe32bfb6902ca345&output=html&source=placeapi_v2", "overall_rating": "0.0", "comment_num": "1", "children": [], "lat": 32.043546663499605, "lng": 118.70614388202993}}, {"name": "\u66fc\u4ed5\u4e50\u667a\u80fd", "location": {"lat": 32.04305631298616, "lng": 118.70687161953532}, "address": "\u5357\u4eac\u5e02\u5efa\u90ba\u533a\u661f\u5f71\u8857\u4e0e\u79d1\u6280\u8def\u4ea4\u53c9\u8def\u53e3\u897f\u5317\u4fa7(\u957f\u5c9b\u89c2\u6f9c\u6da6\u56ed)", "province": "\u6c5f\u82cf\u7701", "city": "\u5357\u4eac\u5e02", "area": "\u5efa\u90ba\u533a", "detail": 1, "uid": "8502baf53e385fa1b1077d8b", "detail_info": {"tag": "\u8d2d\u7269;\u5bb6\u7535\u6570\u7801", "type": "shopping", "detail_url": "http://api.map.baidu.com/place/detail?uid=8502baf53e385fa1b1077d8b&output=html&source=placeapi_v2", "children": [], "lat": 32.04305631298616, "lng": 118.70687161953532}}, {"name": "\u539f\u8c37\u5171\u4eab\u519c\u573a(\u957f\u5c9b\u63d0\u8d27\u70b9)", "location": {"lat": 32.04310361649856, "lng": 118.70104447315117}, "address": "\u5357\u4eac\u5e02\u5efa\u90ba\u533a\u7eff\u6c34\u8857\u4e0e\u4e9a\u9e4f\u8def\u4ea4\u53c9\u8def\u53e3\u4e1c\u5357\u4fa7(\u957f\u5c9b\u89c2\u6f9c\u6c50\u56ed)", "province": "\u6c5f\u82cf\u7701", "city": "\u5357\u4eac\u5e02", "area": "\u5efa\u90ba\u533a", "street_id": "30fb7c31e554646e5e17c325", "detail": 1, "uid": "30fb7c31e554646e5e17c325", "detail_info": {"tag": "\u516c\u53f8\u4f01\u4e1a;\u516c\u53f8", "type": "enterprise", "detail_url": "http://api.map.baidu.com/place/detail?uid=30fb7c31e554646e5e17c325&output=html&source=placeapi_v2", "children": [], "lat": 32.04310361649856, "lng": 118.70104447315117}}, {"name": "\u4fbf\u5229\u5bb6\u8d85\u5e02(\u6c5f\u5fc3\u6d32\u5e97)", "location": {"lat": 32.04586664515253, "lng": 118.70251458543135}, "address": "\u6c5f\u82cf\u7701\u5357\u4eac\u5e02\u5efa\u90ba\u533a\u661f\u5f71\u885710-1\u53f7", "province": "\u6c5f\u82cf\u7701", "city": "\u5357\u4eac\u5e02", "area": "\u5efa\u90ba\u533a", "street_id": "52205176cf1db0ab100daa58", "telephone": "13813827706", "detail": 1, "uid": "52205176cf1db0ab100daa58", "detail_info": {"tag": "\u8d2d\u7269;\u8d85\u5e02", "navi_location": {"lng": 118.71427900006, "lat": 32.049777019664}, "type": "shopping", "detail_url": "http://api.map.baidu.com/place/detail?uid=52205176cf1db0ab100daa58&output=html&source=placeapi_v2", "overall_rating": "3.7", "comment_num": "3", "children": [], "lat": 32.04586664515253, "lng": 118.70251458543135}}, {"name": "\u601d\u601d\u9152\u4e1a", "location": {"lat": 32.0456419019147, "lng": 118.70627570500478}, "address": "\u6c5f\u5fc3\u6d32\u5347\u9f99\u6c5f\u5c9b\u65f6\u4ee38-116", "province": "\u6c5f\u82cf\u7701", "city": "\u5357\u4eac\u5e02", "area": "\u5efa\u90ba\u533a", "telephone": "13057618950", "detail": 1, "uid": "65c9f43b7a5cdcfc6240a9c2", "detail_info": {"tag": "\u8d2d\u7269;\u5546\u94fa", "type": "shopping", "detail_url": "http://api.map.baidu.com/place/detail?uid=65c9f43b7a5cdcfc6240a9c2&output=html&source=placeapi_v2", "children": [], "lat": 32.0456419019147, "lng": 118.70627570500478}}, {"name": "\u5357\u4eac\u8baf\u6c38\u901a\u8baf\u8bbe\u5907\u7ecf\u8425\u90e8", "location": {"lat": 32.04557417608874, "lng": 118.70289336269327}, "address": "\u661f\u5f71\u885712-5\u53f7", "province": "\u6c5f\u82cf\u7701", "city": "\u5357\u4eac\u5e02", "area": "\u5efa\u90ba\u533a", "telephone": "(025)86331259", "detail": 1, "uid": "b2e08763317f8edc593ac8df", "detail_info": {"tag": "\u8d2d\u7269;\u5bb6\u7535\u6570\u7801", "type": "shopping", "detail_url": "http://api.map.baidu.com/place/detail?uid=b2e08763317f8edc593ac8df&output=html&source=placeapi_v2", "children": [], "lat": 32.04557417608874, "lng": 118.70289336269327}}, {"name": "\u667a\u6df3\u6c5f\u8239\u8236\u4ea4\u6613\u4e2d\u5fc3", "location": {"lat": 32.053912649936315, "lng": 118.70574677341163}, "address": "\u6c5f\u82cf\u7701\u5357\u4eac\u5e02\u5efa\u90ba\u533a\u6c5f\u5824\u8def", "province": "\u6c5f\u82cf\u7701", "city": "\u5357\u4eac\u5e02", "area": "\u5efa\u90ba\u533a", "street_id": "893abb08338281276d20b91d", "detail": 1, "uid": "893abb08338281276d20b91d", "detail_info": {"tag": "\u8d2d\u7269;\u5546\u94fa", "type": "shopping", "detail_url": "http://api.map.baidu.com/place/detail?uid=893abb08338281276d20b91d&output=html&source=placeapi_v2", "children": [], "lat": 32.053912649936315, "lng": 118.70574677341163}}, {"name": "PARK MANSION", "location": {"lat": 32.0478514905633, "lng": 118.7075817296392}, "address": "\u5357\u4eac\u5e02\u5efa\u90ba\u533a\u6587\u6b66\u8857\u4e0e\u4e2d\u65b0\u5927\u9053\u4ea4\u53c9\u8def\u53e3\u897f\u5317\u4fa7(\u5347\u9f99\u516c\u56ed\u9053)", "province": "\u6c5f\u82cf\u7701", "city": "\u5357\u4eac\u5e02", "area": "\u5efa\u90ba\u533a", "street_id": "f74eef302c8515e23b221cc9", "detail": 1, "uid": "f74eef302c8515e23b221cc9", "detail_info": {"tag": "\u8d2d\u7269;\u5546\u94fa", "type": "shopping", "detail_url": "http://api.map.baidu.com/place/detail?uid=f74eef302c8515e23b221cc9&output=html&source=placeapi_v2", "children": [], "lat": 32.0478514905633, "lng": 118.7075817296392}}, {"name": "\u4e2d\u592e\u5546\u573a(\u6cb3\u897f\u5e97)", "location": {"lat": 32.00913212591817, "lng": 118.72695373373763}, "address": "\u5357\u4eac\u5e02\u5efa\u90ba\u533a\u6c5f\u4e1c\u4e2d\u8def237\u53f7", "province": "\u6c5f\u82cf\u7701", "city": "\u5357\u4eac\u5e02", "area": "\u5efa\u90ba\u533a", "street_id": "d2e87ff216e24ca7276e987b", "telephone": "(025)58017512", "detail": 1, "uid": "d2e87ff216e24ca7276e987b", "detail_info": {"tag": "\u8d2d\u7269;\u8d2d\u7269\u4e2d\u5fc3", "navi_location": {"lng": 118.73863493163, "lat": 32.011818012351}, "type": "shopping", "detail_url": "http://api.map.baidu.com/place/detail?uid=d2e87ff216e24ca7276e987b&output=html&source=placeapi_v2", "price": "189.0", "overall_rating": "4.1", "comment_num": "109", "children": [], "lat": 32.00913212591817, "lng": 118.72695373373763}}, {"name": "\u4e16\u7eaa\u534e\u8054\u8d85\u5e02(\u5965\u4f53\u5e97)", "location": {"lat": 32.010822859162175, "lng": 118.71256582369689}, "address": "\u5357\u4eac\u5e02\u5efa\u90ba\u533a\u4e50\u5c71\u8def180-1", "province": "\u6c5f\u82cf\u7701", "city": "\u5357\u4eac\u5e02", "area": "\u5efa\u90ba\u533a", "street_id": "18d9bfac9b73e41cdc1e5299", "telephone": "18118846726,13770787941", "detail": 1, "uid": "18d9bfac9b73e41cdc1e5299", "detail_info": {"tag": "\u8d2d\u7269;\u8d85\u5e02", "type": "shopping", "detail_url": "http://api.map.baidu.com/place/detail?uid=18d9bfac9b73e41cdc1e5299&output=html&source=placeapi_v2", "price": "50.0", "overall_rating": "3.8", "comment_num": "12", "children": [], "lat": 32.010822859162175, "lng": 118.71256582369689}}, {"name": "\u73af\u5b87\u878d\u4fa8\u5e7f\u573a", "location": {"lat": 32.00628532043484, "lng": 118.71734048095679}, "address": "\u5357\u4eac\u5e02\u5efa\u90ba\u533a\u5965\u4f53\u5927\u8857177\u53f7", "province": "\u6c5f\u82cf\u7701", "city": "\u5357\u4eac\u5e02", "area": "\u5efa\u90ba\u533a", "street_id": "64f4ef922e542653f7b91696", "telephone": "(025)83214851", "detail": 1, "uid": "64f4ef922e542653f7b91696", "detail_info": {"tag": "\u8d2d\u7269;\u8d2d\u7269\u4e2d\u5fc3", "navi_location": {"lng": 118.72844661553, "lat": 32.01005806547}, "type": "shopping", "detail_url": "http://api.map.baidu.com/place/detail?uid=64f4ef922e542653f7b91696&output=html&source=placeapi_v2", "price": "50.0", "overall_rating": "4.0", "comment_num": "8", "children": [], "lat": 32.00628532043484, "lng": 118.71734048095679}}, {"name": "\u597d\u53c8\u591a\u8d85\u5e02(\u68a6\u90fd\u5927\u8857\u5e97)", "location": {"lat": 32.014291858446754, "lng": 118.7234718981812}, "address": "\u68a6\u90fd\u5927\u8857138\u53f7\u7d2b\u946b\u5546\u52a1\u82b1\u56edD2\u5e62", "province": "\u6c5f\u82cf\u7701", "city": "\u5357\u4eac\u5e02", "area": "\u5efa\u90ba\u533a", "street_id": "a4655a686da462a42202622c", "telephone": "15895820095", "detail": 1, "uid": "a4655a686da462a42202622c", "detail_info": {"tag": "\u8d2d\u7269;\u8d85\u5e02", "type": "shopping", "detail_url": "http://api.map.baidu.com/place/detail?uid=a4655a686da462a42202622c&output=html&source=placeapi_v2", "children": [], "lat": 32.014291858446754, "lng": 118.7234718981812}}, {"name": "\u73cd\u5b9d\u574a(\u5965\u4f53\u5e97)", "location": {"lat": 32.00637852409315, "lng": 118.71728081161801}, "address": "\u5965\u4f53\u5927\u8857177\u53f7\u4e09\u5c42302-303\u5546\u94fa", "province": "\u6c5f\u82cf\u7701", "city": "\u5357\u4eac\u5e02", "area": "\u5efa\u90ba\u533a", "street_id": "acdeddcdb4acd4f6cafa5f07", "telephone": "(025)86563777", "detail": 1, "uid": "acdeddcdb4acd4f6cafa5f07", "detail_info": {"tag": "\u8d2d\u7269;\u5176\u4ed6", "navi_location": {"lng": 118.72954898102, "lat": 32.010111787701}, "type": "shopping", "detail_url": "http://api.map.baidu.com/place/detail?uid=acdeddcdb4acd4f6cafa5f07&output=html&source=placeapi_v2", "overall_rating": "4.2", "comment_num": "17", "children": [], "lat": 32.00637852409315, "lng": 118.71728081161801}}, {"name": "\u6797\u5b9d\u5802\u8336\u751f\u6d3b\u9986(\u5357\u4eac\u5965\u4f53\u5e97)", "location": {"lat": 32.01499521019728, "lng": 118.72164903553555}, "address": "\u6c5f\u82cf\u7701\u5357\u4eac\u5e02\u5efa\u90ba\u533a\u68a6\u90fd\u5927\u8857150\u53f7", "province": "\u6c5f\u82cf\u7701", "city": "\u5357\u4eac\u5e02", "area": "\u5efa\u90ba\u533a", "street_id": "d42cb53feb2e80e708a8d412", "telephone": "(025)58657299", "detail": 1, "uid": "d42cb53feb2e80e708a8d412", "detail_info": {"tag": "\u8d2d\u7269;\u5546\u94fa", "navi_location": {"lng": 118.73334002521, "lat": 32.018578974093}, "type": "shopping", "detail_url": "http://api.map.baidu.com/place/detail?uid=d42cb53feb2e80e708a8d412&output=html&source=placeapi_v2", "overall_rating": "4.7", "comment_num": "6", "children": [], "lat": 32.01499521019728, "lng": 118.72164903553555}}, {"name": "\u597d\u597d\u8d85\u5e02(\u73af\u5b87\u878d\u4fa8\u5e7f\u573a\u5e97)", "location": {"lat": 32.00632394871865, "lng": 118.71709676234843}, "address": "\u5965\u4f53\u5927\u8857177\u53f7\u73af\u5b87\u878d\u4fa8\u5e7f\u573a\u5185", "province": "\u6c5f\u82cf\u7701", "city": "\u5357\u4eac\u5e02", "area": "\u5efa\u90ba\u533a", "street_id": "2ad7c11a83a4ab992cb9087f", "telephone": "13675187387,13913914443", "detail": 1, "uid": "2ad7c11a83a4ab992cb9087f", "detail_info": {"tag": "\u8d2d\u7269;\u8d85\u5e02", "type": "shopping", "detail_url": "http://api.map.baidu.com/place/detail?uid=2ad7c11a83a4ab992cb9087f&output=html&source=placeapi_v2", "overall_rating": "4.0", "comment_num": "1", "children": [], "lat": 32.00632394871865, "lng": 118.71709676234843}}, {"name": "\u7f57\u68ee\u4fbf\u5229\u5e97(\u5174\u9686\u5927\u8857\u5e97)", "location": {"lat": 32.0187888814751, "lng": 118.7239218104031}, "address": "\u6c5f\u82cf\u7701\u5357\u4eac\u5e02\u5efa\u90ba\u533a\u5174\u9686\u5927\u8857171-1\u53f7", "province": "\u6c5f\u82cf\u7701", "city": "\u5357\u4eac\u5e02", "area": "\u5efa\u90ba\u533a", "street_id": "3cef49894423089330169b1d", "detail": 1, "uid": "3cef49894423089330169b1d", "detail_info": {"tag": "\u8d2d\u7269;\u4fbf\u5229\u5e97", "navi_location": {"lng": 118.73575610501, "lat": 32.022565470556}, "type": "shopping", "detail_url": "http://api.map.baidu.com/place/detail?uid=3cef49894423089330169b1d&output=html&source=placeapi_v2", "overall_rating": "4.2", "comment_num": "55", "children": [], "lat": 32.0187888814751, "lng": 118.7239218104031}}, {"name": "\u5473\u548c\u6c0f\u8d85\u5e02", "location": {"lat": 32.01095088602052, "lng": 118.71721459162973}, "address": "\u6c5f\u82cf\u7701\u5357\u4eac\u5e02\u5efa\u90ba\u533a\u91d1\u5965\u56fd\u9645\u8d2d\u7269\u4e2d\u5fc3", "province": "\u6c5f\u82cf\u7701", "city": "\u5357\u4eac\u5e02", "area": "\u5efa\u90ba\u533a", "detail": 1, "uid": "3bf410dc46f8ed70d518b7ea", "detail_info": {"tag": "\u8d2d\u7269;\u8d85\u5e02", "type": "shopping", "detail_url": "http://api.map.baidu.com/place/detail?uid=3bf410dc46f8ed70d518b7ea&output=html&source=placeapi_v2", "children": [], "lat": 32.01095088602052, "lng": 118.71721459162973}}, {"name": "\u82cf\u5f3a\u70df\u9152(\u68a6\u90fd\u603b\u5e97)", "location": {"lat": 32.01784945112424, "lng": 118.71637660261034}, "address": "\u6c5f\u82cf\u7701\u5357\u4eac\u5e02\u5efa\u90ba\u533a\u5174\u9686\u8857\u9053\u68a6\u90fd\u5927\u8857176-2\u53f7108\u5ba4", "province": "\u6c5f\u82cf\u7701", "city": "\u5357\u4eac\u5e02", "area": "\u5efa\u90ba\u533a", "street_id": "ee5409648aae043281288a1e", "telephone": "(025)86697395", "detail": 1, "uid": "ee5409648aae043281288a1e", "detail_info": {"tag": "\u8d2d\u7269;\u5546\u94fa", "navi_location": {"lng": 118.72818056338, "lat": 32.02156810207}, "type": "shopping", "detail_url": "http://api.map.baidu.com/place/detail?uid=ee5409648aae043281288a1e&output=html&source=placeapi_v2", "overall_rating": "2.0", "comment_num": "2", "children": [], "lat": 32.01784945112424, "lng": 118.71637660261034}}, {"name": "SPALDING", "location": {"lat": 32.01176328411774, "lng": 118.7197440168111}, "address": "\u71d5\u5c71\u8def\u9644\u8fd1", "province": "\u6c5f\u82cf\u7701", "city": "\u5357\u4eac\u5e02", "area": "\u5efa\u90ba\u533a", "street_id": "94de27fff0cc024352e5c5af", "detail": 1, "uid": "94de27fff0cc024352e5c5af", "detail_info": {"tag": "\u8d2d\u7269;\u5546\u94fa", "type": "shopping", "detail_url": "http://api.map.baidu.com/place/detail?uid=94de27fff0cc024352e5c5af&output=html&source=placeapi_v2", "overall_rating": "3.0", "comment_num": "1", "children": [], "lat": 32.01176328411774, "lng": 118.7197440168111}}, {"name": "\u6ce2\u53f8\u767b(\u4e2d\u592e\u5546\u573a\u6cb3\u897f\u5e97)", "location": {"lat": 32.00880525801302, "lng": 118.72655086348922}, "address": "\u6c5f\u82cf\u7701\u5357\u4eac\u5e02\u5efa\u90ba\u533a\u6c5f\u4e1c\u4e2d\u8def237\u53f7\u4e2d\u592e\u5546\u573a\u6cb3\u897f\u5e973\u697c", "province": "\u6c5f\u82cf\u7701", "city": "\u5357\u4eac\u5e02", "area": "\u5efa\u90ba\u533a", "detail": 1, "uid": "3cb79cae128e21205fd4fecc", "detail_info": {"tag": "\u8d2d\u7269;\u5546\u94fa", "navi_location": {"lng": 118.73863493163, "lat": 32.011818012351}, "type": "shopping", "detail_url": "http://api.map.baidu.com/place/detail?uid=3cb79cae128e21205fd4fecc&output=html&source=placeapi_v2", "overall_rating": "4.0", "comment_num": "5", "children": [], "lat": 32.00880525801302, "lng": 118.72655086348922}}, {"name": "\u5c1a\u6b27\u56fd\u9645\u5bb6\u5c45", "location": {"lat": 32.01098807930117, "lng": 118.71701264915588}, "address": "\u6c5f\u82cf\u7701\u5357\u4eac\u5e02\u5efa\u90ba\u533a\u5965\u4f53\u4e2d\u5fc3A01\u53f7\u67f1", "province": "\u6c5f\u82cf\u7701", "city": "\u5357\u4eac\u5e02", "area": "\u5efa\u90ba\u533a", "telephone": "(025)52253848", "detail": 1, "uid": "9b9eecd16d976d667ec87638", "detail_info": {"tag": "\u8d2d\u7269;\u5bb6\u5c45\u5efa\u6750", "type": "shopping", "detail_url": "http://api.map.baidu.com/place/detail?uid=9b9eecd16d976d667ec87638&output=html&source=placeapi_v2", "overall_rating": "2.0", "comment_num": "4", "children": [], "lat": 32.01098807930117, "lng": 118.71701264915588}}, {"name": "\u73af\u5b87\u519c\u8d38\u5e02\u573a", "location": {"lat": 32.00628822889488, "lng": 118.71704602113101}, "address": "\u5965\u4f53\u5927\u8857177\u53f7", "province": "\u6c5f\u82cf\u7701", "city": "\u5357\u4eac\u5e02", "area": "\u5efa\u90ba\u533a", "street_id": "9de0e18a3dff69346c476001", "detail": 1, "uid": "9de0e18a3dff69346c476001", "detail_info": {"tag": "\u8d2d\u7269;\u5e02\u573a", "navi_location": {"lng": 118.72878999102, "lat": 32.010089917892}, "type": "shopping", "detail_url": "http://api.map.baidu.com/place/detail?uid=9de0e18a3dff69346c476001&output=html&source=placeapi_v2", "overall_rating": "3.0", "comment_num": "5", "children": [], "lat": 32.00628822889488, "lng": 118.71704602113101}}, {"name": "\u5929\u5408\u667a\u80fd(\u5174\u9686\u5927\u8857\u65d7\u8230\u5e97)", "location": {"lat": 32.01786465616836, "lng": 118.72592741605871}, "address": "\u5174\u9686\u5927\u8857155\u53f7102\u3001103\u5ba4", "province": "\u6c5f\u82cf\u7701", "city": "\u5357\u4eac\u5e02", "area": "\u5efa\u90ba\u533a", "telephone": "(025)86303351", "detail": 1, "uid": "f7af8b213fe486fdf1193722", "detail_info": {"tag": "\u8d2d\u7269;\u5bb6\u7535\u6570\u7801", "navi_location": {"lng": 118.73784078469, "lat": 32.02153540053}, "type": "shopping", "detail_url": "http://api.map.baidu.com/place/detail?uid=f7af8b213fe486fdf1193722&output=html&source=placeapi_v2", "overall_rating": "5.0", "comment_num": "1", "children": [], "lat": 32.01786465616836, "lng": 118.72592741605871}}, {"name": "IN3 Fitness\u8335\u65af\u745e\u8fd0\u52a8\u4e2d\u5fc3(\u5965\u4f53\u5e97)", "location": {"lat": 32.010706569521076, "lng": 118.72114074571954}, "address": "\u6c5f\u82cf\u7701\u5357\u4eac\u5e02\u5efa\u90ba\u533a222\u53f7\u5965\u4f53\u4e2d\u5fc3B41\u53f7\u505c\u8f66\u67f1", "province": "\u6c5f\u82cf\u7701", "city": "\u5357\u4eac\u5e02", "area": "\u5efa\u90ba\u533a", "telephone": "(025)52892990", "detail": 1, "uid": "d46fbd8420c954df9a00500e", "detail_info": {"tag": "\u8d2d\u7269;\u5546\u94fa", "type": "shopping", "detail_url": "http://api.map.baidu.com/place/detail?uid=d46fbd8420c954df9a00500e&output=html&source=placeapi_v2", "children": [], "lat": 32.010706569521076, "lng": 118.72114074571954}}, {"name": "\u87f9\u5929\u738b\u9633\u6f84\u6e56\u5927\u95f8\u87f9(\u56fa\u57ce\u6e56\u5965\u4f53\u5e97)", "location": {"lat": 32.00624118011893, "lng": 118.71374039935422}, "address": "\u5bcc\u6625\u6c5f\u897f\u885728-17\u53f7", "province": "\u6c5f\u82cf\u7701", "city": "\u5357\u4eac\u5e02", "area": "\u5efa\u90ba\u533a", "street_id": "8ba6054195f6264185420e91", "telephone": "13655181334,15261461311", "detail": 1, "uid": "8ba6054195f6264185420e91", "detail_info": {"tag": "\u8d2d\u7269;\u5546\u94fa", "type": "shopping", "detail_url": "http://api.map.baidu.com/place/detail?uid=8ba6054195f6264185420e91&output=html&source=placeapi_v2", "overall_rating": "4.9", "comment_num": "13", "children": [], "lat": 32.00624118011893, "lng": 118.71374039935422}}, {"name": "\u9c9c\u679c\u65f6\u4ee3(\u71d5\u5c71\u8def\u5e97)", "location": {"lat": 32.01648849443922, "lng": 118.72458729942517}, "address": "\u5357\u4eac\u5e02\u5efa\u90ba\u533a\u6c5f\u4e1c\u4e2d\u8def186-2\u5b8f\u666e\u6377\u5ea7B\u697c101", "province": "\u6c5f\u82cf\u7701", "city": "\u5357\u4eac\u5e02", "area": "\u5efa\u90ba\u533a", "street_id": "abd0d6e0929526729f82ea81", "telephone": "17749584966", "detail": 1, "uid": "abd0d6e0929526729f82ea81", "detail_info": {"tag": "\u8d2d\u7269;\u5546\u94fa", "type": "shopping", "detail_url": "http://api.map.baidu.com/place/detail?uid=abd0d6e0929526729f82ea81&output=html&source=placeapi_v2", "overall_rating": "4.0", "comment_num": "15", "children": [], "lat": 32.01648849443922, "lng": 118.72458729942517}}, {"name": "\u4e3d\u5a74\u623f(\u4e2d\u592e\u5546\u573a\u5e97)", "location": {"lat": 32.00900145360822, "lng": 118.72657082216614}, "address": "\u5357\u4eac\u5e02\u5efa\u90ba\u533a\u6c5f\u4e1c\u4e2d\u8def270\u53f7\u4e2d\u592e\u5546\u573aF3", "province": "\u6c5f\u82cf\u7701", "city": "\u5357\u4eac\u5e02", "area": "\u5efa\u90ba\u533a", "street_id": "7dc158a9c3695a769de32160", "telephone": "(025)58719790", "detail": 1, "uid": "7dc158a9c3695a769de32160", "detail_info": {"tag": "\u8d2d\u7269;\u5546\u94fa", "navi_location": {"lng": 118.7380651068, "lat": 32.013260071968}, "indoor_floor": "F3", "type": "shopping", "detail_url": "http://api.map.baidu.com/place/detail?uid=7dc158a9c3695a769de32160&output=html&source=placeapi_v2", "overall_rating": "4.5", "comment_num": "2", "children": [], "lat": 32.00900145360822, "lng": 118.72657082216614}}, {"name": "\u73a9\u5177\u57ce\u5821(\u4e2d\u592e\u5546\u573a\u5e97)", "location": {"lat": 32.00931100433876, "lng": 118.72723097694}, "address": "\u6c5f\u4e1c\u4e2d\u8def237\u53f7\u4e2d\u592e\u5546\u573a3\u5c42", "province": "\u6c5f\u82cf\u7701", "city": "\u5357\u4eac\u5e02", "area": "\u5efa\u90ba\u533a", "detail": 1, "uid": "d6838809d8b5e11d38221cc9", "detail_info": {"tag": "\u8d2d\u7269;\u5546\u94fa", "navi_location": {"lng": 118.73863493163, "lat": 32.011818012351}, "type": "shopping", "detail_url": "http://api.map.baidu.com/place/detail?uid=d6838809d8b5e11d38221cc9&output=html&source=placeapi_v2", "overall_rating": "4.2", "comment_num": "5", "children": [], "lat": 32.00931100433876, "lng": 118.72723097694}}, {"name": "\u6d77\u5ce1\u8336\u57ce", "location": {"lat": 32.010996551823446, "lng": 118.71718972036305}, "address": "\u6c5f\u82cf\u5357\u4eac\u5e02\u5efa\u90ba\u533a\u6cb3\u897f\u4e2d\u592e\u5546\u52a1\u533a\u6d77\u5ce1\u8336\u57ce", "province": "\u6c5f\u82cf\u7701", "city": "\u5357\u4eac\u5e02", "area": "\u5efa\u90ba\u533a", "detail": 1, "uid": "b800e54edb6e4abe01ec01a4", "detail_info": {"tag": "\u8d2d\u7269;\u5546\u94fa", "type": "shopping", "detail_url": "http://api.map.baidu.com/place/detail?uid=b800e54edb6e4abe01ec01a4&output=html&source=placeapi_v2", "children": [], "lat": 32.010996551823446, "lng": 118.71718972036305}}, {"name": "\u5fc6\u8317\u8f69", "location": {"lat": 32.01734680839284, "lng": 118.71451711118873}, "address": "\u5357\u4eac\u5e02\u5efa\u90ba\u533a\u5965\u4f53\u68a6\u90fd\u5927\u8857176\u53f7-110\u5ba4", "province": "\u6c5f\u82cf\u7701", "city": "\u5357\u4eac\u5e02", "area": "\u5efa\u90ba\u533a", "telephone": "13851495668", "detail": 1, "uid": "202c6e6c00a418446d20b92b", "detail_info": {"tag": "\u8d2d\u7269;\u5546\u94fa", "type": "shopping", "detail_url": "http://api.map.baidu.com/place/detail?uid=202c6e6c00a418446d20b92b&output=html&source=placeapi_v2", "overall_rating": "4.5", "comment_num": "2", "children": [], "lat": 32.01734680839284, "lng": 118.71451711118873}}, {"name": "\u73b2\u73d1\u82b1\u5349\u4e2d\u5fc3", "location": {"lat": 32.009250649874005, "lng": 118.71044584703743}, "address": "\u5965\u4f53\u5927\u8857108\u53f7\u91d1\u9a6c\u90e6\u57ce4\u680b106\u5ba4", "province": "\u6c5f\u82cf\u7701", "city": "\u5357\u4eac\u5e02", "area": "\u5efa\u90ba\u533a", "street_id": "91b64d5b95a64edb2202202a", "detail": 1, "uid": "91b64d5b95a64edb2202202a", "detail_info": {"tag": "\u8d2d\u7269;\u5546\u94fa", "navi_location": {"lng": 118.7222291799, "lat": 32.01312979156}, "type": "shopping", "detail_url": "http://api.map.baidu.com/place/detail?uid=91b64d5b95a64edb2202202a&output=html&source=placeapi_v2", "overall_rating": "4.7", "comment_num": "3", "children": [], "lat": 32.009250649874005, "lng": 118.71044584703743}}, {"name": "\u76f8\u7ea6\u519c\u6797\u519c\u526f\u4ea7\u54c1\u5e73\u4ef7\u76f4\u9500\u5e97(\u5965\u4f53\u5e97)", "location": {"lat": 32.01836000938333, "lng": 118.71747858724095}, "address": "\u4e50\u5c71\u8def167-7", "province": "\u6c5f\u82cf\u7701", "city": "\u5357\u4eac\u5e02", "area": "\u5efa\u90ba\u533a", "street_id": "feff8c704c71148281a12ee9", "telephone": "(025)85386822", "detail": 1, "uid": "feff8c704c71148281a12ee9", "detail_info": {"tag": "\u8d2d\u7269;\u5546\u94fa", "type": "shopping", "detail_url": "http://api.map.baidu.com/place/detail?uid=feff8c704c71148281a12ee9&output=html&source=placeapi_v2", "overall_rating": "4.0", "comment_num": "2", "children": [], "lat": 32.01836000938333, "lng": 118.71747858724095}}, {"name": "\u6ce2\u59c6\u718a(\u4e2d\u592e\u5546\u573a\u5e97)", "location": {"lat": 32.00893484911272, "lng": 118.72707039143349}, "address": "\u4e2d\u592e\u5546\u573a(\u6cb3\u897f\u5e97)\u5357\u4eac\u5e02\u5efa\u90ba\u533a\u6c5f\u4e1c\u4e2d\u8def235\u53f7F3", "province": "\u6c5f\u82cf\u7701", "city": "\u5357\u4eac\u5e02", "area": "\u5efa\u90ba\u533a", "street_id": "5c14287869f3d2e81fe9994d", "detail": 1, "uid": "5c14287869f3d2e81fe9994d", "detail_info": {"tag": "\u8d2d\u7269;\u5546\u94fa", "type": "shopping", "detail_url": "http://api.map.baidu.com/place/detail?uid=5c14287869f3d2e81fe9994d&output=html&source=placeapi_v2", "children": [], "lat": 32.00893484911272, "lng": 118.72707039143349}}, {"name": "\u8212\u534e(\u5965\u4f53\u4e2d\u5fc3\u5e97)", "location": {"lat": 32.00935306753763, "lng": 118.71969525196856}, "address": "\u5efa\u90ba\u533a\u6c5f\u4e1c\u4e2d\u8def222\u53f7", "province": "\u6c5f\u82cf\u7701", "city": "\u5357\u4eac\u5e02", "area": "\u5efa\u90ba\u533a", "street_id": "177d77771ce35975d8d8911b", "telephone": "(025)86200532", "detail": 1, "uid": "177d77771ce35975d8d8911b", "detail_info": {"tag": "\u8d2d\u7269;\u5546\u94fa", "type": "shopping", "detail_url": "http://api.map.baidu.com/place/detail?uid=177d77771ce35975d8d8911b&output=html&source=placeapi_v2", "overall_rating": "0.0", "comment_num": "3", "children": [], "lat": 32.00935306753763, "lng": 118.71969525196856}}, {"name": "\u5efa\u90ba\u533a\u5965\u4f53\u4e1c\u96e8\u6da6\u4e2d\u592e\u5546\u573a", "location": {"lat": 32.00916791423314, "lng": 118.72692082917366}, "address": "\u5357\u4eac\u5e02\u5efa\u90ba\u533a\u6c5f\u4e1c\u4e2d\u8def\u4e0e\u7261\u4e39\u6c5f\u8857\u4ea4\u53c9\u8def\u53e3\u5f80\u4e1c\u7ea650\u7c73(\u4e2d\u592e\u5546\u573a)", "province": "\u6c5f\u82cf\u7701", "city": "\u5357\u4eac\u5e02", "area": "\u5efa\u90ba\u533a", "detail": 1, "uid": "6d3831352504aee5c42ba113", "detail_info": {"tag": "\u8d2d\u7269;\u5bb6\u7535\u6570\u7801", "type": "shopping", "detail_url": "http://api.map.baidu.com/place/detail?uid=6d3831352504aee5c42ba113&output=html&source=placeapi_v2", "children": [], "lat": 32.00916791423314, "lng": 118.72692082917366}}, {"name": "\u82b1\u82b1\u516c\u5b50(\u4e2d\u592e\u5546\u573a\u6cb3\u897f\u5e97)", "location": {"lat": 32.009540579919985, "lng": 118.72715619607114}, "address": "\u5357\u4eac\u5e02\u5efa\u90ba\u533a\u6c5f\u4e1c\u4e2d\u8def270\u53f7\u4e2d\u592e\u5546\u573aF2", "province": "\u6c5f\u82cf\u7701", "city": "\u5357\u4eac\u5e02", "area": "\u5efa\u90ba\u533a", "detail": 1, "uid": "8e3cbd96903e8952eaf85398", "detail_info": {"tag": "\u8d2d\u7269;\u5546\u94fa", "indoor_floor": "F2", "type": "shopping", "detail_url": "http://api.map.baidu.com/place/detail?uid=8e3cbd96903e8952eaf85398&output=html&source=placeapi_v2", "overall_rating": "4.6", "comment_num": "5", "children": [], "lat": 32.009540579919985, "lng": 118.72715619607114}}, {"name": "\u6c6a\u5c0f\u8377(\u4e2d\u592e\u5546\u573a\u6cb3\u897f\u5e97)", "location": {"lat": 32.009298081746394, "lng": 118.726793201048}, "address": "\u5357\u4eac\u5e02\u5efa\u90ba\u533a\u6c5f\u4e1c\u4e2d\u8def270\u53f7\u4e2d\u592e\u5546\u573aF3", "province": "\u6c5f\u82cf\u7701", "city": "\u5357\u4eac\u5e02", "area": "\u5efa\u90ba\u533a", "detail": 1, "uid": "324375f36e0dfcb494031932", "detail_info": {"tag": "\u8d2d\u7269;\u5546\u94fa", "navi_location": {"lng": 118.73863493163, "lat": 32.011818012351}, "indoor_floor": "F3", "type": "shopping", "detail_url": "http://api.map.baidu.com/place/detail?uid=324375f36e0dfcb494031932&output=html&source=placeapi_v2", "overall_rating": "4.0", "comment_num": "2", "children": [], "lat": 32.009298081746394, "lng": 118.726793201048}}, {"name": "\u9e3f\u8fd0\u4e94\u91d1\u5efa\u6750(\u5bcc\u6625\u6c5f\u897f\u8857\u5e97)", "location": {"lat": 32.00613887221816, "lng": 118.71391535648674}, "address": "\u5bcc\u6625\u6c5f\u897f\u885728-16", "province": "\u6c5f\u82cf\u7701", "city": "\u5357\u4eac\u5e02", "area": "\u5efa\u90ba\u533a", "street_id": "b865adb425cd81821d5800ef", "telephone": "13814534077", "detail": 1, "uid": "b865adb425cd81821d5800ef", "detail_info": {"tag": "\u8d2d\u7269;\u5bb6\u5c45\u5efa\u6750", "navi_location": {"lng": 118.72505867427, "lat": 32.0100223184}, "type": "shopping", "detail_url": "http://api.map.baidu.com/place/detail?uid=b865adb425cd81821d5800ef&output=html&source=placeapi_v2", "overall_rating": "5.0", "comment_num": "1", "children": [], "lat": 32.00613887221816, "lng": 118.71391535648674}}, {"name": "\u82cf\u679c\u4fbf\u5229\u5e97(\u65b0\u57ce\u5927\u53a6\u5e97)", "location": {"lat": 32.006702333557165, "lng": 118.72570214318465}, "address": "\u6c5f\u82cf\u7701\u5357\u4eac\u5e02\u5efa\u90ba\u533a\u6c5f\u4e1c\u4e2d\u8def265\u53f7\u65b0\u57ce\u5927\u53a6B\u5ea71\u5c42\u95e8\u9762\u623f", "province": "\u6c5f\u82cf\u7701", "city": "\u5357\u4eac\u5e02", "area": "\u5efa\u90ba\u533a", "street_id": "e4aa0bf62f636116fd0eb093", "detail": 1, "uid": "e4aa0bf62f636116fd0eb093", "detail_info": {"tag": "\u8d2d\u7269;\u4fbf\u5229\u5e97", "type": "shopping", "detail_url": "http://api.map.baidu.com/place/detail?uid=e4aa0bf62f636116fd0eb093&output=html&source=placeapi_v2", "overall_rating": "3.0", "comment_num": "3", "children": [], "lat": 32.006702333557165, "lng": 118.72570214318465}}, {"name": "\u4e91\u5986(\u4e2d\u592e\u5546\u573a\u5e97)", "location": {"lat": 32.009361404140826, "lng": 118.7272908170132}, "address": "\u5357\u4eac\u5e02\u5efa\u90ba\u533a\u6c5f\u4e1c\u4e2d\u8def270\u53f7\u4e2d\u592e\u5546\u573aF1", "province": "\u6c5f\u82cf\u7701", "city": "\u5357\u4eac\u5e02", "area": "\u5efa\u90ba\u533a", "detail": 1, "uid": "4d2010d8cf304a71047ce884", "detail_info": {"tag": "\u8d2d\u7269;\u5546\u94fa", "indoor_floor": "F1", "type": "shopping", "detail_url": "http://api.map.baidu.com/place/detail?uid=4d2010d8cf304a71047ce884&output=html&source=placeapi_v2", "overall_rating": "4.5", "comment_num": "13", "children": [], "lat": 32.009361404140826, "lng": 118.7272908170132}}, {"name": "\u4e50\u9ad8(\u4e2d\u592e\u5546\u573a\u5e97)", "location": {"lat": 32.00877184423424, "lng": 118.726926779219}, "address": "\u5357\u4eac\u5e02\u5efa\u90ba\u533a\u6c5f\u4e1c\u4e2d\u8def270\u53f7\u4e2d\u592e\u5546\u573aF3", "province": "\u6c5f\u82cf\u7701", "city": "\u5357\u4eac\u5e02", "area": "\u5efa\u90ba\u533a", "street_id": "fd0ec44aad8f1e00d81318e2", "detail": 1, "uid": "fd0ec44aad8f1e00d81318e2", "detail_info": {"tag": "\u8d2d\u7269;\u5546\u94fa", "navi_location": {"lng": 118.7380651068, "lat": 32.013260071968}, "indoor_floor": "F3", "type": "shopping", "detail_url": "http://api.map.baidu.com/place/detail?uid=fd0ec44aad8f1e00d81318e2&output=html&source=placeapi_v2", "overall_rating": "5.0", "comment_num": "1", "children": [], "lat": 32.00877184423424, "lng": 118.726926779219}}, {"name": "\u6849\u6811\u53f6", "location": {"lat": 32.017578936215656, "lng": 118.71704913063773}, "address": "\u6c5f\u82cf\u7701\u5357\u4eac\u5e02\u5efa\u90ba\u533a\u4e50\u5c71\u8def167-18\u53f7", "province": "\u6c5f\u82cf\u7701", "city": "\u5357\u4eac\u5e02", "area": "\u5efa\u90ba\u533a", "telephone": "17368727517", "detail": 1, "uid": "ac4d6000b751d8ae1894c669", "detail_info": {"tag": "\u8d2d\u7269;\u5546\u94fa", "type": "shopping", "detail_url": "http://api.map.baidu.com/place/detail?uid=ac4d6000b751d8ae1894c669&output=html&source=placeapi_v2", "overall_rating": "0.0", "comment_num": "2", "children": [], "lat": 32.017578936215656, "lng": 118.71704913063773}}, {"name": "\u4e16\u7eaa\u534e\u8054(\u68a6\u90fd\u5927\u8857\u5e97)", "location": {"lat": 32.01346996486711, "lng": 118.72459398349942}, "address": "\u5357\u4eac\u5e02\u5efa\u90ba\u533a\u68a6\u90fd\u5927\u8857132-4", "province": "\u6c5f\u82cf\u7701", "city": "\u5357\u4eac\u5e02", "area": "\u5efa\u90ba\u533a", "street_id": "ff695b561ab02177306212d6", "telephone": "15195945948", "detail": 1, "uid": "ff695b561ab02177306212d6", "detail_info": {"tag": "\u8d2d\u7269;\u4fbf\u5229\u5e97", "navi_location": {"lng": 118.73614497877, "lat": 32.017093135772}, "type": "shopping", "detail_url": "http://api.map.baidu.com/place/detail?uid=ff695b561ab02177306212d6&output=html&source=placeapi_v2", "overall_rating": "0.0", "comment_num": "4", "children": [], "lat": 32.01346996486711, "lng": 118.72459398349942}}, {"name": "\u862d\u4e4b\u8336\u838a", "location": {"lat": 32.017339747758164, "lng": 118.71457876190523}, "address": "\u5357\u4eac\u5e02\u5efa\u90ba\u533a\u68a6\u90fd\u5927\u8857176\u53f7113", "province": "\u6c5f\u82cf\u7701", "city": "\u5357\u4eac\u5e02", "area": "\u5efa\u90ba\u533a", "telephone": "13915989388", "detail": 1, "uid": "ad03cd46f13e72fe28b97c8b", "detail_info": {"tag": "\u8d2d\u7269;\u5546\u94fa", "type": "shopping", "detail_url": "http://api.map.baidu.com/place/detail?uid=ad03cd46f13e72fe28b97c8b&output=html&source=placeapi_v2", "overall_rating": "5.0", "comment_num": "2", "children": [], "lat": 32.017339747758164, "lng": 118.71457876190523}}, {"name": "DUNNU(\u4e2d\u592e\u5546\u573a\u5e97)", "location": {"lat": 32.009154876268326, "lng": 118.72737357881124}, "address": "\u5357\u4eac\u5e02\u5efa\u90ba\u533a\u6c5f\u4e1c\u4e2d\u8def270\u53f7\u4e2d\u592e\u5546\u573aF2", "province": "\u6c5f\u82cf\u7701", "city": "\u5357\u4eac\u5e02", "area": "\u5efa\u90ba\u533a", "street_id": "91b545c7318f050007fef5bb", "detail": 1, "uid": "91b545c7318f050007fef5bb", "detail_info": {"tag": "\u8d2d\u7269;\u5546\u94fa", "navi_location": {"lng": 118.7380651068, "lat": 32.013260071968}, "indoor_floor": "F2", "type": "shopping", "detail_url": "http://api.map.baidu.com/place/detail?uid=91b545c7318f050007fef5bb&output=html&source=placeapi_v2", "overall_rating": "4.0", "comment_num": "3", "children": [], "lat": 32.009154876268326, "lng": 118.72737357881124}}, {"name": "\u679c\u8272\u82b1\u9999\u73af\u5b87\u519c\u8d38\u5e02\u573a", "location": {"lat": 32.0061624212926, "lng": 118.71720615396397}, "address": "\u6c5f\u82cf\u7701\u5357\u4eac\u5e02\u5efa\u90ba\u533a\u4eca\u5efa\u90ba\u533a\u5965\u4f53\u5927\u8857177\u53f7\u679c\u8272\u82b1\u9999\u519c\u8d38\u5e02\u573a", "province": "\u6c5f\u82cf\u7701", "city": "\u5357\u4eac\u5e02", "area": "\u5efa\u90ba\u533a", "street_id": "6ec7ed1aa378d8d981a12eb8", "detail": 1, "uid": "6ec7ed1aa378d8d981a12eb8", "detail_info": {"tag": "\u8d2d\u7269;\u5e02\u573a", "type": "shopping", "detail_url": "http://api.map.baidu.com/place/detail?uid=6ec7ed1aa378d8d981a12eb8&output=html&source=placeapi_v2", "children": [], "lat": 32.0061624212926, "lng": 118.71720615396397}}, {"name": "\u771f\u5e97\u70df\u9152", "location": {"lat": 32.01769873050158, "lng": 118.72542806219506}, "address": "\u71d5\u5c71\u8def149\u53f7", "province": "\u6c5f\u82cf\u7701", "city": "\u5357\u4eac\u5e02", "area": "\u5efa\u90ba\u533a", "street_id": "942fae269e8e4ba61d580048", "telephone": "13951885886", "detail": 1, "uid": "942fae269e8e4ba61d580048", "detail_info": {"tag": "\u8d2d\u7269;\u5546\u94fa", "type": "shopping", "detail_url": "http://api.map.baidu.com/place/detail?uid=942fae269e8e4ba61d580048&output=html&source=placeapi_v2", "children": [], "lat": 32.01769873050158, "lng": 118.72542806219506}}, {"name": "\u7d20\u5fc3\u5802\u753b\u5eca", "location": {"lat": 32.01755250503927, "lng": 118.71346314586819}, "address": "\u6c5f\u82cf\u7701\u5357\u4eac\u5e02\u5efa\u90ba\u533a\u68a6\u90fd\u5927\u8857176\u53f7148\u9644\u8fd1", "province": "\u6c5f\u82cf\u7701", "city": "\u5357\u4eac\u5e02", "area": "\u5efa\u90ba\u533a", "street_id": "dbe66b4df22ba1c4c26c14e8", "telephone": "15380446670", "detail": 1, "uid": "dbe66b4df22ba1c4c26c14e8", "detail_info": {"tag": "\u8d2d\u7269;\u5546\u94fa", "type": "shopping", "detail_url": "http://api.map.baidu.com/place/detail?uid=dbe66b4df22ba1c4c26c14e8&output=html&source=placeapi_v2", "children": [], "lat": 32.01755250503927, "lng": 118.71346314586819}}, {"name": "\u540d\u70df\u540d\u9152", "location": {"lat": 32.00932798511094, "lng": 118.72692482895383}, "address": "\u5357\u4eac\u5e02\u5efa\u90ba\u533a\u6c5f\u4e1c\u4e2d\u8def270\u53f7\u4e2d\u592e\u5546\u573aB1", "province": "\u6c5f\u82cf\u7701", "city": "\u5357\u4eac\u5e02", "area": "\u5efa\u90ba\u533a", "detail": 1, "uid": "9e54b423780f1146f219371e", "detail_info": {"tag": "\u8d2d\u7269;\u5546\u94fa", "indoor_floor": "B1", "type": "shopping", "detail_url": "http://api.map.baidu.com/place/detail?uid=9e54b423780f1146f219371e&output=html&source=placeapi_v2", "overall_rating": "0.0", "children": [], "lat": 32.00932798511094, "lng": 118.72692482895383}}, {"name": "\u4e07\u5c45\u5bb6\u5177\u5e7f\u573a", "location": {"lat": 32.01420777090539, "lng": 118.72378076393919}, "address": "\u6c5f\u82cf\u7701\u5357\u4eac\u5e02\u5efa\u90ba\u533a\u68a6\u90fd\u5927\u8857138\u53f73\u697c\u9644\u8fd1", "province": "\u6c5f\u82cf\u7701", "city": "\u5357\u4eac\u5e02", "area": "\u5efa\u90ba\u533a", "detail": 1, "uid": "a0247b510821d0157ab55c09", "detail_info": {"tag": "\u8d2d\u7269;\u5bb6\u5c45\u5efa\u6750", "navi_location": {"lng": 118.73572005691, "lat": 32.018079330488}, "type": "shopping", "detail_url": "http://api.map.baidu.com/place/detail?uid=a0247b510821d0157ab55c09&output=html&source=placeapi_v2", "children": [], "lat": 32.01420777090539, "lng": 118.72378076393919}}, {"name": "\u6c81\u7136\u672c\u94fa", "location": {"lat": 32.0087321544928, "lng": 118.7087118682335}, "address": "\u5965\u4f53\u5927\u8857199\u53f7\u91d1\u9a6c\u9a8a24\u680b101", "province": "\u6c5f\u82cf\u7701", "city": "\u5357\u4eac\u5e02", "area": "\u5efa\u90ba\u533a", "telephone": "15850695271", "detail": 1, "uid": "cc2f92e91be727ef931fc919", "detail_info": {"tag": "\u8d2d\u7269;\u5546\u94fa", "type": "shopping", "detail_url": "http://api.map.baidu.com/place/detail?uid=cc2f92e91be727ef931fc919&output=html&source=placeapi_v2", "overall_rating": "4.6", "comment_num": "13", "children": [], "lat": 32.0087321544928, "lng": 118.7087118682335}}, {"name": "\u4e91\u53a8\u4e00\u7ad9(\u65b0\u57ce\u5927\u53a6\u5e97)", "location": {"lat": 32.00705091271372, "lng": 118.72763760634693}, "address": "\u6c5f\u4e1c\u4e2d\u8def259\u53f7\u65b0\u57ce\u5927\u53a6\u8d1f\u4e00\u697c", "province": "\u6c5f\u82cf\u7701", "city": "\u5357\u4eac\u5e02", "area": "\u5efa\u90ba\u533a", "detail": 1, "uid": "3f2f18011c3bd23540024563", "detail_info": {"tag": "\u8d2d\u7269;\u5546\u94fa", "type": "shopping", "detail_url": "http://api.map.baidu.com/place/detail?uid=3f2f18011c3bd23540024563&output=html&source=placeapi_v2", "overall_rating": "4.0", "comment_num": "1", "children": [], "lat": 32.00705091271372, "lng": 118.72763760634693}}, {"name": "\u5df4\u62c9\u5df4\u62c9(\u4e2d\u592e\u5546\u573a\u5e97)", "location": {"lat": 32.00949305696963, "lng": 118.7269288276829}, "address": "\u6c5f\u4e1c\u4e2d\u8def237\u53f7\u4e2d\u592e\u5546\u573a3\u5c42", "province": "\u6c5f\u82cf\u7701", "city": "\u5357\u4eac\u5e02", "area": "\u5efa\u90ba\u533a", "detail": 1, "uid": "f3acdeeec6dd2528b64f5472", "detail_info": {"tag": "\u8d2d\u7269;\u5546\u94fa", "navi_location": {"lng": 118.73863493163, "lat": 32.011818012351}, "type": "shopping", "detail_url": "http://api.map.baidu.com/place/detail?uid=f3acdeeec6dd2528b64f5472&output=html&source=placeapi_v2", "overall_rating": "5.0", "comment_num": "1", "children": [], "lat": 32.00949305696963, "lng": 118.7269288276829}}, {"name": "TEENIE WEENIE(\u4e2d\u592e\u5546\u573a\u5e97)", "location": {"lat": 32.00930928276559, "lng": 118.7268221191878}, "address": "\u5357\u4eac\u5e02\u5efa\u90ba\u533a\u6c5f\u4e1c\u4e2d\u8def270\u53f7\u4e2d\u592e\u5546\u573aF2", "province": "\u6c5f\u82cf\u7701", "city": "\u5357\u4eac\u5e02", "area": "\u5efa\u90ba\u533a", "street_id": "f8640de36d61025672210bb2", "telephone": "(025)85358537", "detail": 1, "uid": "f8640de36d61025672210bb2", "detail_info": {"tag": "\u8d2d\u7269;\u5546\u94fa", "navi_location": {"lng": 118.7380651068, "lat": 32.013260071968}, "indoor_floor": "F2", "type": "shopping", "detail_url": "http://api.map.baidu.com/place/detail?uid=f8640de36d61025672210bb2&output=html&source=placeapi_v2", "overall_rating": "4.7", "comment_num": "3", "children": [], "lat": 32.00930928276559, "lng": 118.7268221191878}}, {"name": "Puella(\u4e2d\u592e\u5546\u573a\u5e97)", "location": {"lat": 32.009515156976605, "lng": 118.7269427895445}, "address": "\u5357\u4eac\u5e02\u5efa\u90ba\u533a\u6c5f\u4e1c\u4e2d\u8def270\u53f7\u4e2d\u592e\u5546\u573aF2", "province": "\u6c5f\u82cf\u7701", "city": "\u5357\u4eac\u5e02", "area": "\u5efa\u90ba\u533a", "detail": 1, "uid": "f52c02deacec1d78223bf27b", "detail_info": {"tag": "\u8d2d\u7269;\u5546\u94fa", "indoor_floor": "F2", "type": "shopping", "detail_url": "http://api.map.baidu.com/place/detail?uid=f52c02deacec1d78223bf27b&output=html&source=placeapi_v2", "overall_rating": "4.7", "comment_num": "3", "children": [], "lat": 32.009515156976605, "lng": 118.7269427895445}}, {"name": "\u5929\u7f8e\u610f(\u4e2d\u592e\u5546\u573a\u6cb3\u897f\u5e97)", "location": {"lat": 32.009097977970804, "lng": 118.72723594810508}, "address": "\u6c5f\u4e1c\u4e2d\u8def237\u53f7F1\u5c42", "province": "\u6c5f\u82cf\u7701", "city": "\u5357\u4eac\u5e02", "area": "\u5efa\u90ba\u533a", "detail": 1, "uid": "a403de44045edecece04efa5", "detail_info": {"tag": "\u8d2d\u7269;\u5546\u94fa", "type": "shopping", "detail_url": "http://api.map.baidu.com/place/detail?uid=a403de44045edecece04efa5&output=html&source=placeapi_v2", "overall_rating": "5.0", "comment_num": "3", "children": [], "lat": 32.009097977970804, "lng": 118.72723594810508}}, {"name": "GC(\u4e2d\u592e\u5546\u573a\u5e97)", "location": {"lat": 32.00903343538979, "lng": 118.7273097420291}, "address": "\u5357\u4eac\u5e02\u5efa\u90ba\u533a\u6c5f\u4e1c\u4e2d\u8def270\u53f7\u4e2d\u592e\u5546\u573aF3", "province": "\u6c5f\u82cf\u7701", "city": "\u5357\u4eac\u5e02", "area": "\u5efa\u90ba\u533a", "street_id": "7d3050fb351f2d06c42ba11d", "detail": 1, "uid": "7d3050fb351f2d06c42ba11d", "detail_info": {"tag": "\u8d2d\u7269;\u5546\u94fa", "indoor_floor": "F3", "type": "shopping", "detail_url": "http://api.map.baidu.com/place/detail?uid=7d3050fb351f2d06c42ba11d&output=html&source=placeapi_v2", "overall_rating": "4.0", "comment_num": "2", "children": [], "lat": 32.00903343538979, "lng": 118.7273097420291}}, {"name": "COZY STEPS(\u4e2d\u592e\u5546\u573a\u5e97)", "location": {"lat": 32.00876079949962, "lng": 118.7266296294831}, "address": "\u5357\u4eac\u5efa\u90ba\u533a\u5357\u4eac\u5e02\u5efa\u90ba\u533a\u6c5f\u4e1c\u4e2d\u8def270\u53f7\u4e2d\u592e\u5546\u573aF1", "province": "\u6c5f\u82cf\u7701", "city": "\u5357\u4eac\u5e02", "area": "\u5efa\u90ba\u533a", "detail": 1, "uid": "2601279ab532d014f82d611e", "detail_info": {"tag": "\u8d2d\u7269;\u5546\u94fa", "indoor_floor": "F1", "type": "shopping", "detail_url": "http://api.map.baidu.com/place/detail?uid=2601279ab532d014f82d611e&output=html&source=placeapi_v2", "overall_rating": "4.5", "comment_num": "2", "children": [], "lat": 32.00876079949962, "lng": 118.7266296294831}}, {"name": "\u9102\u5c14\u591a\u65af(\u4e2d\u592e\u5546\u573a\u5e97)", "location": {"lat": 32.00885220728184, "lng": 118.7271282237904}, "address": "\u5357\u4eac\u5e02\u5efa\u90ba\u533a\u6c5f\u4e1c\u4e2d\u8def270\u53f7\u4e2d\u592e\u5546\u573aF2", "province": "\u6c5f\u82cf\u7701", "city": "\u5357\u4eac\u5e02", "area": "\u5efa\u90ba\u533a", "telephone": "(025)86702285", "detail": 1, "uid": "05d0b755931e18f07bf79673", "detail_info": {"tag": "\u8d2d\u7269;\u5546\u94fa", "indoor_floor": "F2", "type": "shopping", "detail_url": "http://api.map.baidu.com/place/detail?uid=05d0b755931e18f07bf79673&output=html&source=placeapi_v2", "overall_rating": "4.0", "comment_num": "1", "children": [], "lat": 32.00885220728184, "lng": 118.7271282237904}}, {"name": "\u4e2d\u4fa8", "location": {"lat": 32.01811306943693, "lng": 118.71719615415851}, "address": "\u6c5f\u82cf\u7701\u5357\u4eac\u5e02\u5efa\u90ba\u533a\u4e50\u5c71\u8def167-12", "province": "\u6c5f\u82cf\u7701", "city": "\u5357\u4eac\u5e02", "area": "\u5efa\u90ba\u533a", "street_id": "dfb72c28e6e315e822f01748", "detail": 1, "uid": "dfb72c28e6e315e822f01748", "detail_info": {"tag": "\u516c\u53f8\u4f01\u4e1a;\u516c\u53f8", "type": "enterprise", "detail_url": "http://api.map.baidu.com/place/detail?uid=dfb72c28e6e315e822f01748&output=html&source=placeapi_v2", "children": [], "lat": 32.01811306943693, "lng": 118.71719615415851}}, {"name": "\u5143\u7d20\u7b80(\u4e2d\u592e\u5546\u573a\u5e97)", "location": {"lat": 32.008940835998665, "lng": 118.72662765140909}, "address": "\u5357\u4eac\u5efa\u90ba\u533a\u5357\u4eac\u5e02\u5efa\u90ba\u533a\u6c5f\u4e1c\u4e2d\u8def270\u53f7\u4e2d\u592e\u5546\u573aF2", "province": "\u6c5f\u82cf\u7701", "city": "\u5357\u4eac\u5e02", "area": "\u5efa\u90ba\u533a", "street_id": "8e87fed8a159091f4d55474c", "telephone": "(025)57671668", "detail": 1, "uid": "8e87fed8a159091f4d55474c", "detail_info": {"tag": "\u8d2d\u7269;\u5546\u94fa", "indoor_floor": "F2", "type": "shopping", "detail_url": "http://api.map.baidu.com/place/detail?uid=8e87fed8a159091f4d55474c&output=html&source=placeapi_v2", "overall_rating": "5.0", "comment_num": "1", "children": [], "lat": 32.008940835998665, "lng": 118.72662765140909}}, {"name": "POLO(\u4e2d\u592e\u5546\u573a\u5e97)", "location": {"lat": 32.00935147743003, "lng": 118.72670346236693}, "address": "\u6c5f\u4e1c\u4e2d\u8def237\u53f7\u4e2d\u592e\u5546\u573a1\u5c42", "province": "\u6c5f\u82cf\u7701", "city": "\u5357\u4eac\u5e02", "area": "\u5efa\u90ba\u533a", "detail": 1, "uid": "1ede2b705561f0d7373a7169", "detail_info": {"tag": "\u8d2d\u7269;\u5546\u94fa", "type": "shopping", "detail_url": "http://api.map.baidu.com/place/detail?uid=1ede2b705561f0d7373a7169&output=html&source=placeapi_v2", "overall_rating": "4.7", "comment_num": "3", "children": [], "lat": 32.00935147743003, "lng": 118.72670346236693}}, {"name": "really(\u4e2d\u592e\u5546\u573a\u5e97)", "location": {"lat": 32.00935147743003, "lng": 118.72670346236693}, "address": "\u6c5f\u4e1c\u4e2d\u8def237\u53f7\u4e2d\u592e\u5546\u573a3\u5c42", "province": "\u6c5f\u82cf\u7701", "city": "\u5357\u4eac\u5e02", "area": "\u5efa\u90ba\u533a", "detail": 1, "uid": "c50d92d7106b325678f796ab", "detail_info": {"tag": "\u8d2d\u7269;\u5546\u94fa", "type": "life", "detail_url": "http://api.map.baidu.com/place/detail?uid=c50d92d7106b325678f796ab&output=html&source=placeapi_v2", "image_num": "1", "children": [], "lat": 32.00935147743003, "lng": 118.72670346236693}}, {"name": "OXALIS(\u4e2d\u592e\u5546\u573a\u5e97)", "location": {"lat": 32.008871813025614, "lng": 118.72677123085845}, "address": "\u5357\u4eac\u5e02\u5efa\u90ba\u533a\u6c5f\u4e1c\u4e2d\u8def270\u53f7\u4e2d\u592e\u5546\u573aF2", "province": "\u6c5f\u82cf\u7701", "city": "\u5357\u4eac\u5e02", "area": "\u5efa\u90ba\u533a", "detail": 1, "uid": "9aacf7c69bdcb12ae5e965eb", "detail_info": {"tag": "\u8d2d\u7269;\u5546\u94fa", "indoor_floor": "F2", "type": "shopping", "detail_url": "http://api.map.baidu.com/place/detail?uid=9aacf7c69bdcb12ae5e965eb&output=html&source=placeapi_v2", "overall_rating": "4.0", "comment_num": "1", "children": [], "lat": 32.008871813025614, "lng": 118.72677123085845}}, {"name": "JACK & JONES(\u4e2d\u592e\u5546\u573a\u5e97)", "location": {"lat": 32.00951104840261, "lng": 118.72692683431383}, "address": "\u5357\u4eac\u5e02\u5efa\u90ba\u533a\u6c5f\u4e1c\u4e2d\u8def270\u53f7\u4e2d\u592e\u5546\u573aF3", "province": "\u6c5f\u82cf\u7701", "city": "\u5357\u4eac\u5e02", "area": "\u5efa\u90ba\u533a", "street_id": "86b421c3aa052661882fb5d4", "detail": 1, "uid": "86b421c3aa052661882fb5d4", "detail_info": {"tag": "\u8d2d\u7269;\u5546\u94fa", "navi_location": {"lng": 118.7380651068, "lat": 32.013260071968}, "indoor_floor": "F3", "type": "shopping", "detail_url": "http://api.map.baidu.com/place/detail?uid=86b421c3aa052661882fb5d4&output=html&source=placeapi_v2", "overall_rating": "0.0", "children": [], "lat": 32.00951104840261, "lng": 118.72692683431383}}, {"name": "YOUNGRO(\u4e2d\u592e\u5546\u573a\u6cb3\u897f\u5e97)", "location": {"lat": 32.00955444336077, "lng": 118.72654792650843}, "address": "\u6c5f\u4e1c\u4e2d\u8def128\u53f7\u4e2d\u592e\u5546\u573a\u6cb3\u897f\u5e973\u5c42", "province": "\u6c5f\u82cf\u7701", "city": "\u5357\u4eac\u5e02", "area": "\u5efa\u90ba\u533a", "detail": 1, "uid": "8e25e8891c4c3bf282288a44", "detail_info": {"tag": "\u8d2d\u7269;\u5546\u94fa", "type": "shopping", "detail_url": "http://api.map.baidu.com/place/detail?uid=8e25e8891c4c3bf282288a44&output=html&source=placeapi_v2", "overall_rating": "5.0", "comment_num": "1", "children": [], "lat": 32.00955444336077, "lng": 118.72654792650843}}, {"name": "SUISSEWIN(\u4e2d\u592e\u5546\u573a\u5e97)", "location": {"lat": 32.00917210162688, "lng": 118.72725191006985}, "address": "\u5357\u4eac\u5e02\u5efa\u90ba\u533a\u6c5f\u4e1c\u4e2d\u8def270\u53f7\u4e2d\u592e\u5546\u573aF2", "province": "\u6c5f\u82cf\u7701", "city": "\u5357\u4eac\u5e02", "area": "\u5efa\u90ba\u533a", "detail": 1, "uid": "e799c2c8f440e6da744ff127", "detail_info": {"tag": "\u8d2d\u7269;\u5546\u94fa", "indoor_floor": "F2", "type": "shopping", "detail_url": "http://api.map.baidu.com/place/detail?uid=e799c2c8f440e6da744ff127&output=html&source=placeapi_v2", "children": [], "lat": 32.00917210162688, "lng": 118.72725191006985}}, {"name": "adidas neo(\u4e2d\u592e\u5546\u573a\u5e97)", "location": {"lat": 32.008863203814066, "lng": 118.72712722753081}, "address": "\u5357\u4eac\u5e02\u5efa\u90ba\u533a\u6c5f\u4e1c\u4e2d\u8def270\u53f7\u4e2d\u592e\u5546\u573aF3", "province": "\u6c5f\u82cf\u7701", "city": "\u5357\u4eac\u5e02", "area": "\u5efa\u90ba\u533a", "telephone": "(025)52260183", "detail": 1, "uid": "eb191c8ae35e2893b13c817e", "detail_info": {"tag": "\u8d2d\u7269;\u5546\u94fa", "indoor_floor": "F3", "type": "shopping", "detail_url": "http://api.map.baidu.com/place/detail?uid=eb191c8ae35e2893b13c817e&output=html&source=placeapi_v2", "overall_rating": "4.0", "comment_num": "1", "children": [], "lat": 32.008863203814066, "lng": 118.72712722753081}}, {"name": "qtools", "location": {"lat": 32.00934332613581, "lng": 118.72682710717883}, "address": "\u5357\u4eac\u5e02\u5efa\u90ba\u533a\u6c5f\u4e1c\u4e2d\u8def270\u53f7\u4e2d\u592e\u5546\u573aF3", "province": "\u6c5f\u82cf\u7701", "city": "\u5357\u4eac\u5e02", "area": "\u5efa\u90ba\u533a", "detail": 1, "uid": "6e50fac4a8f883bf2bb97c77", "detail_info": {"tag": "\u8d2d\u7269;\u5546\u94fa", "indoor_floor": "F3", "type": "shopping", "detail_url": "http://api.map.baidu.com/place/detail?uid=6e50fac4a8f883bf2bb97c77&output=html&source=placeapi_v2", "overall_rating": "5.0", "comment_num": "1", "children": [], "lat": 32.00934332613581, "lng": 118.72682710717883}}, {"name": "\u78b3\u5143\u7eff\u5efa\u5065\u5eb7\u8212\u9002\u4f53\u9a8c\u4e2d\u5fc3", "location": {"lat": 32.01061963518187, "lng": 118.71734690781197}, "address": "\u5357\u4eac\u5e02\u5efa\u90ba\u533a\u5965\u4f53\u5927\u8857(\u5357\u4eac\u5965\u6797\u5339\u514b\u4f53\u80b2\u4e2d\u5fc3)", "province": "\u6c5f\u82cf\u7701", "city": "\u5357\u4eac\u5e02", "area": "\u5efa\u90ba\u533a", "detail": 1, "uid": "a36d5d646b55f11e42d63efa", "detail_info": {"tag": "\u8d2d\u7269;\u5bb6\u5c45\u5efa\u6750", "type": "shopping", "detail_url": "http://api.map.baidu.com/place/detail?uid=a36d5d646b55f11e42d63efa&output=html&source=placeapi_v2", "overall_rating": "5.0", "comment_num": "1", "children": [], "lat": 32.01061963518187, "lng": 118.71734690781197}}, {"name": "\u5357\u4eac\u5de5\u827a\u793c\u54c1", "location": {"lat": 32.01473522886026, "lng": 118.72174668359342}, "address": "\u6c5f\u82cf\u7701\u5357\u4eac\u5e02\u5efa\u90ba\u533a\u68a6\u90fd\u5927\u8857150\u53f7\u5efa\u7b51\u5e08\u5de5\u793e", "province": "\u6c5f\u82cf\u7701", "city": "\u5357\u4eac\u5e02", "area": "\u5efa\u90ba\u533a", "detail": 1, "uid": "ff3fc3abc9fc3ac1c03644ed", "detail_info": {"tag": "\u8d2d\u7269;\u5546\u94fa", "type": "shopping", "detail_url": "http://api.map.baidu.com/place/detail?uid=ff3fc3abc9fc3ac1c03644ed&output=html&source=placeapi_v2", "children": [], "lat": 32.01473522886026, "lng": 118.72174668359342}}, {"name": "GERMES CUOPARSE(\u4e2d\u592e\u5546\u573a\u5e97)", "location": {"lat": 32.009382939564524, "lng": 118.7269158577841}, "address": "\u6c5f\u4e1c\u4e2d\u8def237\u53f7\u4e2d\u592e\u5546\u573a3\u5c42", "province": "\u6c5f\u82cf\u7701", "city": "\u5357\u4eac\u5e02", "area": "\u5efa\u90ba\u533a", "detail": 1, "uid": "f57a9165cc5b4d6a7ab55c15", "detail_info": {"tag": "\u8d2d\u7269;\u5546\u94fa", "type": "shopping", "detail_url": "http://api.map.baidu.com/place/detail?uid=f57a9165cc5b4d6a7ab55c15&output=html&source=placeapi_v2", "children": [], "lat": 32.009382939564524, "lng": 118.7269158577841}}, {"name": "\u90fd\u5e02\u767e\u8d27", "location": {"lat": 32.00621483110716, "lng": 118.71709076994478}, "address": "\u5965\u4f53\u5927\u8857\u5965\u4f53\u5357\u95e8\u73af\u5b87\u519c\u8d38\u5e02\u573a\u8d1f1\u697c", "province": "\u6c5f\u82cf\u7701", "city": "\u5357\u4eac\u5e02", "area": "\u5efa\u90ba\u533a", "telephone": "15062266307", "detail": 1, "uid": "78133a413b07bc75c036442a", "detail_info": {"tag": "\u8d2d\u7269;\u4fbf\u5229\u5e97", "type": "shopping", "detail_url": "http://api.map.baidu.com/place/detail?uid=78133a413b07bc75c036442a&output=html&source=placeapi_v2", "children": [], "lat": 32.00621483110716, "lng": 118.71709076994478}}, {"name": "\u5357\u4eac\u8212\u8fea\u4f73\u4f53\u80b2\u7528\u54c1\u6709\u9650\u516c\u53f8", "location": {"lat": 32.00929799103143, "lng": 118.71969027191277}, "address": "\u71d5\u5c71\u8def\u9644\u8fd1", "province": "\u6c5f\u82cf\u7701", "city": "\u5357\u4eac\u5e02", "area": "\u5efa\u90ba\u533a", "telephone": "(025)86200532", "detail": 1, "uid": "b34fc71a1083228287330402", "detail_info": {"tag": "\u516c\u53f8\u4f01\u4e1a;\u516c\u53f8", "type": "enterprise", "detail_url": "http://api.map.baidu.com/place/detail?uid=b34fc71a1083228287330402&output=html&source=placeapi_v2", "overall_rating": "5.0", "comment_num": "1", "children": [], "lat": 32.00929799103143, "lng": 118.71969027191277}}, {"name": "moothskin\u6d77\u5916\u65d7\u8230\u5e97", "location": {"lat": 32.01482537335188, "lng": 118.72185022929261}, "address": "\u68a6\u90fd\u5927\u8857150\u53f7\u5efa\u7b51\u5e08\u5de5\u793e405\u5ba4", "province": "\u6c5f\u82cf\u7701", "city": "\u5357\u4eac\u5e02", "area": "\u5efa\u90ba\u533a", "detail": 1, "uid": "b300b9772342ed8935b06cd7", "detail_info": {"tag": "\u8d2d\u7269;\u5546\u94fa", "type": "shopping", "detail_url": "http://api.map.baidu.com/place/detail?uid=b300b9772342ed8935b06cd7&output=html&source=placeapi_v2", "children": [], "lat": 32.01482537335188, "lng": 118.72185022929261}}, {"name": "\u71d5\u4e4b\u5c4b", "location": {"lat": 32.01095088602052, "lng": 118.71721459162973}, "address": "\u6c5f\u82cf\u7701\u5357\u4eac\u5e02\u5efa\u90ba\u533a\u6cb3\u897f\u4e2d\u592e\u5546\u52a1\u533a\u6c5f\u4e1c\u4e2d\u8def329\u53f7\u91d1\u5965\u56fd\u9645\u8d2d\u7269\u4e2d\u5fc3", "province": "\u6c5f\u82cf\u7701", "city": "\u5357\u4eac\u5e02", "area": "\u5efa\u90ba\u533a", "detail": 1, "uid": "e00d403452e9ef909022e050", "detail_info": {"tag": "\u8d2d\u7269;\u5546\u94fa", "type": "shopping", "detail_url": "http://api.map.baidu.com/place/detail?uid=e00d403452e9ef909022e050&output=html&source=placeapi_v2", "children": [], "lat": 32.01095088602052, "lng": 118.71721459162973}}, {"name": "\u7279\u6b65(\u4e2d\u592e\u5546\u573a\u5e97)", "location": {"lat": 32.009552428716646, "lng": 118.72654593224519}, "address": "\u6c5f\u4e1c\u4e2d\u8def128\u53f7\u4e2d\u592e\u5546\u573a\u6cb3\u897f\u5e974\u5c42", "province": "\u6c5f\u82cf\u7701", "city": "\u5357\u4eac\u5e02", "area": "\u5efa\u90ba\u533a", "detail": 1, "uid": "bf7fba5fd391dd28734b878a", "detail_info": {"tag": "\u8d2d\u7269;\u5546\u94fa", "type": "shopping", "detail_url": "http://api.map.baidu.com/place/detail?uid=bf7fba5fd391dd28734b878a&output=html&source=placeapi_v2", "children": [], "lat": 32.009552428716646, "lng": 118.72654593224519}}, {"name": "\u81ea\u52a8\u552e\u8d27\u673a", "location": {"lat": 32.009045367316354, "lng": 118.72655686654394}, "address": "\u5357\u4eac\u5e02\u5efa\u90ba\u533a\u6c5f\u4e1c\u4e2d\u8def270\u53f7\u4e2d\u592e\u5546\u573aF4", "province": "\u6c5f\u82cf\u7701", "city": "\u5357\u4eac\u5e02", "area": "\u5efa\u90ba\u533a", "detail": 1, "uid": "6f9e3c84056445e580a00c86", "detail_info": {"tag": "\u8d2d\u7269;\u5176\u4ed6", "indoor_floor": "F4", "type": "shopping", "detail_url": "http://api.map.baidu.com/place/detail?uid=6f9e3c84056445e580a00c86&output=html&source=placeapi_v2", "children": [], "lat": 32.009045367316354, "lng": 118.72655686654394}}, {"name": "\u540d\u54c1\u7279\u60e0(\u4e2d\u592e\u5546\u573a\u5e97)", "location": {"lat": 32.0089348425115, "lng": 118.72706939420698}, "address": "\u5357\u4eac\u5e02\u5efa\u90ba\u533a\u6c5f\u4e1c\u4e2d\u8def270\u53f7\u4e2d\u592e\u5546\u573aF3", "province": "\u6c5f\u82cf\u7701", "city": "\u5357\u4eac\u5e02", "area": "\u5efa\u90ba\u533a", "detail": 1, "uid": "f80d6b81d8fde56c100daa41", "detail_info": {"tag": "\u8d2d\u7269;\u5546\u94fa", "indoor_floor": "F3", "type": "shopping", "detail_url": "http://api.map.baidu.com/place/detail?uid=f80d6b81d8fde56c100daa41&output=html&source=placeapi_v2", "children": [], "lat": 32.0089348425115, "lng": 118.72706939420698}}, {"name": "COZY STEPS(\u4e2d\u592e\u5546\u573a\u5e97)", "location": {"lat": 32.00861234074632, "lng": 118.72671337241906}, "address": "\u5357\u4eac\u5e02\u5efa\u90ba\u533a\u6c5f\u4e1c\u4e2d\u8def270\u53f7\u4e2d\u592e\u5546\u573aF1", "province": "\u6c5f\u82cf\u7701", "city": "\u5357\u4eac\u5e02", "area": "\u5efa\u90ba\u533a", "detail": 1, "uid": "673686257d78db737dc8763c", "detail_info": {"tag": "\u8d2d\u7269;\u5546\u94fa", "indoor_floor": "F1", "type": "shopping", "detail_url": "http://api.map.baidu.com/place/detail?uid=673686257d78db737dc8763c&output=html&source=placeapi_v2", "children": [], "lat": 32.00861234074632, "lng": 118.72671337241906}}, {"name": "POLO SPORT(\u4e2d\u592e\u5546\u573a\u5e97)", "location": {"lat": 32.00941227683992, "lng": 118.72726887987127}, "address": "\u5357\u4eac\u5efa\u90ba\u533a\u5357\u4eac\u5e02\u5efa\u90ba\u533a\u6c5f\u4e1c\u4e2d\u8def270\u53f7\u4e2d\u592e\u5546\u573aF1", "province": "\u6c5f\u82cf\u7701", "city": "\u5357\u4eac\u5e02", "area": "\u5efa\u90ba\u533a", "detail": 1, "uid": "358e3c42b7aada859de3215b", "detail_info": {"tag": "\u8d2d\u7269;\u5546\u94fa", "indoor_floor": "F1", "type": "shopping", "detail_url": "http://api.map.baidu.com/place/detail?uid=358e3c42b7aada859de3215b&output=html&source=placeapi_v2", "children": [], "lat": 32.00941227683992, "lng": 118.72726887987127}}, {"name": "\u4f9d\u6960(\u4e2d\u592e\u5546\u573a\u5e97)", "location": {"lat": 32.0090790625916, "lng": 118.72665458447413}, "address": "\u5357\u4eac\u5e02\u5efa\u90ba\u533a\u6c5f\u4e1c\u4e2d\u8def270\u53f7\u4e2d\u592e\u5546\u573aF2", "province": "\u6c5f\u82cf\u7701", "city": "\u5357\u4eac\u5e02", "area": "\u5efa\u90ba\u533a", "detail": 1, "uid": "ccb711777fe355af2a201ada", "detail_info": {"tag": "\u8d2d\u7269;\u5546\u94fa", "indoor_floor": "F2", "type": "shopping", "detail_url": "http://api.map.baidu.com/place/detail?uid=ccb711777fe355af2a201ada&output=html&source=placeapi_v2", "children": [], "lat": 32.0090790625916, "lng": 118.72665458447413}}, {"name": "\u5143\u7d20\u00b7\u7b80(\u4e2d\u592e\u5546\u573a\u5e97)", "location": {"lat": 32.00899845980423, "lng": 118.72657181900622}, "address": "\u5357\u4eac\u5e02\u5efa\u90ba\u533a\u6c5f\u4e1c\u4e2d\u8def270\u53f7\u4e2d\u592e\u5546\u573aF2", "province": "\u6c5f\u82cf\u7701", "city": "\u5357\u4eac\u5e02", "area": "\u5efa\u90ba\u533a", "detail": 1, "uid": "55bcb777e8a2ef0d28b97ce9", "detail_info": {"tag": "\u8d2d\u7269;\u5546\u94fa", "indoor_floor": "F2", "type": "shopping", "detail_url": "http://api.map.baidu.com/place/detail?uid=55bcb777e8a2ef0d28b97ce9&output=html&source=placeapi_v2", "children": [], "lat": 32.00899845980423, "lng": 118.72657181900622}}, {"name": "KADO(\u4e2d\u592e\u5546\u573a\u5e97)", "location": {"lat": 32.0093391410579, "lng": 118.72725092426445}, "address": "\u5357\u4eac\u5e02\u5efa\u90ba\u533a\u6c5f\u4e1c\u4e2d\u8def270\u53f7\u4e2d\u592e\u5546\u573aF4", "province": "\u6c5f\u82cf\u7701", "city": "\u5357\u4eac\u5e02", "area": "\u5efa\u90ba\u533a", "detail": 1, "uid": "a7691affc3c7d3d11c580044", "detail_info": {"tag": "\u8d2d\u7269;\u5546\u94fa", "indoor_floor": "F4", "type": "shopping", "detail_url": "http://api.map.baidu.com/place/detail?uid=a7691affc3c7d3d11c580044&output=html&source=placeapi_v2", "children": [], "lat": 32.0093391410579, "lng": 118.72725092426445}}, {"name": "\u4f18\u5ec9\u679c\u4e1a", "location": {"lat": 32.006164799163685, "lng": 118.72411938537594}, "address": "\u5965\u4f53\u4e1c\u5730\u94c1\u7ad9\u5730\u4e0b\u5546\u573a19\u53f7\u94fa(\u8fd15\u53f7\u53e3)", "province": "\u6c5f\u82cf\u7701", "city": "\u5357\u4eac\u5e02", "area": "\u5efa\u90ba\u533a", "telephone": "13914711136,13914710509", "detail": 1, "uid": "5e9ac33f2ef11e2d932ca3ce", "detail_info": {"tag": "\u8d2d\u7269;\u5546\u94fa", "type": "shopping", "detail_url": "http://api.map.baidu.com/place/detail?uid=5e9ac33f2ef11e2d932ca3ce&output=html&source=placeapi_v2", "children": [], "lat": 32.006164799163685, "lng": 118.72411938537594}}, {"name": "Arabesque Pilates", "location": {"lat": 32.00848079148395, "lng": 118.72649798612983}, "address": "\u6c5f\u4e1c\u4e2d\u8def239\u53f7\u96e8\u6da6\u4e2d\u592e\u516c\u9986A2\u680b1411", "province": "\u6c5f\u82cf\u7701", "city": "\u5357\u4eac\u5e02", "area": "\u5efa\u90ba\u533a", "detail": 1, "uid": "4749728ca8b3025090114c90", "detail_info": {"tag": "\u8d2d\u7269;\u5546\u94fa", "type": "life", "detail_url": "http://api.map.baidu.com/place/detail?uid=4749728ca8b3025090114c90&output=html&source=placeapi_v2", "image_num": "1", "children": [], "lat": 32.00848079148395, "lng": 118.72649798612983}}, {"name": "\u878d\u4fa8\u519c\u526f\u4ea7\u54c1\u5e73\u4ef7\u76f4\u9500\u5e97", "location": {"lat": 32.00624479875645, "lng": 118.71365191796383}, "address": "\u5357\u4eac\u5e02\u5efa\u90ba\u533a\u963f\u91cc\u5c71\u8def28\u53f728\u53f7", "province": "\u6c5f\u82cf\u7701", "city": "\u5357\u4eac\u5e02", "area": "\u5efa\u90ba\u533a", "street_id": "b13ea739a08a6106774ff1e7", "detail": 1, "uid": "b13ea739a08a6106774ff1e7", "detail_info": {"tag": "\u8d2d\u7269;\u5546\u94fa", "type": "shopping", "detail_url": "http://api.map.baidu.com/place/detail?uid=b13ea739a08a6106774ff1e7&output=html&source=placeapi_v2", "children": [], "lat": 32.00624479875645, "lng": 118.71365191796383}}, {"name": "ZC(\u4e2d\u592e\u5546\u573a\u6cb3\u897f\u5e97)", "location": {"lat": 32.009382939564524, "lng": 118.7269158577841}, "address": "\u6c5f\u4e1c\u4e2d\u8def128\u53f7\u4e2d\u592e\u5546\u573a\u6cb3\u897f\u5e972\u5c42", "province": "\u6c5f\u82cf\u7701", "city": "\u5357\u4eac\u5e02", "area": "\u5efa\u90ba\u533a", "detail": 1, "uid": "ff8d7aab1edebd909f09f7aa", "detail_info": {"tag": "\u8d2d\u7269;\u5546\u94fa", "type": "shopping", "detail_url": "http://api.map.baidu.com/place/detail?uid=ff8d7aab1edebd909f09f7aa&output=html&source=placeapi_v2", "children": [], "lat": 32.009382939564524, "lng": 118.7269158577841}}, {"name": "ping", "location": {"lat": 32.00940328024641, "lng": 118.7192314556377}, "address": "\u5357\u4eac\u5e02\u5efa\u90ba\u533a\u5965\u4f53\u5927\u8857(\u5357\u4eac\u5965\u6797\u5339\u514b\u4f53\u80b2\u4e2d\u5fc3)", "province": "\u6c5f\u82cf\u7701", "city": "\u5357\u4eac\u5e02", "area": "\u5efa\u90ba\u533a", "street_id": "22d623b9375e488888b9882c", "detail": 1, "uid": "22d623b9375e488888b9882c", "detail_info": {"tag": "\u8d2d\u7269;\u5546\u94fa", "type": "shopping", "detail_url": "http://api.map.baidu.com/place/detail?uid=22d623b9375e488888b9882c&output=html&source=placeapi_v2", "children": [], "lat": 32.00940328024641, "lng": 118.7192314556377}}, {"name": "cooleer\u9177\u52d2(\u4e2d\u592e\u5546\u573a\u6cb3\u897f\u5e97)", "location": {"lat": 32.009552428716646, "lng": 118.72654593224519}, "address": "\u6c5f\u4e1c\u4e2d\u8def128\u53f7\u4e2d\u592e\u5546\u573a\u6cb3\u897f\u5e972\u5c42", "province": "\u6c5f\u82cf\u7701", "city": "\u5357\u4eac\u5e02", "area": "\u5efa\u90ba\u533a", "detail": 1, "uid": "284aadb7836a17d7da2f2863", "detail_info": {"tag": "\u8d2d\u7269;\u5546\u94fa", "type": "shopping", "detail_url": "http://api.map.baidu.com/place/detail?uid=284aadb7836a17d7da2f2863&output=html&source=placeapi_v2", "children": [], "lat": 32.009552428716646, "lng": 118.72654593224519}}, {"name": "\u6781\u7c73\u4f53\u9a8c\u5e97", "location": {"lat": 32.01100352589581, "lng": 118.71718773057098}, "address": "\u6cb3\u897f\u4e2d\u592e\u5546\u52a1\u533a\u534e\u91c7\u5929\u5730", "province": "\u6c5f\u82cf\u7701", "city": "\u5357\u4eac\u5e02", "area": "\u5efa\u90ba\u533a", "detail": 1, "uid": "ea019e8569c0b06dfe0eb00c", "detail_info": {"tag": "\u8d2d\u7269;\u5bb6\u7535\u6570\u7801", "type": "shopping", "detail_url": "http://api.map.baidu.com/place/detail?uid=ea019e8569c0b06dfe0eb00c&output=html&source=placeapi_v2", "children": [], "lat": 32.01100352589581, "lng": 118.71718773057098}}, {"name": "119\u8bbe\u8ba1\u4e2d\u5fc3", "location": {"lat": 32.008833720849374, "lng": 118.71015862787192}, "address": "\u5357\u4eac\u5e02\u5efa\u90ba\u533a\u5965\u4f53\u5927\u8857\u4e0e\u4e50\u5c71\u8def\u4ea4\u53c9\u8def\u53e3\u5f80\u897f\u7ea6150\u7c73(\u91d1\u9a6c\u90e6\u57ce-\u897f\u533a)", "province": "\u6c5f\u82cf\u7701", "city": "\u5357\u4eac\u5e02", "area": "\u5efa\u90ba\u533a", "detail": 1, "uid": "aa457da33ab8b540b5147fbd", "detail_info": {"tag": "\u8d2d\u7269;\u5546\u94fa", "type": "shopping", "detail_url": "http://api.map.baidu.com/place/detail?uid=aa457da33ab8b540b5147fbd&output=html&source=placeapi_v2", "children": [], "lat": 32.008833720849374, "lng": 118.71015862787192}}, {"name": "Barbie(\u4e2d\u592e\u5546\u573a\u5e97)", "location": {"lat": 32.00884803901349, "lng": 118.7268051317063}, "address": "\u5357\u4eac\u5e02\u5efa\u90ba\u533a\u6c5f\u4e1c\u4e2d\u8def270\u53f7\u4e2d\u592e\u5546\u573aF3", "province": "\u6c5f\u82cf\u7701", "city": "\u5357\u4eac\u5e02", "area": "\u5efa\u90ba\u533a", "street_id": "89781accf1c45e031d1d11be", "detail": 1, "uid": "89781accf1c45e031d1d11be", "detail_info": {"tag": "\u8d2d\u7269;\u5546\u94fa", "indoor_floor": "F3", "type": "shopping", "detail_url": "http://api.map.baidu.com/place/detail?uid=89781accf1c45e031d1d11be&output=html&source=placeapi_v2", "children": [], "lat": 32.00884803901349, "lng": 118.7268051317063}}, {"name": "dasteakhouse\u4e2d\u592e\u5546\u573a", "location": {"lat": 32.00916794787326, "lng": 118.72692581509818}, "address": "\u5357\u4eac\u5e02\u5efa\u90ba\u533a\u6c5f\u4e1c\u4e2d\u8def\u4e0e\u7261\u4e39\u6c5f\u8857\u4ea4\u53c9\u8def\u53e3\u5f80\u4e1c\u7ea650\u7c73(\u4e2d\u592e\u5546\u573a)", "province": "\u6c5f\u82cf\u7701", "city": "\u5357\u4eac\u5e02", "area": "\u5efa\u90ba\u533a", "detail": 1, "uid": "6d97193485827ec89cf779b9", "detail_info": {"tag": "\u8d2d\u7269;\u5546\u94fa", "type": "life", "detail_url": "http://api.map.baidu.com/place/detail?uid=6d97193485827ec89cf779b9&output=html&source=placeapi_v2", "image_num": "1", "children": [], "lat": 32.00916794787326, "lng": 118.72692581509818}}, {"name": "\u4e07\u679c\u4e50", "location": {"lat": 32.01875608486416, "lng": 118.7098189941068}, "address": "\u68a6\u90fd\u5927\u8857188\u53f7\u5fa1\u6c5f\u91d1\u57ce9\u680b104\u5ba4", "province": "\u6c5f\u82cf\u7701", "city": "\u5357\u4eac\u5e02", "area": "\u5efa\u90ba\u533a", "telephone": "18951089218", "detail": 1, "uid": "58e41e5e8c0771a0e856fa98", "detail_info": {"tag": "\u8d2d\u7269;\u5546\u94fa", "type": "shopping", "detail_url": "http://api.map.baidu.com/place/detail?uid=58e41e5e8c0771a0e856fa98&output=html&source=placeapi_v2", "children": [], "lat": 32.01875608486416, "lng": 118.7098189941068}}, {"name": "\u6797\u5b50(\u4e2d\u592e\u5546\u573a\u5e97)", "location": {"lat": 32.00883027928448, "lng": 118.72684102771805}, "address": "\u5357\u4eac\u5e02\u5efa\u90ba\u533a\u6c5f\u4e1c\u4e2d\u8def270\u53f7\u4e2d\u592e\u5546\u573aF2", "province": "\u6c5f\u82cf\u7701", "city": "\u5357\u4eac\u5e02", "area": "\u5efa\u90ba\u533a", "detail": 1, "uid": "d166836775c370c729fc48c8", "detail_info": {"tag": "\u8d2d\u7269;\u5546\u94fa", "indoor_floor": "F2", "type": "shopping", "detail_url": "http://api.map.baidu.com/place/detail?uid=d166836775c370c729fc48c8&output=html&source=placeapi_v2", "children": [], "lat": 32.00883027928448, "lng": 118.72684102771805}}, {"name": "\u94c1\u5854\u6362\u7535(\u91d1\u9a6c\u90e6\u57ce\u65d7\u8230\u5e97)", "location": {"lat": 32.00904179605074, "lng": 118.7103385088375}, "address": "\u5357\u4eac\u5e02\u5efa\u90ba\u533a\u5965\u4f53\u5927\u8857\u4e0e\u4e50\u5c71\u8def\u4ea4\u53c9\u8def\u53e3\u5f80\u897f\u7ea6100\u7c73(\u91d1\u9a6c\u90e6\u57ceC\u533a)", "province": "\u6c5f\u82cf\u7701", "city": "\u5357\u4eac\u5e02", "area": "\u5efa\u90ba\u533a", "detail": 1, "uid": "c424682276922b7f7bf79671", "detail_info": {"tag": "\u8d2d\u7269;\u5bb6\u7535\u6570\u7801", "type": "shopping", "detail_url": "http://api.map.baidu.com/place/detail?uid=c424682276922b7f7bf79671&output=html&source=placeapi_v2", "overall_rating": "0.0", "comment_num": "1", "children": [], "lat": 32.00904179605074, "lng": 118.7103385088375}}, {"name": "\u4f0a\u8299\u4e3d\u4e13\u67dc", "location": {"lat": 32.01095088602052, "lng": 118.71721459162973}, "address": "\u6c5f\u82cf\u7701\u5357\u4eac\u5e02\u5efa\u90ba\u533a\u6cb3\u897f\u4e2d\u592e\u5546\u52a1\u533a\u6cb3\u897f\u4e2d\u592e\u5546\u52a1\u533a\u6cb3\u897f\u4e2d\u592e\u5546\u52a1\u533a\u6c5f\u4e1c\u4e2d\u8def329\u53f7\u91d1\u5965\u56fd\u9645\u8d2d\u7269\u4e2d\u5fc3", "province": "\u6c5f\u82cf\u7701", "city": "\u5357\u4eac\u5e02", "area": "\u5efa\u90ba\u533a", "detail": 1, "uid": "6709d361adcfc49a43e1928c", "detail_info": {"tag": "\u8d2d\u7269;\u5546\u94fa", "type": "shopping", "detail_url": "http://api.map.baidu.com/place/detail?uid=6709d361adcfc49a43e1928c&output=html&source=placeapi_v2", "children": [], "lat": 32.01095088602052, "lng": 118.71721459162973}}, {"name": "\u5c71\u767e\u60e0(\u4e2d\u592e\u5546\u573a\u6cb3\u897f\u5e97)", "location": {"lat": 32.00895249006596, "lng": 118.7271671251936}, "address": "\u6c5f\u4e1c\u4e2d\u8def237\u53f7\u4e2d\u592e\u5546\u573a1\u697c", "province": "\u6c5f\u82cf\u7701", "city": "\u5357\u4eac\u5e02", "area": "\u5efa\u90ba\u533a", "detail": 1, "uid": "df31a0fbc28ba367b54f5478", "detail_info": {"tag": "\u8d2d\u7269;\u5546\u94fa", "type": "shopping", "detail_url": "http://api.map.baidu.com/place/detail?uid=df31a0fbc28ba367b54f5478&output=html&source=placeapi_v2", "children": [], "lat": 32.00895249006596, "lng": 118.7271671251936}}, {"name": "\u592b\u5170\u831c(\u4e2d\u592e\u5546\u573a\u5e97)", "location": {"lat": 32.00938955258089, "lng": 118.7273127591962}, "address": "\u5357\u4eac\u5efa\u90ba\u533a\u5357\u4eac\u5e02\u5efa\u90ba\u533a\u6c5f\u4e1c\u4e2d\u8def270\u53f7\u4e2d\u592e\u5546\u573aF2", "province": "\u6c5f\u82cf\u7701", "city": "\u5357\u4eac\u5e02", "area": "\u5efa\u90ba\u533a", "street_id": "54f08d2c461caaa3b020a873", "detail": 1, "uid": "54f08d2c461caaa3b020a873", "detail_info": {"tag": "\u8d2d\u7269;\u5546\u94fa", "indoor_floor": "F2", "type": "shopping", "detail_url": "http://api.map.baidu.com/place/detail?uid=54f08d2c461caaa3b020a873&output=html&source=placeapi_v2", "children": [], "lat": 32.00938955258089, "lng": 118.7273127591962}}, {"name": "\u81ea\u52a8\u552e\u8d27\u673a(\u4e2d\u592e\u5546\u573a\u5e97)", "location": {"lat": 32.00905927956883, "lng": 118.72654390561512}, "address": "\u5357\u4eac\u5e02\u5efa\u90ba\u533a\u6c5f\u4e1c\u4e2d\u8def270\u53f7\u4e2d\u592e\u5546\u573aF3", "province": "\u6c5f\u82cf\u7701", "city": "\u5357\u4eac\u5e02", "area": "\u5efa\u90ba\u533a", "street_id": "e1594986a1ed9a5279b55c0a", "detail": 1, "uid": "e1594986a1ed9a5279b55c0a", "detail_info": {"tag": "\u8d2d\u7269;\u5176\u4ed6", "indoor_floor": "F3", "type": "shopping", "detail_url": "http://api.map.baidu.com/place/detail?uid=e1594986a1ed9a5279b55c0a&output=html&source=placeapi_v2", "children": [], "lat": 32.00905927956883, "lng": 118.72654390561512}}, {"name": "\u5361\u96f7\u62c9\u8def\u8f68\u8d5b\u8f66(\u4e2d\u592e\u5546\u573a\u5e97)", "location": {"lat": 32.00930999760297, "lng": 118.72722997960203}, "address": "\u5357\u4eac\u5e02\u5efa\u90ba\u533a\u6c5f\u4e1c\u4e2d\u8def270\u53f7\u4e2d\u592e\u5546\u573aF3", "province": "\u6c5f\u82cf\u7701", "city": "\u5357\u4eac\u5e02", "area": "\u5efa\u90ba\u533a", "detail": 1, "uid": "bedfc394eeef9d067adbd20d", "detail_info": {"tag": "\u8d2d\u7269;\u5546\u94fa", "indoor_floor": "F3", "type": "shopping", "detail_url": "http://api.map.baidu.com/place/detail?uid=bedfc394eeef9d067adbd20d&output=html&source=placeapi_v2", "children": [], "lat": 32.00930999760297, "lng": 118.72722997960203}}, {"name": "Kisscat", "location": {"lat": 32.009552428716646, "lng": 118.72654593224519}, "address": "\u6c5f\u4e1c\u4e2d\u8def128\u53f7\u4e2d\u592e\u5546\u573a\u6cb3\u897f\u5e971\u5c42", "province": "\u6c5f\u82cf\u7701", "city": "\u5357\u4eac\u5e02", "area": "\u5efa\u90ba\u533a", "detail": 1, "uid": "3bf0f600fe3eb2d62b06cefa", "detail_info": {"tag": "\u8d2d\u7269;\u5546\u94fa", "type": "shopping", "detail_url": "http://api.map.baidu.com/place/detail?uid=3bf0f600fe3eb2d62b06cefa&output=html&source=placeapi_v2", "children": [], "lat": 32.009552428716646, "lng": 118.72654593224519}}, {"name": "POLO SPORT(\u4e2d\u592e\u5546\u573a\u5e97)", "location": {"lat": 32.009411610108096, "lng": 118.72716616122176}, "address": "\u5357\u4eac\u5e02\u5efa\u90ba\u533a\u6c5f\u4e1c\u4e2d\u8def270\u53f7\u4e2d\u592e\u5546\u573aF1", "province": "\u6c5f\u82cf\u7701", "city": "\u5357\u4eac\u5e02", "area": "\u5efa\u90ba\u533a", "detail": 1, "uid": "9f59af8141885444c7f50d15", "detail_info": {"tag": "\u8d2d\u7269;\u5546\u94fa", "indoor_floor": "F1", "type": "shopping", "detail_url": "http://api.map.baidu.com/place/detail?uid=9f59af8141885444c7f50d15&output=html&source=placeapi_v2", "children": [], "lat": 32.009411610108096, "lng": 118.72716616122176}}, {"name": "\u6a0a\u6587\u82b1(\u4e2d\u592e\u5546\u573a\u5e97)", "location": {"lat": 32.00915131180052, "lng": 118.72698065948231},