"{'name': '仁恒江岛置业有限公司', 'location': {'lat': 32.00755392703247, 'lng': 118.69148462470721}, 'address': '南京市建邺区洲泰路与文泰街交叉路口往北约100米(江心洲中学)', 'province': '江苏省', 'city': '南京市', 'area': '建邺区', 'detail': 1, 'uid': 'c62d339668565b2877e5b63e', 'detail_info': {'tag': '公司企业;公司', 'type': 'enterprise', 'detail_url': 'http://api.map.baidu.com/place/detail?uid=c62d339668565b2877e5b63e&output=html&source=placeapi_v2', 'children': [], 'lat': 32.00755392703247, 'lng': 118.69148462470721}}"
"{'name': '南京妥自动门有限公司', 'location': {'lat': 32.0116427921329, 'lng': 118.69306932295193}, 'address': '江心洲民安路绿岛花园1幢105', 'province': '江苏省', 'city': '南京市', 'area': '建邺区', 'detail': 1, 'uid': '44bf9db96a913c78c61b7513', 'detail_info': {'tag': '公司企业;公司', 'type': 'enterprise', 'detail_url': 'http://api.map.baidu.com/place/detail?uid=44bf9db96a913c78c61b7513&output=html&source=placeapi_v2', 'children': [], 'lat': 32.0116427921329, 'lng': 118.69306932295193}}"
"{'name': '南京乐棚市政工程有限公司', 'location': {'lat': 32.011709399073965, 'lng': 118.69095281514495}, 'address': '江苏省南京市建邺区民安路附近', 'province': '江苏省', 'city': '南京市', 'area': '建邺区', 'detail': 1, 'uid': 'dcf9c8a40638357140024550', 'detail_info': {'tag': '公司企业;公司', 'type': 'enterprise', 'detail_url': 'http://api.map.baidu.com/place/detail?uid=dcf9c8a40638357140024550&output=html&source=placeapi_v2', 'children': [], 'lat': 32.011709399073965, 'lng': 118.69095281514495}}"
"{'name': '南京来金市政工程有限公司', 'location': {'lat': 32.01170421510854, 'lng': 118.69093790125392}, 'address': '民安路绿岛新村02栋民安路西50米', 'province': '江苏省', 'city': '南京市', 'area': '建邺区', 'detail': 1, 'uid': '1003e30104850f3208b93a9f', 'detail_info': {'tag': '公司企业;公司', 'type': 'enterprise', 'detail_url': 'http://api.map.baidu.com/place/detail?uid=1003e30104850f3208b93a9f&output=html&source=placeapi_v2', 'children': [], 'lat': 32.01170421510854, 'lng': 118.69093790125392}}"
"{'name': '南京海斯有害生物防制有限公司', 'location': {'lat': 32.00961453660975, 'lng': 118.69613027115253}, 'address': '南京市建邺区洲秦路与民安路交叉路口东南侧(南京市公安局建邺分局江心洲派出所东侧)', 'province': '江苏省', 'city': '南京市', 'area': '建邺区', 'street_id': '249761e678a56d6444572650', 'telephone': '(025)86420610', 'detail': 1, 'uid': '249761e678a56d6444572650', 'detail_info': {'tag': '公司企业;公司', 'navi_location': {'lng': 118.70773061879, 'lat': 32.013507683206}, 'type': 'enterprise', 'detail_url': 'http://api.map.baidu.com/place/detail?uid=249761e678a56d6444572650&output=html&source=placeapi_v2', 'children': [], 'lat': 32.00961453660975, 'lng': 118.69613027115253}}"
"{'name': '南京市城市排水管理有限公司管线养护管理中心', 'location': {'lat': 32.01075752329336, 'lng': 118.70217236744959}, 'address': '南京市建邺区太阳宫路与棉花堤路交叉路口北侧(南京金陵江滨国际会议中心酒店西南侧)', 'province': '江苏省', 'city': '南京市', 'area': '建邺区', 'street_id': 'f4dcf0406a35b5cf49fc8da8', 'detail': 1, 'uid': 'f4dcf0406a35b5cf49fc8da8', 'detail_info': {'tag': '公司企业;公司', 'type': 'enterprise', 'detail_url': 'http://api.map.baidu.com/place/detail?uid=f4dcf0406a35b5cf49fc8da8&output=html&source=placeapi_v2', 'children': [], 'lat': 32.01075752329336, 'lng': 118.70217236744959}}"
"{'name': '国荣公司', 'location': {'lat': 32.01453925391045, 'lng': 118.70373142053607}, 'address': '南京市建邺区扬子江大道金陵江滨酒店北门', 'province': '江苏省', 'city': '南京市', 'area': '建邺区', 'detail': 1, 'uid': '4e861ece46a522b915a1902c', 'detail_info': {'tag': '公司企业;公司', 'type': 'enterprise', 'detail_url': 'http://api.map.baidu.com/place/detail?uid=4e861ece46a522b915a1902c&output=html&source=placeapi_v2', 'children': [], 'lat': 32.01453925391045, 'lng': 118.70373142053607}}"
"{'name': '乐栩市政工程公司', 'location': {'lat': 32.011713729429864, 'lng': 118.69097966047211}, 'address': '江苏省南京市建邺区江心洲街道民安路绿岛新村东北门', 'province': '江苏省', 'city': '南京市', 'area': '建邺区', 'street_id': 'd2f7c491b7d353062fe67b84', 'detail': 1, 'uid': 'd2f7c491b7d353062fe67b84', 'detail_info': {'tag': '公司企业;公司', 'type': 'enterprise', 'detail_url': 'http://api.map.baidu.com/place/detail?uid=d2f7c491b7d353062fe67b84&output=html&source=placeapi_v2', 'children': [], 'lat': 32.011713729429864, 'lng': 118.69097966047211}}"
"{'name': '南京丽梦媛文化传播有限公司', 'location': {'lat': 32.008208991403926, 'lng': 118.70340000835746}, 'address': '江苏省南京市建邺区扬子江大道266-1号', 'province': '江苏省', 'city': '南京市', 'area': '建邺区', 'street_id': '4a80c92cb51d7379c16c14e5', 'detail': 1, 'uid': '4a80c92cb51d7379c16c14e5', 'detail_info': {'tag': '文化传媒;其他', 'type': 'enterprise', 'detail_url': 'http://api.map.baidu.com/place/detail?uid=4a80c92cb51d7379c16c14e5&output=html&source=placeapi_v2', 'children': [], 'lat': 32.008208991403926, 'lng': 118.70340000835746}}"
"{'name': '紫金拍卖', 'location': {'lat': 32.00835512225894, 'lng': 118.70334737752238}, 'address': '南京市建邺区扬子江大道266号', 'province': '江苏省', 'city': '南京市', 'area': '建邺区', 'street_id': '0a68d33a30b76aeed4851f00', 'detail': 1, 'uid': '0a68d33a30b76aeed4851f00', 'detail_info': {'tag': '公司企业;公司', 'navi_location': {'lng': 118.71488589886, 'lat': 32.012229470657}, 'type': 'enterprise', 'detail_url': 'http://api.map.baidu.com/place/detail?uid=0a68d33a30b76aeed4851f00&output=html&source=placeapi_v2', 'children': [], 'lat': 32.00835512225894, 'lng': 118.70334737752238}}"
"{'name': '子墨车业', 'location': {'lat': 32.01002434661902, 'lng': 118.69463076998558}, 'address': '中新南京生态科技岛江心洲街道洲泰路梅子新寓02栋105室', 'province': '江苏省', 'city': '南京市', 'area': '建邺区', 'telephone': '18901591312', 'detail': 1, 'uid': 'dd3e9065f2e413c99ee321fd', 'detail_info': {'tag': '公司企业;公司', 'detail_url': 'http://api.map.baidu.com/place/detail?uid=dd3e9065f2e413c99ee321fd&output=html&source=placeapi_v2', 'children': [], 'lat': 32.01002434661902, 'lng': 118.69463076998558}}"
"{'name': '江苏有线南京分公司(南京分公司奥体管理站)', 'location': {'lat': 32.00860030252485, 'lng': 118.70813956804844}, 'address': '奥体大街199号金马骊城小区24栋', 'province': '江苏省', 'city': '南京市', 'area': '建邺区', 'street_id': '974683d57b8b3d4c047ce8f1', 'detail': 1, 'uid': '974683d57b8b3d4c047ce8f1', 'detail_info': {'tag': '政府机构;行政单位', 'navi_location': {'lng': 118.71982519038, 'lat': 32.012361458821}, 'type': 'life', 'detail_url': 'http://api.map.baidu.com/place/detail?uid=974683d57b8b3d4c047ce8f1&output=html&source=placeapi_v2', 'image_num': '8', 'children': [], 'lat': 32.00860030252485, 'lng': 118.70813956804844}}"
"{'name': '南京水建', 'location': {'lat': 32.018145114368934, 'lng': 118.68981462191118}, 'address': '江苏省南京市建邺区林荫路', 'province': '江苏省', 'city': '南京市', 'area': '建邺区', 'detail': 1, 'uid': '987086fbf9c421da8433044e', 'detail_info': {'tag': '公司企业;公司', 'type': 'enterprise', 'detail_url': 'http://api.map.baidu.com/place/detail?uid=987086fbf9c421da8433044e&output=html&source=placeapi_v2', 'children': [], 'lat': 32.018145114368934, 'lng': 118.68981462191118}}"
"{'name': '丰巢(金马郦城C区西)', 'location': {'lat': 32.008518706084345, 'lng': 118.70706360657483}, 'address': '奥体大街199郦城御园南门', 'province': '江苏省', 'city': '南京市', 'area': '建邺区', 'detail': 1, 'uid': '75b38474a25af4f86240a983', 'detail_info': {'tag': '生活服务;物流公司', 'type': 'life', 'detail_url': 'http://api.map.baidu.com/place/detail?uid=75b38474a25af4f86240a983&output=html&source=placeapi_v2', 'image_num': '1', 'children': [], 'lat': 32.008518706084345, 'lng': 118.70706360657483}}"
"{'name': '江苏文投集团', 'location': {'lat': 32.019377390799065, 'lng': 118.70398105139482}, 'address': '江苏省南京市建邺区扬子江大道230号紫金文创园8号楼', 'province': '江苏省', 'city': '南京市', 'area': '建邺区', 'telephone': '(025)83125134', 'detail': 1, 'uid': '85d854a222334b941e1d1125', 'detail_info': {'tag': '公司企业;公司', 'type': 'enterprise', 'detail_url': 'http://api.map.baidu.com/place/detail?uid=85d854a222334b941e1d1125&output=html&source=placeapi_v2', 'children': [], 'lat': 32.019377390799065, 'lng': 118.70398105139482}}"
"{'name': '南京生态科技岛', 'location': {'lat': 32.03053650937052, 'lng': 118.69151132277275}, 'address': '南京市建邺区江心洲', 'province': '江苏省', 'city': '南京市', 'area': '建邺区', 'detail': 1, 'uid': 'abc28951424abdf41e5800dc', 'detail_info': {'tag': '公司企业;公司', 'type': 'enterprise', 'detail_url': 'http://api.map.baidu.com/place/detail?uid=abc28951424abdf41e5800dc&output=html&source=placeapi_v2', 'children': [], 'lat': 32.03053650937052, 'lng': 118.69151132277275}}"
"{'name': '优泰科技', 'location': {'lat': 32.01891035335834, 'lng': 118.7036365772073}, 'address': '江苏省南京市建邺区扬子江大道230号紫金文创园2号楼', 'province': '江苏省', 'city': '南京市', 'area': '建邺区', 'detail': 1, 'uid': '55201e5401380bccab175a0d', 'detail_info': {'tag': '公司企业;公司', 'type': 'enterprise', 'detail_url': 'http://api.map.baidu.com/place/detail?uid=55201e5401380bccab175a0d&output=html&source=placeapi_v2', 'children': [], 'lat': 32.01891035335834, 'lng': 118.7036365772073}}"
"{'name': '共合设(南京)科技有限公司', 'location': {'lat': 32.01926611764795, 'lng': 118.70408143088906}, 'address': '江苏省南京市建邺区扬子江大道230号紫金文创园7号楼', 'province': '江苏省', 'city': '南京市', 'area': '建邺区', 'detail': 1, 'uid': '904655eac8a99647a2a93481', 'detail_info': {'tag': '公司企业;公司', 'type': 'enterprise', 'detail_url': 'http://api.map.baidu.com/place/detail?uid=904655eac8a99647a2a93481&output=html&source=placeapi_v2', 'overall_rating': '5.0', 'comment_num': '2', 'children': [], 'lat': 32.01926611764795, 'lng': 118.70408143088906}}"
"{'name': '餐影梦工场互联网科技有限公司', 'location': {'lat': 32.02733016798198, 'lng': 118.70012268159326}, 'address': '江苏省南京市建邺区江岛新天地西南200米(江堤路西)', 'province': '江苏省', 'city': '南京市', 'area': '建邺区', 'detail': 1, 'uid': 'af175982d5afc878e315f9d5', 'detail_info': {'tag': '公司企业;公司', 'type': 'enterprise', 'detail_url': 'http://api.map.baidu.com/place/detail?uid=af175982d5afc878e315f9d5&output=html&source=placeapi_v2', 'children': [], 'lat': 32.02733016798198, 'lng': 118.70012268159326}}"
"{'name': '南京华桂船舶公司', 'location': {'lat': 32.03084876850261, 'lng': 118.70332016389686}, 'address': '南京市建邺区环岛东路与葡园路交叉路口往东南约50米(新加坡·南京生态科技岛科创中心东南侧约50米)', 'province': '江苏省', 'city': '南京市', 'area': '建邺区', 'street_id': 'bdbcba73b02d4e2f4e776eb3', 'detail': 1, 'uid': 'bdbcba73b02d4e2f4e776eb3', 'detail_info': {'tag': '公司企业;公司', 'type': 'enterprise', 'detail_url': 'http://api.map.baidu.com/place/detail?uid=bdbcba73b02d4e2f4e776eb3&output=html&source=placeapi_v2', 'children': [], 'lat': 32.03084876850261, 'lng': 118.70332016389686}}"
"{'name': '南京滨江公园管理有限公司', 'location': {'lat': 32.024374537901195, 'lng': 118.70470723706816}, 'address': '扬子江大道228', 'province': '江苏省', 'city': '南京市', 'area': '建邺区', 'street_id': '00655c2fcda789aaeddfca36', 'telephone': '(025)86467501', 'detail': 1, 'uid': '00655c2fcda789aaeddfca36', 'detail_info': {'tag': '公司企业;公司', 'navi_location': {'lng': 118.7197904601, 'lat': 32.028915932953}, 'type': 'enterprise', 'detail_url': 'http://api.map.baidu.com/place/detail?uid=00655c2fcda789aaeddfca36&output=html&source=placeapi_v2', 'children': [], 'lat': 32.024374537901195, 'lng': 118.70470723706816}}"
"{'name': '江苏策迪保安服务有限公司', 'location': {'lat': 32.027804737514806, 'lng': 118.70045407771754}, 'address': '江苏省南京市建邺区江心洲环岛东路99号江岛新天地2层', 'province': '江苏省', 'city': '南京市', 'area': '建邺区', 'telephone': '(025)58809527', 'detail': 1, 'uid': '321328bacfadce4045e2744e', 'detail_info': {'tag': '公司企业;公司', 'type': 'enterprise', 'detail_url': 'http://api.map.baidu.com/place/detail?uid=321328bacfadce4045e2744e&output=html&source=placeapi_v2', 'children': [], 'lat': 32.027804737514806, 'lng': 118.70045407771754}}"
"{'name': '南京慧日常临装饰设计公司', 'location': {'lat': 32.01944810935335, 'lng': 118.70436742918417}, 'address': '江苏省南京市建邺区扬子江大道230号紫金文创园7号楼二层', 'province': '江苏省', 'city': '南京市', 'area': '建邺区', 'detail': 1, 'uid': '0bedcbe96348177bd6b74e48', 'detail_info': {'tag': '公司企业;公司', 'type': 'enterprise', 'detail_url': 'http://api.map.baidu.com/place/detail?uid=0bedcbe96348177bd6b74e48&output=html&source=placeapi_v2', 'children': [], 'lat': 32.01944810935335, 'lng': 118.70436742918417}}"
"{'name': '茗嫁坊婚礼顾问', 'location': {'lat': 32.0215708338514, 'lng': 118.70640672826885}, 'address': '扬子江大道218滨江花园酒店(绿博园)', 'province': '江苏省', 'city': '南京市', 'area': '建邺区', 'telephone': '17712882566', 'detail': 1, 'uid': '2dc2c8c3fca516b7a2046471', 'detail_info': {'tag': '公司企业;公司', 'type': 'enterprise', 'detail_url': 'http://api.map.baidu.com/place/detail?uid=2dc2c8c3fca516b7a2046471&output=html&source=placeapi_v2', 'overall_rating': '5.0', 'comment_num': '17', 'children': [], 'lat': 32.0215708338514, 'lng': 118.70640672826885}}"
"{'name': '江心洲科技岛消防站', 'location': {'lat': 32.022319279631084, 'lng': 118.69055329733958}, 'address': '南京市建邺区永定街与贤坤路交叉路口西侧(洲岛家园-绿洲苑南侧约150米)', 'province': '江苏省', 'city': '南京市', 'area': '建邺区', 'detail': 1, 'uid': '6a7e1465a7da00d008f5eb0f', 'detail_info': {'tag': '公司企业;公司', 'detail_url': 'http://api.map.baidu.com/place/detail?uid=6a7e1465a7da00d008f5eb0f&output=html&source=placeapi_v2', 'children': [], 'lat': 32.022319279631084, 'lng': 118.69055329733958}}"
"{'name': '菜鸟驿站(南京州岛花园芳华苑十栋102店)', 'location': {'lat': 32.02667349254142, 'lng': 118.69175525542553}, 'address': '江心洲街道红星路88号洲岛家园芳华苑10栋1单元102室', 'province': '江苏省', 'city': '南京市', 'area': '建邺区', 'detail': 1, 'uid': '45f33f6627b7ddf435b06c60', 'detail_info': {'tag': '生活服务;物流公司', 'type': 'life', 'detail_url': 'http://api.map.baidu.com/place/detail?uid=45f33f6627b7ddf435b06c60&output=html&source=placeapi_v2', 'children': [], 'lat': 32.02667349254142, 'lng': 118.69175525542553}}"
"{'name': '菜鸟驿站(南京洲岛花园绿洲苑7栋102店)', 'location': {'lat': 32.02407557530762, 'lng': 118.69313398234313}, 'address': '江苏省南京市建邺区江心洲街道红星街90号洲岛家园绿洲苑7栋102号', 'province': '江苏省', 'city': '南京市', 'area': '建邺区', 'detail': 1, 'uid': '3acb052022906d7eeee4a5da', 'detail_info': {'tag': '生活服务;物流公司', 'type': 'life', 'detail_url': 'http://api.map.baidu.com/place/detail?uid=3acb052022906d7eeee4a5da&output=html&source=placeapi_v2', 'image_num': '1', 'children': [], 'lat': 32.02407557530762, 'lng': 118.69313398234313}}"
"{'name': '中国石油园', 'location': {'lat': 32.020099356589824, 'lng': 118.70564160239452}, 'address': '南京市建邺区扬子江大道228号滨江公园南京中国绿化博览园内', 'province': '江苏省', 'city': '南京市', 'area': '建邺区', 'street_id': 'ecdf71060872375403ec0174', 'detail': 1, 'uid': 'ecdf71060872375403ec0174', 'detail_info': {'tag': '旅游景点;景点', 'type': 'scope', 'detail_url': 'http://api.map.baidu.com/place/detail?uid=ecdf71060872375403ec0174&output=html&source=placeapi_v2', 'overall_rating': '3.0', 'comment_num': '1', 'children': [], 'lat': 32.020099356589824, 'lng': 118.70564160239452}}"
"{'name': '菜鸟驿站(南京悦江苑3栋108水果店)', 'location': {'lat': 32.027351594452256, 'lng': 118.68987047819816}, 'address': '江心洲街道红星街86号悦江苑3栋2单元108', 'province': '江苏省', 'city': '南京市', 'area': '建邺区', 'detail': 1, 'uid': '5009b718ca20ccb815c9059f', 'detail_info': {'tag': '生活服务;物流公司', 'detail_url': 'http://api.map.baidu.com/place/detail?uid=5009b718ca20ccb815c9059f&output=html&source=placeapi_v2', 'children': [], 'lat': 32.027351594452256, 'lng': 118.68987047819816}}"
"{'name': '中新公司', 'location': {'lat': 32.032860853201456, 'lng': 118.70210437301536}, 'address': '江苏省南京市建邺区江心洲贤坤路1号科创中心4楼', 'province': '江苏省', 'city': '南京市', 'area': '建邺区', 'detail': 1, 'uid': '6b4842dc423e3b139de3213c', 'detail_info': {'tag': '公司企业;公司', 'navi_location': {'lng': 118.71407950667, 'lat': 32.03739237147}, 'type': 'enterprise', 'detail_url': 'http://api.map.baidu.com/place/detail?uid=6b4842dc423e3b139de3213c&output=html&source=placeapi_v2', 'children': [], 'lat': 32.032860853201456, 'lng': 118.70210437301536}}"
"{'name': '大江环境股份有限公司', 'location': {'lat': 32.03285292062788, 'lng': 118.70269044982066}, 'address': '江苏省南京市建邺区贤坤路1号科创中心3楼', 'province': '江苏省', 'city': '南京市', 'area': '建邺区', 'street_id': 'd1500369f1f9a6f15bf6bef1', 'telephone': '(025)82226200', 'detail': 1, 'uid': 'd1500369f1f9a6f15bf6bef1', 'detail_info': {'tag': '公司企业;公司', 'navi_location': {'lng': 118.71453052192, 'lat': 32.037130991875}, 'type': 'enterprise', 'detail_url': 'http://api.map.baidu.com/place/detail?uid=d1500369f1f9a6f15bf6bef1&output=html&source=placeapi_v2', 'children': [], 'lat': 32.03285292062788, 'lng': 118.70269044982066}}"
"{'name': '新加坡创业行动社群南京国际中心', 'location': {'lat': 32.03197802699282, 'lng': 118.7014118811355}, 'address': '江苏省南京市建邺区贤坤路3号江岛智立方c座5楼', 'province': '江苏省', 'city': '南京市', 'area': '建邺区', 'detail': 1, 'uid': '76d9d5b3df111adb441a32cc', 'detail_info': {'tag': '公司企业;公司', 'type': 'enterprise', 'detail_url': 'http://api.map.baidu.com/place/detail?uid=76d9d5b3df111adb441a32cc&output=html&source=placeapi_v2', 'children': [], 'lat': 32.03197802699282, 'lng': 118.7014118811355}}"
"{'name': '保利物业', 'location': {'lat': 32.04235289091154, 'lng': 118.70368162685256}, 'address': '江苏省南京市建邺区江心洲绿水街31号保利紫金公馆9幢402室', 'province': '江苏省', 'city': '南京市', 'area': '建邺区', 'detail': 1, 'uid': '01d069ef0d6ac82694ca07e9', 'detail_info': {'tag': '公司企业;公司', 'type': 'enterprise', 'detail_url': 'http://api.map.baidu.com/place/detail?uid=01d069ef0d6ac82694ca07e9&output=html&source=placeapi_v2', 'children': [], 'lat': 32.04235289091154, 'lng': 118.70368162685256}}"
"{'name': '原谷共享农场(长岛提货点)', 'location': {'lat': 32.04310361649856, 'lng': 118.70104447315117}, 'address': '南京市建邺区绿水街与亚鹏路交叉路口东南侧(长岛观澜汐园)', 'province': '江苏省', 'city': '南京市', 'area': '建邺区', 'street_id': '30fb7c31e554646e5e17c325', 'detail': 1, 'uid': '30fb7c31e554646e5e17c325', 'detail_info': {'tag': '公司企业;公司', 'type': 'enterprise', 'detail_url': 'http://api.map.baidu.com/place/detail?uid=30fb7c31e554646e5e17c325&output=html&source=placeapi_v2', 'children': [], 'lat': 32.04310361649856, 'lng': 118.70104447315117}}"
"{'name': '中通快递', 'location': {'lat': 32.04297846917645, 'lng': 118.70699588830465}, 'address': '南京市建邺区星影街与科技路交叉路口西侧(长岛观澜润园)', 'province': '江苏省', 'city': '南京市', 'area': '建邺区', 'street_id': 'acc94665ec26bb2a734b87e2', 'detail': 1, 'uid': 'acc94665ec26bb2a734b87e2', 'detail_info': {'tag': '生活服务;物流公司', 'type': 'life', 'detail_url': 'http://api.map.baidu.com/place/detail?uid=acc94665ec26bb2a734b87e2&output=html&source=placeapi_v2', 'image_num': '3', 'children': [], 'lat': 32.04297846917645, 'lng': 118.70699588830465}}"
"{'name': '南京曼仕乐智能科技有限公司', 'location': {'lat': 32.04305631298616, 'lng': 118.70687161953532}, 'address': '南京市建邺区星影街与科技路交叉路口西北侧(长岛观澜润园)', 'province': '江苏省', 'city': '南京市', 'area': '建邺区', 'detail': 1, 'uid': '8502baf53e385fa1b1077d8b', 'detail_info': {'tag': '购物;家电数码', 'type': 'shopping', 'detail_url': 'http://api.map.baidu.com/place/detail?uid=8502baf53e385fa1b1077d8b&output=html&source=placeapi_v2', 'children': [], 'lat': 32.04305631298616, 'lng': 118.70687161953532}}"
"{'name': '南京益友船舶管理有限公司', 'location': {'lat': 32.056108563691204, 'lng': 118.7076413330103}, 'address': '江心洲大江边80号附近', 'province': '江苏省', 'city': '南京市', 'area': '建邺区', 'street_id': 'f52cecf8a4636c7d15b54b48', 'detail': 1, 'uid': 'f52cecf8a4636c7d15b54b48', 'detail_info': {'tag': '公司企业;公司', 'type': 'enterprise', 'detail_url': 'http://api.map.baidu.com/place/detail?uid=f52cecf8a4636c7d15b54b48&output=html&source=placeapi_v2', 'overall_rating': '5.0', 'comment_num': '2', 'children': [], 'lat': 32.056108563691204, 'lng': 118.7076413330103}}"
"{'name': '南京江心洲盐城市政项目部', 'location': {'lat': 32.0463674308726, 'lng': 118.69966608524166}, 'address': '南京市建邺区绿水街(江苏海事局船员考试中心东侧约100米)', 'province': '江苏省', 'city': '南京市', 'area': '建邺区', 'detail': 1, 'uid': '13f7cb44f0d548bb36b06c9b', 'detail_info': {'tag': '公司企业;公司', 'type': 'life', 'detail_url': 'http://api.map.baidu.com/place/detail?uid=13f7cb44f0d548bb36b06c9b&output=html&source=placeapi_v2', 'overall_rating': '0.0', 'image_num': '2', 'comment_num': '1', 'children': [], 'lat': 32.0463674308726, 'lng': 118.69966608524166}}"
"{'name': '顺丰速运(江心洲速运营业点)', 'location': {'lat': 32.04574407751388, 'lng': 118.70265577158038}, 'address': '建邺区星影街10-3号', 'province': '江苏省', 'city': '南京市', 'area': '建邺区', 'street_id': '9e57e66b9a49d776210262df', 'detail': 1, 'uid': '9e57e66b9a49d776210262df', 'detail_info': {'tag': '生活服务;物流公司', 'type': 'life', 'detail_url': 'http://api.map.baidu.com/place/detail?uid=9e57e66b9a49d776210262df&output=html&source=placeapi_v2', 'image_num': '3', 'children': [], 'lat': 32.04574407751388, 'lng': 118.70265577158038}}"
"{'name': '南京奥体建设开发有限责任公司', 'location': {'lat': 32.015826429703935, 'lng': 118.72017829891615}, 'address': '梦都大街156号华夏天成附近', 'province': '江苏省', 'city': '南京市', 'area': '建邺区', 'street_id': '67ed264d8bb1ac7f2cb17e1f', 'telephone': '(025)86468081', 'detail': 1, 'uid': '67ed264d8bb1ac7f2cb17e1f', 'detail_info': {'tag': '公司企业;公司', 'type': 'enterprise', 'detail_url': 'http://api.map.baidu.com/place/detail?uid=67ed264d8bb1ac7f2cb17e1f&output=html&source=placeapi_v2', 'children': [], 'lat': 32.015826429703935, 'lng': 118.72017829891615}}"
"{'name': '江苏富士达电梯有限公司', 'location': {'lat': 32.01116357057023, 'lng': 118.71266720409812}, 'address': '南京市建邺区乐山路180号奥体中心站3楼', 'province': '江苏省', 'city': '南京市', 'area': '建邺区', 'street_id': 'b0097775bea865e1badf8fc8', 'telephone': '(025)83113888', 'detail': 1, 'uid': 'b0097775bea865e1badf8fc8', 'detail_info': {'tag': '公司企业;公司', 'navi_location': {'lng': 118.7244966647, 'lat': 32.014924243917}, 'type': 'enterprise', 'detail_url': 'http://api.map.baidu.com/place/detail?uid=b0097775bea865e1badf8fc8&output=html&source=placeapi_v2', 'children': [], 'lat': 32.01116357057023, 'lng': 118.71266720409812}}"
"{'name': '江苏如诺机电设备有限公司', 'location': {'lat': 32.009452445104294, 'lng': 118.72038407966159}, 'address': '河西中央商务区江东中路222号奥体中心46-47号', 'province': '江苏省', 'city': '南京市', 'area': '建邺区', 'street_id': 'bd76951c643ab1cb0c0e6b66', 'telephone': '(025)84658358', 'detail': 1, 'uid': 'bd76951c643ab1cb0c0e6b66', 'detail_info': {'tag': '公司企业;公司', 'type': 'enterprise', 'detail_url': 'http://api.map.baidu.com/place/detail?uid=bd76951c643ab1cb0c0e6b66&output=html&source=placeapi_v2', 'children': [], 'lat': 32.009452445104294, 'lng': 118.72038407966159}}"
"{'name': '南京中庆力机电工程有限公司', 'location': {'lat': 32.018160777665905, 'lng': 118.71968279811037}, 'address': '松花江西街28-4号', 'province': '江苏省', 'city': '南京市', 'area': '建邺区', 'street_id': 'e6c0680978c6b84e2a02e177', 'detail': 1, 'uid': 'e6c0680978c6b84e2a02e177', 'detail_info': {'tag': '公司企业;公司', 'type': 'enterprise', 'detail_url': 'http://api.map.baidu.com/place/detail?uid=e6c0680978c6b84e2a02e177&output=html&source=placeapi_v2', 'children': [], 'lat': 32.018160777665905, 'lng': 118.71968279811037}}"
"{'name': '南京展望文化发展有限公司', 'location': {'lat': 32.01802596259483, 'lng': 118.71641035191139}, 'address': '梦都大街176-4号', 'province': '江苏省', 'city': '南京市', 'area': '建邺区', 'street_id': '40ca887950d9dddfad080f29', 'telephone': '(025)86633339', 'detail': 1, 'uid': '40ca887950d9dddfad080f29', 'detail_info': {'tag': '公司企业;公司', 'navi_location': {'lng': 118.72815600023, 'lat': 32.021719014419}, 'type': 'enterprise', 'detail_url': 'http://api.map.baidu.com/place/detail?uid=40ca887950d9dddfad080f29&output=html&source=placeapi_v2', 'overall_rating': '1.0', 'comment_num': '2', 'children': [], 'lat': 32.01802596259483, 'lng': 118.71641035191139}}"
"{'name': '南京吉田餐饮管理有限公司', 'location': {'lat': 32.0116695298721, 'lng': 118.71904833332572}, 'address': '建邺区商业文化旅游中心区江东中路222号奥体中心15柱', 'province': '江苏省', 'city': '南京市', 'area': '建邺区', 'street_id': '9d67e0aa9cb65c4502294f2c', 'telephone': '(025)86368131', 'detail': 1, 'uid': '9d67e0aa9cb65c4502294f2c', 'detail_info': {'tag': '公司企业;公司', 'type': 'enterprise', 'detail_url': 'http://api.map.baidu.com/place/detail?uid=9d67e0aa9cb65c4502294f2c&output=html&source=placeapi_v2', 'children': [], 'lat': 32.0116695298721, 'lng': 118.71904833332572}}"
"{'name': '江苏省华夏天成建设股份有限公司', 'location': {'lat': 32.015408387150586, 'lng': 118.72112119881987}, 'address': '南京市梦都大街156号', 'province': '江苏省', 'city': '南京市', 'area': '建邺区', 'street_id': '03fd0cbd1d720758b020a87c', 'telephone': '(025)83465999', 'detail': 1, 'uid': '03fd0cbd1d720758b020a87c', 'detail_info': {'tag': '公司企业;公司', 'type': 'enterprise', 'detail_url': 'http://api.map.baidu.com/place/detail?uid=03fd0cbd1d720758b020a87c&output=html&source=placeapi_v2', 'children': [], 'lat': 32.015408387150586, 'lng': 118.72112119881987}}"
"{'name': '南京广田柏森实业有限责任公司', 'location': {'lat': 32.01829445930814, 'lng': 118.71140426586759}, 'address': '江苏省南京市建邺区梦都大街178号', 'province': '江苏省', 'city': '南京市', 'area': '建邺区', 'street_id': 'fa4162579ed7958fc27da28d', 'telephone': '(025)83197019', 'detail': 1, 'uid': 'fa4162579ed7958fc27da28d', 'detail_info': {'tag': '公司企业;公司', 'navi_location': {'lng': 118.72281397678, 'lat': 32.021697066661}, 'type': 'enterprise', 'detail_url': 'http://api.map.baidu.com/place/detail?uid=fa4162579ed7958fc27da28d&output=html&source=placeapi_v2', 'price': '0.0', 'children': [], 'lat': 32.01829445930814, 'lng': 118.71140426586759}}"
"{'name': '江苏省建筑装饰设计研究院有限公司', 'location': {'lat': 32.01368539101312, 'lng': 118.72560458253132}, 'address': '南京市建邺区梦都大街126号', 'province': '江苏省', 'city': '南京市', 'area': '建邺区', 'street_id': '7f6146e1174b04d176e5b611', 'telephone': '(025)83328599', 'detail': 1, 'uid': '7f6146e1174b04d176e5b611', 'detail_info': {'tag': '公司企业;公司', 'navi_location': {'lng': 118.73726371947, 'lat': 32.017219250341}, 'type': 'enterprise', 'detail_url': 'http://api.map.baidu.com/place/detail?uid=7f6146e1174b04d176e5b611&output=html&source=placeapi_v2', 'children': [], 'lat': 32.01368539101312, 'lng': 118.72560458253132}}"
"{'name': '南京佳仕露酒业有限公司', 'location': {'lat': 32.01357447855678, 'lng': 118.72587674199616}, 'address': '江苏省南京市建邺区兴隆街道江东中路紫檀雅居', 'province': '江苏省', 'city': '南京市', 'area': '建邺区', 'street_id': '3c09ffce42ebc5c93a04b1af', 'detail': 1, 'uid': '3c09ffce42ebc5c93a04b1af', 'detail_info': {'tag': '公司企业;公司', 'type': 'enterprise', 'detail_url': 'http://api.map.baidu.com/place/detail?uid=3c09ffce42ebc5c93a04b1af&output=html&source=placeapi_v2', 'children': [], 'lat': 32.01357447855678, 'lng': 118.72587674199616}}"
"{'name': '深圳远鹏', 'location': {'lat': 32.018603353399946, 'lng': 118.71664187550077}, 'address': '梦都大街176-4号', 'province': '江苏省', 'city': '南京市', 'area': '建邺区', 'street_id': '609798cd52e918c9283a9f4d', 'detail': 1, 'uid': '609798cd52e918c9283a9f4d', 'detail_info': {'tag': '公司企业;公司', 'type': 'enterprise', 'detail_url': 'http://api.map.baidu.com/place/detail?uid=609798cd52e918c9283a9f4d&output=html&source=placeapi_v2', 'children': [], 'lat': 32.018603353399946, 'lng': 118.71664187550077}}"
"{'name': '南京必翔生物科技有限公司', 'location': {'lat': 32.009518776511925, 'lng': 118.71062871347246}, 'address': '南京市建邺区奥体大街199号金马郦城3幢104室', 'province': '江苏省', 'city': '南京市', 'area': '建邺区', 'street_id': 'b1dd3b4723655cac2b11d1b2', 'telephone': '(025)83248511', 'detail': 1, 'uid': 'b1dd3b4723655cac2b11d1b2', 'detail_info': {'tag': '公司企业;公司', 'type': 'enterprise', 'detail_url': 'http://api.map.baidu.com/place/detail?uid=b1dd3b4723655cac2b11d1b2&output=html&source=placeapi_v2', 'children': [], 'lat': 32.009518776511925, 'lng': 118.71062871347246}}"
"{'name': '南京立隽成贸易有限公司', 'location': {'lat': 32.00931371606402, 'lng': 118.7168753446647}, 'address': '南京市建邺区奥体大街(科技中心大楼)', 'province': '江苏省', 'city': '南京市', 'area': '建邺区', 'street_id': '78d6dc3e40dca3684e776e20', 'detail': 1, 'uid': '78d6dc3e40dca3684e776e20', 'detail_info': {'tag': '公司企业;公司', 'type': 'enterprise', 'detail_url': 'http://api.map.baidu.com/place/detail?uid=78d6dc3e40dca3684e776e20&output=html&source=placeapi_v2', 'children': [], 'lat': 32.00931371606402, 'lng': 118.7168753446647}}"
"{'name': '江苏子武限体育发展有限公司', 'location': {'lat': 32.01021607817856, 'lng': 118.71702658092538}, 'address': '燕山路附近', 'province': '江苏省', 'city': '南京市', 'area': '建邺区', 'detail': 1, 'uid': '9d0423a8227f858d2bd7abff', 'detail_info': {'tag': '公司企业;公司', 'type': 'enterprise', 'detail_url': 'http://api.map.baidu.com/place/detail?uid=9d0423a8227f858d2bd7abff&output=html&source=placeapi_v2', 'children': [], 'lat': 32.01021607817856, 'lng': 118.71702658092538}}"
"{'name': '美国大创(南京)装饰有限公司', 'location': {'lat': 32.01357298365238, 'lng': 118.7206845103805}, 'address': '南京奥体中心网球中心三层(近奥体北门)', 'province': '江苏省', 'city': '南京市', 'area': '建邺区', 'street_id': 'ccf5f0633e2f60c4931fc9ea', 'detail': 1, 'uid': 'ccf5f0633e2f60c4931fc9ea', 'detail_info': {'tag': '公司企业;公司', 'type': 'enterprise', 'detail_url': 'http://api.map.baidu.com/place/detail?uid=ccf5f0633e2f60c4931fc9ea&output=html&source=placeapi_v2', 'children': [], 'lat': 32.01357298365238, 'lng': 118.7206845103805}}"
"{'name': '江苏百盛信息科技股份有限公司', 'location': {'lat': 32.008391740413316, 'lng': 118.70881020086522}, 'address': '奥体大街111号金马郦城18栋', 'province': '江苏省', 'city': '南京市', 'area': '建邺区', 'street_id': '433dc897c882bc0bd42ce21e', 'detail': 1, 'uid': '433dc897c882bc0bd42ce21e', 'detail_info': {'tag': '公司企业;公司', 'type': 'enterprise', 'detail_url': 'http://api.map.baidu.com/place/detail?uid=433dc897c882bc0bd42ce21e&output=html&source=placeapi_v2', 'children': [], 'lat': 32.008391740413316, 'lng': 118.70881020086522}}"
"{'name': '金宸建筑设计有限公司', 'location': {'lat': 32.01494222312196, 'lng': 118.72183426905387}, 'address': '梦都大街150号建筑师工社407室', 'province': '江苏省', 'city': '南京市', 'area': '建邺区', 'street_id': '144cfa8d35b75a4a71455b25', 'telephone': '(025)86500666', 'detail': 1, 'uid': '144cfa8d35b75a4a71455b25', 'detail_info': {'tag': '公司企业;公司', 'navi_location': {'lng': 118.73450743969, 'lat': 32.018489263623}, 'type': 'enterprise', 'detail_url': 'http://api.map.baidu.com/place/detail?uid=144cfa8d35b75a4a71455b25&output=html&source=placeapi_v2', 'children': [], 'lat': 32.01494222312196, 'lng': 118.72183426905387}}"
"{'name': '凌云科技发展有限公司', 'location': {'lat': 32.013801062000326, 'lng': 118.72471252010148}, 'address': '梦都大街132号4楼408-411', 'province': '江苏省', 'city': '南京市', 'area': '建邺区', 'street_id': '589a8d587d778c1bf82d616c', 'telephone': '(025)86629021', 'detail': 1, 'uid': '589a8d587d778c1bf82d616c', 'detail_info': {'tag': '公司企业;公司', 'type': 'enterprise', 'detail_url': 'http://api.map.baidu.com/place/detail?uid=589a8d587d778c1bf82d616c&output=html&source=placeapi_v2', 'overall_rating': '5.0', 'comment_num': '1', 'children': [], 'lat': 32.013801062000326, 'lng': 118.72471252010148}}"
"{'name': '江苏羚羊水泥工程技术有限公司', 'location': {'lat': 32.01479938417308, 'lng': 118.72213107147923}, 'address': '南京市梦都大街150号建筑师工社402室210019', 'province': '江苏省', 'city': '南京市', 'area': '建邺区', 'street_id': 'f26075bada1834cd2bb97c23', 'detail': 1, 'uid': 'f26075bada1834cd2bb97c23', 'detail_info': {'tag': '公司企业;公司', 'type': 'enterprise', 'detail_url': 'http://api.map.baidu.com/place/detail?uid=f26075bada1834cd2bb97c23&output=html&source=placeapi_v2', 'children': [], 'lat': 32.01479938417308, 'lng': 118.72213107147923}}"
"{'name': '南京中盛枫贸易有限公司', 'location': {'lat': 32.013600451511174, 'lng': 118.72464678009803}, 'address': '江苏省南京市建邺区梦都大街132号紫鑫商务花园5楼', 'province': '江苏省', 'city': '南京市', 'area': '建邺区', 'street_id': '8a97ceece35edc902102208e', 'telephone': '(025)85650001', 'detail': 1, 'uid': '8a97ceece35edc902102208e', 'detail_info': {'tag': '公司企业;公司', 'type': 'enterprise', 'detail_url': 'http://api.map.baidu.com/place/detail?uid=8a97ceece35edc902102208e&output=html&source=placeapi_v2', 'children': [], 'lat': 32.013600451511174, 'lng': 118.72464678009803}}"
"{'name': '鑫傲视建筑工程有限公司', 'location': {'lat': 32.014717180297694, 'lng': 118.72402974887666}, 'address': '河西中央商务区梦都大街126-1号紫檀雅居1栋', 'province': '江苏省', 'city': '南京市', 'area': '建邺区', 'detail': 1, 'uid': 'f530b2c68741a4b4047ce815', 'detail_info': {'tag': '公司企业;公司', 'type': 'enterprise', 'detail_url': 'http://api.map.baidu.com/place/detail?uid=f530b2c68741a4b4047ce815&output=html&source=placeapi_v2', 'children': [], 'lat': 32.014717180297694, 'lng': 118.72402974887666}}"
"{'name': '南京诺瓦建设工程有限公司', 'location': {'lat': 32.01482537335188, 'lng': 118.72185022929261}, 'address': '梦都大街150号建筑师工社701室', 'province': '江苏省', 'city': '南京市', 'area': '建邺区', 'detail': 1, 'uid': '8112760b5de57a5e8bdb7376', 'detail_info': {'tag': '公司企业;公司', 'type': 'enterprise', 'detail_url': 'http://api.map.baidu.com/place/detail?uid=8112760b5de57a5e8bdb7376&output=html&source=placeapi_v2', 'children': [], 'lat': 32.01482537335188, 'lng': 118.72185022929261}}"
"{'name': '南京万年青体育用品有限公司', 'location': {'lat': 32.01101192882475, 'lng': 118.71721657963108}, 'address': '江苏省南京市建邺区江东中路222号', 'province': '江苏省', 'city': '南京市', 'area': '建邺区', 'street_id': '72c3414227070a52c7f02549', 'detail': 1, 'uid': '72c3414227070a52c7f02549', 'detail_info': {'tag': '公司企业;公司', 'type': 'enterprise', 'detail_url': 'http://api.map.baidu.com/place/detail?uid=72c3414227070a52c7f02549&output=html&source=placeapi_v2', 'children': [], 'lat': 32.01101192882475, 'lng': 118.71721657963108}}"
"{'name': '南京贝贝特出版顾问有限公司', 'location': {'lat': 32.014884017559936, 'lng': 118.72200158625176}, 'address': '梦都大街150号建筑师工社501、512', 'province': '江苏省', 'city': '南京市', 'area': '建邺区', 'street_id': '854dee413f42701631f71d2b', 'detail': 1, 'uid': '854dee413f42701631f71d2b', 'detail_info': {'tag': '公司企业;公司', 'type': 'enterprise', 'detail_url': 'http://api.map.baidu.com/place/detail?uid=854dee413f42701631f71d2b&output=html&source=placeapi_v2', 'children': [], 'lat': 32.014884017559936, 'lng': 118.72200158625176}}"
"{'name': '南京栢圣泉餐饮有限公司', 'location': {'lat': 32.01121035610521, 'lng': 118.71246641041604}, 'address': '乐山路180号南京柏圣泉餐饮有限公司', 'province': '江苏省', 'city': '南京市', 'area': '建邺区', 'detail': 1, 'uid': '5bf94aad6c6b7291c3364410', 'detail_info': {'tag': '公司企业;公司', 'type': 'enterprise', 'detail_url': 'http://api.map.baidu.com/place/detail?uid=5bf94aad6c6b7291c3364410&output=html&source=placeapi_v2', 'children': [], 'lat': 32.01121035610521, 'lng': 118.71246641041604}}"
"{'name': '江苏天企奥科技有限公司', 'location': {'lat': 32.01357179019257, 'lng': 118.72468664720907}, 'address': '梦都大街132号紫鑫商务花园510室', 'province': '江苏省', 'city': '南京市', 'area': '建邺区', 'street_id': '165aec0d53b93b1817a1906f', 'detail': 1, 'uid': '165aec0d53b93b1817a1906f', 'detail_info': {'tag': '公司企业;公司', 'type': 'enterprise', 'detail_url': 'http://api.map.baidu.com/place/detail?uid=165aec0d53b93b1817a1906f&output=html&source=placeapi_v2', 'children': [], 'lat': 32.01357179019257, 'lng': 118.72468664720907}}"
"{'name': '南京华台缝制设备有限公司', 'location': {'lat': 32.00967338671731, 'lng': 118.71060288193401}, 'address': '南京市建邺区奥体大街199号金马郦城15幢', 'province': '江苏省', 'city': '南京市', 'area': '建邺区', 'detail': 1, 'uid': '0e6ab68d5a91e7088c1a8912', 'detail_info': {'tag': '公司企业;公司', 'type': 'enterprise', 'detail_url': 'http://api.map.baidu.com/place/detail?uid=0e6ab68d5a91e7088c1a8912&output=html&source=placeapi_v2', 'children': [], 'lat': 32.00967338671731, 'lng': 118.71060288193401}}"
"{'name': '南京傲神装饰有限公司', 'location': {'lat': 32.00917248466234, 'lng': 118.71664953489865}, 'address': '江东中路222号科技中心大楼6层6022A、6026', 'province': '江苏省', 'city': '南京市', 'area': '建邺区', 'street_id': '84497c09eee0c3c4d8d89116', 'detail': 1, 'uid': '84497c09eee0c3c4d8d89116', 'detail_info': {'tag': '公司企业;公司', 'navi_location': {'lng': 118.72867792022, 'lat': 32.012878410919}, 'type': 'enterprise', 'detail_url': 'http://api.map.baidu.com/place/detail?uid=84497c09eee0c3c4d8d89116&output=html&source=placeapi_v2', 'children': [], 'lat': 32.00917248466234, 'lng': 118.71664953489865}}"
"{'name': '江苏禾木市政工程有限公司', 'location': {'lat': 32.006224078374174, 'lng': 118.72425889928567}, 'address': '江东中路289号联强国际大厦2704室', 'province': '江苏省', 'city': '南京市', 'area': '建邺区', 'street_id': '0492561f5515264b0f0a7035', 'telephone': '(025)87770409', 'detail': 1, 'uid': '0492561f5515264b0f0a7035', 'detail_info': {'tag': '公司企业;公司', 'navi_location': {'lng': 118.73616064073, 'lat': 32.009987420359}, 'type': 'enterprise', 'detail_url': 'http://api.map.baidu.com/place/detail?uid=0492561f5515264b0f0a7035&output=html&source=placeapi_v2', 'children': [], 'lat': 32.006224078374174, 'lng': 118.72425889928567}}"
"{'name': '南京光之翼效果图公司', 'location': {'lat': 32.01405413794436, 'lng': 118.72543705647344}, 'address': '兴隆街道梦都大街126号紫檀雅居35号别墅', 'province': '江苏省', 'city': '南京市', 'area': '建邺区', 'street_id': '70f8d70b4aedde3f07026fde', 'detail': 1, 'uid': '70f8d70b4aedde3f07026fde', 'detail_info': {'tag': '公司企业;公司', 'type': 'enterprise', 'detail_url': 'http://api.map.baidu.com/place/detail?uid=70f8d70b4aedde3f07026fde&output=html&source=placeapi_v2', 'children': [], 'lat': 32.01405413794436, 'lng': 118.72543705647344}}"
"{'name': '江苏碳元绿色建筑科技有限公司(南京分公司)', 'location': {'lat': 32.010584110010214, 'lng': 118.7178950906783}, 'address': '江东中路222号奥体中心', 'province': '江苏省', 'city': '南京市', 'area': '建邺区', 'street_id': '723ab9490dbffa3deaf853ee', 'detail': 1, 'uid': '723ab9490dbffa3deaf853ee', 'detail_info': {'tag': '公司企业;公司', 'type': 'enterprise', 'detail_url': 'http://api.map.baidu.com/place/detail?uid=723ab9490dbffa3deaf853ee&output=html&source=placeapi_v2', 'price': '0.0', 'children': [], 'lat': 32.010584110010214, 'lng': 118.7178950906783}}"
"{'name': '深圳市晶宫设计装饰工程有限公司(燕山路)', 'location': {'lat': 32.014884017559936, 'lng': 118.72200158625176}, 'address': '梦都大街150号建筑师工社506室', 'province': '江苏省', 'city': '南京市', 'area': '建邺区', 'detail': 1, 'uid': '2a83306f07af3d64cc06a48a', 'detail_info': {'tag': '公司企业;公司', 'type': 'enterprise', 'detail_url': 'http://api.map.baidu.com/place/detail?uid=2a83306f07af3d64cc06a48a&output=html&source=placeapi_v2', 'children': [], 'lat': 32.014884017559936, 'lng': 118.72200158625176}}"
"{'name': '南京远腾船务有限公司', 'location': {'lat': 32.0137696893512, 'lng': 118.72455506990768}, 'address': '南京市建邺区梦都大街132号紫鑫商务花园605室', 'province': '江苏省', 'city': '南京市', 'area': '建邺区', 'street_id': 'b921cb994e95a19728b97caf', 'detail': 1, 'uid': 'b921cb994e95a19728b97caf', 'detail_info': {'tag': '公司企业;公司', 'type': 'enterprise', 'detail_url': 'http://api.map.baidu.com/place/detail?uid=b921cb994e95a19728b97caf&output=html&source=placeapi_v2', 'children': [], 'lat': 32.0137696893512, 'lng': 118.72455506990768}}"
"{'name': '江苏悉加网络科技有限公司', 'location': {'lat': 32.00726213277923, 'lng': 118.72782914748366}, 'address': '江苏省南京市建邺区庐山路116号二楼', 'province': '江苏省', 'city': '南京市', 'area': '建邺区', 'detail': 1, 'uid': 'cfa129b7a184d6c10b1cc786', 'detail_info': {'tag': '公司企业;公司', 'type': 'enterprise', 'detail_url': 'http://api.map.baidu.com/place/detail?uid=cfa129b7a184d6c10b1cc786&output=html&source=placeapi_v2', 'children': [], 'lat': 32.00726213277923, 'lng': 118.72782914748366}}"
"{'name': '南京博观置业顾问有限公司', 'location': {'lat': 32.01573422580199, 'lng': 118.72024601509479}, 'address': '梦都大街158号奥体建设1楼', 'province': '江苏省', 'city': '南京市', 'area': '建邺区', 'street_id': '06027d493339538d2cb96dba', 'telephone': '(025)86468366', 'detail': 1, 'uid': '06027d493339538d2cb96dba', 'detail_info': {'tag': '公司企业;公司', 'type': 'enterprise', 'detail_url': 'http://api.map.baidu.com/place/detail?uid=06027d493339538d2cb96dba&output=html&source=placeapi_v2', 'children': [], 'lat': 32.01573422580199, 'lng': 118.72024601509479}}"
"{'name': '南京永瑞物业管理有限公司', 'location': {'lat': 32.01400111244166, 'lng': 118.72437067506425}, 'address': '梦都大街138号', 'province': '江苏省', 'city': '南京市', 'area': '建邺区', 'street_id': '651c964df1ca8e06bda240d7', 'telephone': '(025)86808015', 'detail': 1, 'uid': '651c964df1ca8e06bda240d7', 'detail_info': {'tag': '公司企业;公司', 'navi_location': {'lng': 118.73639958999, 'lat': 32.017773914862}, 'type': 'enterprise', 'detail_url': 'http://api.map.baidu.com/place/detail?uid=651c964df1ca8e06bda240d7&output=html&source=placeapi_v2', 'overall_rating': '3.5', 'comment_num': '4', 'children': [], 'lat': 32.01400111244166, 'lng': 118.72437067506425}}"
"{'name': '南京熊姬餐饮管理有限公司', 'location': {'lat': 32.01473522886026, 'lng': 118.72174668359342}, 'address': '江苏南京市建邺区兴隆街道兴隆大街建筑师工社609熊姬餐饮管理有限公司', 'province': '江苏省', 'city': '南京市', 'area': '建邺区', 'detail': 1, 'uid': '64bf39d42801805521026259', 'detail_info': {'tag': '公司企业;公司', 'detail_url': 'http://api.map.baidu.com/place/detail?uid=64bf39d42801805521026259&output=html&source=placeapi_v2', 'children': [], 'lat': 32.01473522886026, 'lng': 118.72174668359342}}"
"{'name': '金吉鸟公司', 'location': {'lat': 32.01096303376932, 'lng': 118.71729716087233}, 'address': '江苏省南京市建邺区江东中路289号联强大厦', 'province': '江苏省', 'city': '南京市', 'area': '建邺区', 'detail': 1, 'uid': 'e778c977cc0dfaaff4eafc7e', 'detail_info': {'tag': '公司企业;公司', 'type': 'enterprise', 'detail_url': 'http://api.map.baidu.com/place/detail?uid=e778c977cc0dfaaff4eafc7e&output=html&source=placeapi_v2', 'children': [], 'lat': 32.01096303376932, 'lng': 118.71729716087233}}"
"{'name': '昆山永诚食品工业有限公司(南京分公司)', 'location': {'lat': 32.017662739992886, 'lng': 118.7134133970154}, 'address': '江苏省南京市建邺区梦都大街176', 'province': '江苏省', 'city': '南京市', 'area': '建邺区', 'street_id': '3caff2c71082cfd286420e59', 'telephone': '(025)86432022', 'detail': 1, 'uid': '3caff2c71082cfd286420e59', 'detail_info': {'tag': '公司企业;公司', 'navi_location': {'lng': 118.72513232544, 'lat': 32.021329859485}, 'type': 'enterprise', 'detail_url': 'http://api.map.baidu.com/place/detail?uid=3caff2c71082cfd286420e59&output=html&source=placeapi_v2', 'children': [], 'lat': 32.017662739992886, 'lng': 118.7134133970154}}"
"{'name': '南京棕榈树餐饮有限公司', 'location': {'lat': 32.017226681298965, 'lng': 118.71682145949677}, 'address': '江苏省南京市建邺区兴隆街道乐山路167-16号南京棕榈树餐饮有限公司', 'province': '江苏省', 'city': '南京市', 'area': '建邺区', 'telephone': '(025)52204690', 'detail': 1, 'uid': '63d20f08c45f6fe7ab175aed', 'detail_info': {'tag': '公司企业;公司', 'type': 'life', 'detail_url': 'http://api.map.baidu.com/place/detail?uid=63d20f08c45f6fe7ab175aed&output=html&source=placeapi_v2', 'image_num': '1', 'children': [], 'lat': 32.017226681298965, 'lng': 118.71682145949677}}"
"{'name': '瑞兴建筑装饰设计工程有限公司', 'location': {'lat': 32.00917248466234, 'lng': 118.71664953489865}, 'address': '江东中路222号科技中心大楼4层4004', 'province': '江苏省', 'city': '南京市', 'area': '建邺区', 'street_id': '7a12330f588a6b86c5effb3b', 'detail': 1, 'uid': '7a12330f588a6b86c5effb3b', 'detail_info': {'tag': '公司企业;公司', 'navi_location': {'lng': 118.72867792022, 'lat': 32.012878410919}, 'type': 'enterprise', 'detail_url': 'http://api.map.baidu.com/place/detail?uid=7a12330f588a6b86c5effb3b&output=html&source=placeapi_v2', 'children': [], 'lat': 32.00917248466234, 'lng': 118.71664953489865}}"
"{'name': '南京暄研服饰有限公司', 'location': {'lat': 32.01213418409547, 'lng': 118.72642026409716}, 'address': '建邺梦都大街紫鑫中华广场小区金陵实验小学对过地铁兴隆大街或奥体中心附近', 'province': '江苏省', 'city': '南京市', 'area': '建邺区', 'detail': 1, 'uid': '46509f0ee929ec41cae33caf', 'detail_info': {'tag': '公司企业;公司', 'detail_url': 'http://api.map.baidu.com/place/detail?uid=46509f0ee929ec41cae33caf&output=html&source=placeapi_v2', 'children': [], 'lat': 32.01213418409547, 'lng': 118.72642026409716}}"
"{'name': '南京联强(集团)设备制造有限公司', 'location': {'lat': 32.00622406942365, 'lng': 118.72425790283246}, 'address': '江东中路289号联强国际大厦27层2705/2706', 'province': '江苏省', 'city': '南京市', 'area': '建邺区', 'street_id': 'a02ac9163ad74a08081cc7c1', 'detail': 1, 'uid': 'a02ac9163ad74a08081cc7c1', 'detail_info': {'tag': '公司企业;公司', 'navi_location': {'lng': 118.73616066139, 'lat': 32.009987395099}, 'type': 'enterprise', 'detail_url': 'http://api.map.baidu.com/place/detail?uid=a02ac9163ad74a08081cc7c1&output=html&source=placeapi_v2', 'children': [], 'lat': 32.00622406942365, 'lng': 118.72425790283246}}"
"{'name': '德润航务集团有限公司', 'location': {'lat': 32.006224078374174, 'lng': 118.72425889928567}, 'address': '江东中路289号联强国际大厦22层2201', 'province': '江苏省', 'city': '南京市', 'area': '建邺区', 'street_id': '042e6f6a8c4deb8ff4231058', 'detail': 1, 'uid': '042e6f6a8c4deb8ff4231058', 'detail_info': {'tag': '公司企业;公司', 'navi_location': {'lng': 118.73616064073, 'lat': 32.009987420359}, 'type': 'enterprise', 'detail_url': 'http://api.map.baidu.com/place/detail?uid=042e6f6a8c4deb8ff4231058&output=html&source=placeapi_v2', 'children': [], 'lat': 32.006224078374174, 'lng': 118.72425889928567}}"
"{'name': '南京尊科通信设备有限公司', 'location': {'lat': 32.01362970134808, 'lng': 118.72479127902159}, 'address': '江苏省南京市建邺区梦都大街132号', 'province': '江苏省', 'city': '南京市', 'area': '建邺区', 'detail': 1, 'uid': '17113887cda9053db34c49fa', 'detail_info': {'tag': '公司企业;公司', 'type': 'enterprise', 'detail_url': 'http://api.map.baidu.com/place/detail?uid=17113887cda9053db34c49fa&output=html&source=placeapi_v2', 'children': [], 'lat': 32.01362970134808, 'lng': 118.72479127902159}}"
"{'name': '南京中道装饰工程有限公司', 'location': {'lat': 32.00917248466234, 'lng': 118.71664953489865}, 'address': '江东中路222号科技中心大楼6层6030', 'province': '江苏省', 'city': '南京市', 'area': '建邺区', 'detail': 1, 'uid': 'dc0dc8d359acc6255e0d026a', 'detail_info': {'tag': '公司企业;公司', 'type': 'enterprise', 'detail_url': 'http://api.map.baidu.com/place/detail?uid=dc0dc8d359acc6255e0d026a&output=html&source=placeapi_v2', 'children': [], 'lat': 32.00917248466234, 'lng': 118.71664953489865}}"
"{'name': '南京幸福树智能电器销售有限公司', 'location': {'lat': 32.00933106456485, 'lng': 118.7167579679332}, 'address': '江东中路222号科技中心大楼4层', 'province': '江苏省', 'city': '南京市', 'area': '建邺区', 'detail': 1, 'uid': '4b1d77437971537a250bd030', 'detail_info': {'tag': '公司企业;公司', 'type': 'enterprise', 'detail_url': 'http://api.map.baidu.com/place/detail?uid=4b1d77437971537a250bd030&output=html&source=placeapi_v2', 'children': [], 'lat': 32.00933106456485, 'lng': 118.7167579679332}}"
"{'name': '豆豆蚁艺术设计有限公司', 'location': {'lat': 32.01482537335188, 'lng': 118.72185022929261}, 'address': '江苏省南京市建邺区梦都大街150号建筑师公社', 'province': '江苏省', 'city': '南京市', 'area': '建邺区', 'detail': 1, 'uid': 'd471a8776de01d5308ccdd52', 'detail_info': {'tag': '公司企业;公司', 'type': 'enterprise', 'detail_url': 'http://api.map.baidu.com/place/detail?uid=d471a8776de01d5308ccdd52&output=html&source=placeapi_v2', 'children': [], 'lat': 32.01482537335188, 'lng': 118.72185022929261}}"
"{'name': '南京育瑞星信息科技有限公司', 'location': {'lat': 32.00917248466234, 'lng': 118.71664953489865}, 'address': '江东中路222号科技中心大楼5层5026', 'province': '江苏省', 'city': '南京市', 'area': '建邺区', 'street_id': '47022a68074bc4542fe67bff', 'detail': 1, 'uid': '47022a68074bc4542fe67bff', 'detail_info': {'tag': '公司企业;公司', 'navi_location': {'lng': 118.72867792022, 'lat': 32.012878410919}, 'type': 'enterprise', 'detail_url': 'http://api.map.baidu.com/place/detail?uid=47022a68074bc4542fe67bff&output=html&source=placeapi_v2', 'children': [], 'lat': 32.00917248466234, 'lng': 118.71664953489865}}"
"{'name': '江苏广盛能源发展有限公司', 'location': {'lat': 32.00917248466234, 'lng': 118.71664953489865}, 'address': '江东中路222号科技中心大楼6层6007、6009', 'province': '江苏省', 'city': '南京市', 'area': '建邺区', 'street_id': '902a058a23abe1e30b1cc765', 'detail': 1, 'uid': '902a058a23abe1e30b1cc765', 'detail_info': {'tag': '公司企业;公司', 'navi_location': {'lng': 118.72867792022, 'lat': 32.012878410919}, 'type': 'enterprise', 'detail_url': 'http://api.map.baidu.com/place/detail?uid=902a058a23abe1e30b1cc765&output=html&source=placeapi_v2', 'children': [], 'lat': 32.00917248466234, 'lng': 118.71664953489865}}"
"{'name': '南京旗舰科技有限公司', 'location': {'lat': 32.00647564423644, 'lng': 118.72264604029094}, 'address': '南京市建邺区江东中路222号', 'province': '江苏省', 'city': '南京市', 'area': '建邺区', 'street_id': '5f2dedab09f9af1171210b12', 'detail': 1, 'uid': '5f2dedab09f9af1171210b12', 'detail_info': {'tag': '公司企业;公司', 'type': 'enterprise', 'detail_url': 'http://api.map.baidu.com/place/detail?uid=5f2dedab09f9af1171210b12&output=html&source=placeapi_v2', 'children': [], 'lat': 32.00647564423644, 'lng': 118.72264604029094}}"
"{'name': '华橙科技有限公司', 'location': {'lat': 32.016238117210484, 'lng': 118.71758480104793}, 'address': '梦都大街168号南京市档案馆附近', 'province': '江苏省', 'city': '南京市', 'area': '建邺区', 'detail': 1, 'uid': 'b0a1fc3d60aa9735c8213d58', 'detail_info': {'tag': '公司企业;公司', 'type': 'enterprise', 'detail_url': 'http://api.map.baidu.com/place/detail?uid=b0a1fc3d60aa9735c8213d58&output=html&source=placeapi_v2', 'children': [], 'lat': 32.016238117210484, 'lng': 118.71758480104793}}"
"{'name': '南京安铂睿服装有限公司', 'location': {'lat': 32.014798373384686, 'lng': 118.72213007579882}, 'address': '梦都大街150号704室', 'province': '江苏省', 'city': '南京市', 'area': '建邺区', 'street_id': '96351b088968768af7e73b1c', 'telephone': '(025)84643881', 'detail': 1, 'uid': '96351b088968768af7e73b1c', 'detail_info': {'tag': '公司企业;公司', 'type': 'enterprise', 'detail_url': 'http://api.map.baidu.com/place/detail?uid=96351b088968768af7e73b1c&output=html&source=placeapi_v2', 'price': '0.0', 'children': [], 'lat': 32.014798373384686, 'lng': 118.72213007579882}}"
"{'name': '乔木品牌有限公司', 'location': {'lat': 32.01473522886026, 'lng': 118.72174668359342}, 'address': '江苏省南京市建邺区兴隆街道梦都大街150号建筑师工社', 'province': '江苏省', 'city': '南京市', 'area': '建邺区', 'detail': 1, 'uid': '1a2f1a7db80b3336a2d230bd', 'detail_info': {'tag': '公司企业;公司', 'type': 'enterprise', 'detail_url': 'http://api.map.baidu.com/place/detail?uid=1a2f1a7db80b3336a2d230bd&output=html&source=placeapi_v2', 'children': [], 'lat': 32.01473522886026, 'lng': 118.72174668359342}}"
"{'name': '闹铃菩提星景观工程设计有限公司', 'location': {'lat': 32.01473522886026, 'lng': 118.72174668359342}, 'address': '江苏省南京市建邺区梦都大街150号建筑师工社311a闹铃菩提星景观工程设计有限公司', 'province': '江苏省', 'city': '南京市', 'area': '建邺区', 'detail': 1, 'uid': '75dc6bdd1f371683adcb6650', 'detail_info': {'tag': '公司企业;公司', 'type': 'enterprise', 'detail_url': 'http://api.map.baidu.com/place/detail?uid=75dc6bdd1f371683adcb6650&output=html&source=placeapi_v2', 'children': [], 'lat': 32.01473522886026, 'lng': 118.72174668359342}}"
"{'name': '上海凯泉泵业集团南京分公司', 'location': {'lat': 32.014772540324266, 'lng': 118.72177455814705}, 'address': '梦都大街150-1号509室', 'province': '江苏省', 'city': '南京市', 'area': '建邺区', 'telephone': '(025)84798356', 'detail': 1, 'uid': 'aeb6564212b729c3d42ce264', 'detail_info': {'tag': '公司企业;公司', 'type': 'enterprise', 'detail_url': 'http://api.map.baidu.com/place/detail?uid=aeb6564212b729c3d42ce264&output=html&source=placeapi_v2', 'children': [], 'lat': 32.014772540324266, 'lng': 118.72177455814705}}"
"{'name': '南京晔东商贸实业有限公司', 'location': {'lat': 32.01094820902122, 'lng': 118.71731009394524}, 'address': '江苏省南京市建邺区庐山路128号东渡新锐大厦', 'province': '江苏省', 'city': '南京市', 'area': '建邺区', 'detail': 1, 'uid': '5e097012573056f1eb12e49e', 'detail_info': {'tag': '公司企业;公司', 'type': 'life', 'detail_url': 'http://api.map.baidu.com/place/detail?uid=5e097012573056f1eb12e49e&output=html&source=placeapi_v2', 'image_num': '1', 'children': [], 'lat': 32.01094820902122, 'lng': 118.71731009394524}}"
"{'name': '南京淘乐坊贸易有限公司', 'location': {'lat': 32.014884017559936, 'lng': 118.72200158625176}, 'address': '梦都大街150号建筑师工社609室', 'province': '江苏省', 'city': '南京市', 'area': '建邺区', 'street_id': '48a5ba92812389e2ca2915a7', 'detail': 1, 'uid': '48a5ba92812389e2ca2915a7', 'detail_info': {'tag': '公司企业;公司', 'type': 'enterprise', 'detail_url': 'http://api.map.baidu.com/place/detail?uid=48a5ba92812389e2ca2915a7&output=html&source=placeapi_v2', 'children': [], 'lat': 32.014884017559936, 'lng': 118.72200158625176}}"
"{'name': '江苏金寓信息科技有限公司', 'location': {'lat': 32.01097918305661, 'lng': 118.7172354818699}, 'address': '江苏省南京市建邺区河西中央商务区江东中路333号金奥中心', 'province': '江苏省', 'city': '南京市', 'area': '建邺区', 'detail': 1, 'uid': '8b4f685d83b6ea5ab6f42f48', 'detail_info': {'tag': '公司企业;公司', 'type': 'life', 'detail_url': 'http://api.map.baidu.com/place/detail?uid=8b4f685d83b6ea5ab6f42f48&output=html&source=placeapi_v2', 'image_num': '1', 'children': [], 'lat': 32.01097918305661, 'lng': 118.7172354818699}}"
"{'name': '南京海耀建材有限公司', 'location': {'lat': 32.00917248466234, 'lng': 118.71664953489865}, 'address': '江东中路222号科技中心大楼5层5018', 'province': '江苏省', 'city': '南京市', 'area': '建邺区', 'street_id': '038ea0781e2763dfb65f1e79', 'detail': 1, 'uid': '038ea0781e2763dfb65f1e79', 'detail_info': {'tag': '公司企业;公司', 'navi_location': {'lng': 118.72867792022, 'lat': 32.012878410919}, 'type': 'enterprise', 'detail_url': 'http://api.map.baidu.com/place/detail?uid=038ea0781e2763dfb65f1e79&output=html&source=placeapi_v2', 'children': [], 'lat': 32.00917248466234, 'lng': 118.71664953489865}}"
"{'name': '上海桦煜咨询信息有限公司', 'location': {'lat': 32.01095907408675, 'lng': 118.7173001454393}, 'address': '江苏省南京市建邺区河西中央商务区江东中路289号联强大厦', 'province': '江苏省', 'city': '南京市', 'area': '建邺区', 'detail': 1, 'uid': 'dd790dfa890a7328b8bd63d6', 'detail_info': {'tag': '公司企业;公司', 'type': 'enterprise', 'detail_url': 'http://api.map.baidu.com/place/detail?uid=dd790dfa890a7328b8bd63d6&output=html&source=placeapi_v2', 'children': [], 'lat': 32.01095907408675, 'lng': 118.7173001454393}}"
"{'name': '南京智灵宝贸易有限公司', 'location': {'lat': 32.00917248466234, 'lng': 118.71664953489865}, 'address': '江东中路222号科技中心大楼5层5028', 'province': '江苏省', 'city': '南京市', 'area': '建邺区', 'street_id': 'a1ca39de578650247fc8765d', 'detail': 1, 'uid': 'a1ca39de578650247fc8765d', 'detail_info': {'tag': '公司企业;公司', 'navi_location': {'lng': 118.72867792022, 'lat': 32.012878410919}, 'type': 'enterprise', 'detail_url': 'http://api.map.baidu.com/place/detail?uid=a1ca39de578650247fc8765d&output=html&source=placeapi_v2', 'children': [], 'lat': 32.00917248466234, 'lng': 118.71664953489865}}"
"{'name': '江苏睿麟润滑油有限公司', 'location': {'lat': 32.014884017559936, 'lng': 118.72200158625176}, 'address': '梦都大街150号建筑师工社412室', 'province': '江苏省', 'city': '南京市', 'area': '建邺区', 'street_id': '902b7fe70df9fdf6932ca395', 'detail': 1, 'uid': '902b7fe70df9fdf6932ca395', 'detail_info': {'tag': '公司企业;公司', 'type': 'enterprise', 'detail_url': 'http://api.map.baidu.com/place/detail?uid=902b7fe70df9fdf6932ca395&output=html&source=placeapi_v2', 'children': [], 'lat': 32.014884017559936, 'lng': 118.72200158625176}}"
"{'name': '南京朗士建材有限公司', 'location': {'lat': 32.014887018140996, 'lng': 118.7220015855623}, 'address': '南京市建邺区梦都大街150号建筑师工社511室', 'province': '江苏省', 'city': '南京市', 'area': '建邺区', 'street_id': '010f2e68648d6c30eb1e9765', 'telephone': '(025)58811919', 'detail': 1, 'uid': '010f2e68648d6c30eb1e9765', 'detail_info': {'tag': '公司企业;公司', 'type': 'enterprise', 'detail_url': 'http://api.map.baidu.com/place/detail?uid=010f2e68648d6c30eb1e9765&output=html&source=placeapi_v2', 'overall_rating': '0.0', 'comment_num': '1', 'children': [], 'lat': 32.014887018140996, 'lng': 118.7220015855623}}"
"{'name': '南京昇鹏环保科技有限公司', 'location': {'lat': 32.01743925366399, 'lng': 118.71402490888468}, 'address': '梦都大街176-3号105室', 'province': '江苏省', 'city': '南京市', 'area': '建邺区', 'street_id': 'bd2bac96371ad5b8932ca39d', 'detail': 1, 'uid': '4efbf61216cc24700bccdd2d', 'detail_info': {'tag': '公司企业;公司', 'navi_location': {'lng': 118.725823267, 'lat': 32.021139203412}, 'type': 'enterprise', 'detail_url': 'http://api.map.baidu.com/place/detail?uid=4efbf61216cc24700bccdd2d&output=html&source=placeapi_v2', 'children': [], 'lat': 32.01743925366399, 'lng': 118.71402490888468}}"
"{'name': '中国储备粮管理总公司江苏分公司', 'location': {'lat': 32.006224078374174, 'lng': 118.72425889928567}, 'address': '江东中路289号联强国际大厦28层2801～2804', 'province': '江苏省', 'city': '南京市', 'area': '建邺区', 'street_id': '9eb18596d6cd2a4aa5da39ed', 'detail': 1, 'uid': '9eb18596d6cd2a4aa5da39ed', 'detail_info': {'tag': '公司企业;公司', 'navi_location': {'lng': 118.73616064073, 'lat': 32.009987420359}, 'type': 'enterprise', 'detail_url': 'http://api.map.baidu.com/place/detail?uid=9eb18596d6cd2a4aa5da39ed&output=html&source=placeapi_v2', 'children': [], 'lat': 32.006224078374174, 'lng': 118.72425889928567}}"
"{'name': '南京远浩船务有限公司', 'location': {'lat': 32.006224078374174, 'lng': 118.72425889928567}, 'address': '江东中路289号联强国际大厦23层2302/2303', 'province': '江苏省', 'city': '南京市', 'area': '建邺区', 'street_id': 'ef86bbad733c0d1e213bf2d8', 'detail': 1, 'uid': 'ef86bbad733c0d1e213bf2d8', 'detail_info': {'tag': '公司企业;公司', 'navi_location': {'lng': 118.73616064073, 'lat': 32.009987420359}, 'type': 'enterprise', 'detail_url': 'http://api.map.baidu.com/place/detail?uid=ef86bbad733c0d1e213bf2d8&output=html&source=placeapi_v2', 'children': [], 'lat': 32.006224078374174, 'lng': 118.72425889928567}}"
"{'name': '南京玖翼智能科技有限公司', 'location': {'lat': 32.010570149964565, 'lng': 118.72101927720061}, 'address': '江东中路222号奥体东商业街', 'province': '江苏省', 'city': '南京市', 'area': '建邺区', 'telephone': '13851447676', 'detail': 1, 'uid': 'e951ddd3445801b99e82eaa5', 'detail_info': {'tag': '公司企业;公司', 'type': 'enterprise', 'detail_url': 'http://api.map.baidu.com/place/detail?uid=e951ddd3445801b99e82eaa5&output=html&source=placeapi_v2', 'children': [], 'lat': 32.010570149964565, 'lng': 118.72101927720061}}"
"{'name': '壹润国际贸易有限公司', 'location': {'lat': 32.00895186856716, 'lng': 118.70986847530602}, 'address': '楠溪江西街58号附近', 'province': '江苏省', 'city': '南京市', 'area': '建邺区', 'detail': 1, 'uid': '4554a9d7a0f847a9c61e518a', 'detail_info': {'tag': '公司企业;公司', 'type': 'enterprise', 'detail_url': 'http://api.map.baidu.com/place/detail?uid=4554a9d7a0f847a9c61e518a&output=html&source=placeapi_v2', 'children': [], 'lat': 32.00895186856716, 'lng': 118.70986847530602}}"
"{'name': '江苏大剧院运营管理有限公司', 'location': {'lat': 32.01857796138263, 'lng': 118.709694860165}, 'address': '江苏省南京市建邺区梦都大街186号北60米', 'province': '江苏省', 'city': '南京市', 'area': '建邺区', 'detail': 1, 'uid': '8330295cd30a2f1bf82d6141', 'detail_info': {'tag': '公司企业;公司', 'type': 'enterprise', 'detail_url': 'http://api.map.baidu.com/place/detail?uid=8330295cd30a2f1bf82d6141&output=html&source=placeapi_v2', 'children': [], 'lat': 32.01857796138263, 'lng': 118.709694860165}}"
"{'name': '名仕人力资源开发咨询有限公司', 'location': {'lat': 32.014884017559936, 'lng': 118.72200158625176}, 'address': '梦都大街150号建筑师工社605室', 'province': '江苏省', 'city': '南京市', 'area': '建邺区', 'street_id': '7b34dd9e4ea26767c42ba189', 'detail': 1, 'uid': '7b34dd9e4ea26767c42ba189', 'detail_info': {'tag': '公司企业;公司', 'type': 'enterprise', 'detail_url': 'http://api.map.baidu.com/place/detail?uid=7b34dd9e4ea26767c42ba189&output=html&source=placeapi_v2', 'children': [], 'lat': 32.014884017559936, 'lng': 118.72200158625176}}"
"{'name': '江苏顺茂建设工程有限公司', 'location': {'lat': 32.014884017559936, 'lng': 118.72200158625176}, 'address': '梦都大街150号建筑师工社313室', 'province': '江苏省', 'city': '南京市', 'area': '建邺区', 'street_id': '15d2b3e541979d3bca291535', 'detail': 1, 'uid': '15d2b3e541979d3bca291535', 'detail_info': {'tag': '公司企业;公司', 'type': 'enterprise', 'detail_url': 'http://api.map.baidu.com/place/detail?uid=15d2b3e541979d3bca291535&output=html&source=placeapi_v2', 'children': [], 'lat': 32.014884017559936, 'lng': 118.72200158625176}}"
"{'name': '南京奔联软件科技有限公司', 'location': {'lat': 32.01473522886026, 'lng': 118.72174668359342}, 'address': '江苏省南京市建邺区梦都大街150号建筑师工社521南京奔联软件科技有限公司', 'province': '江苏省', 'city': '南京市', 'area': '建邺区', 'detail': 1, 'uid': 'b10c69047528bafaf90cadd2', 'detail_info': {'tag': '公司企业;公司', 'type': 'life', 'detail_url': 'http://api.map.baidu.com/place/detail?uid=b10c69047528bafaf90cadd2&output=html&source=placeapi_v2', 'image_num': '1', 'children': [], 'lat': 32.01473522886026, 'lng': 118.72174668359342}}"
"{'name': '南京米思乐电子商务有限公司', 'location': {'lat': 32.01101957045407, 'lng': 118.71223481798259}, 'address': '奥体大街金马郦城3栋120室', 'province': '江苏省', 'city': '南京市', 'area': '建邺区', 'detail': 1, 'uid': '6b5e9dd5a0a115b486420ed4', 'detail_info': {'tag': '公司企业;公司', 'type': 'enterprise', 'detail_url': 'http://api.map.baidu.com/place/detail?uid=6b5e9dd5a0a115b486420ed4&output=html&source=placeapi_v2', 'overall_rating': '5.0', 'comment_num': '1', 'children': [], 'lat': 32.01101957045407, 'lng': 118.71223481798259}}"
"{'name': '江苏国能电器自动化有限公司', 'location': {'lat': 32.014884017559936, 'lng': 118.72200158625176}, 'address': '梦都大街150号建筑师工社504室', 'province': '江苏省', 'city': '南京市', 'area': '建邺区', 'detail': 1, 'uid': 'a3d67db105c32a3978f796e1', 'detail_info': {'tag': '公司企业;公司', 'type': 'enterprise', 'detail_url': 'http://api.map.baidu.com/place/detail?uid=a3d67db105c32a3978f796e1&output=html&source=placeapi_v2', 'children': [], 'lat': 32.014884017559936, 'lng': 118.72200158625176}}"
"{'name': '中国化学工程第十四建设有限公司(燕山路)', 'location': {'lat': 32.014884017559936, 'lng': 118.72200158625176}, 'address': '梦都大街150号建筑师工社310室', 'province': '江苏省', 'city': '南京市', 'area': '建邺区', 'detail': 1, 'uid': '45cdbe4bcd42101315764391', 'detail_info': {'tag': '公司企业;公司', 'type': 'enterprise', 'detail_url': 'http://api.map.baidu.com/place/detail?uid=45cdbe4bcd42101315764391&output=html&source=placeapi_v2', 'children': [], 'lat': 32.014884017559936, 'lng': 118.72200158625176}}"
"{'name': '江苏中润华能能源发展有限公司', 'location': {'lat': 32.00917248466234, 'lng': 118.71664953489865}, 'address': '江东中路222号科技中心大楼6层6001、6003、6005、6018、6020、6022', 'province': '江苏省', 'city': '南京市', 'area': '建邺区', 'street_id': '5a46fd5b7ae04d88d518b7a7', 'detail': 1, 'uid': '5a46fd5b7ae04d88d518b7a7', 'detail_info': {'tag': '公司企业;公司', 'navi_location': {'lng': 118.72867792022, 'lat': 32.012878410919}, 'type': 'enterprise', 'detail_url': 'http://api.map.baidu.com/place/detail?uid=5a46fd5b7ae04d88d518b7a7&output=html&source=placeapi_v2', 'children': [], 'lat': 32.00917248466234, 'lng': 118.71664953489865}}"
"{'name': '青海互助青稞酒股份有限公司南京销售中心', 'location': {'lat': 32.01396601203112, 'lng': 118.71928192771026}, 'address': '南京市建邺区梦都大街与华山路交叉路口东南侧(南京奥林匹克体育中心)', 'province': '江苏省', 'city': '南京市', 'area': '建邺区', 'street_id': '3ea520ab213982955e17c3ab', 'detail': 1, 'uid': '3ea520ab213982955e17c3ab', 'detail_info': {'tag': '公司企业;公司', 'type': 'enterprise', 'detail_url': 'http://api.map.baidu.com/place/detail?uid=3ea520ab213982955e17c3ab&output=html&source=placeapi_v2', 'children': [], 'lat': 32.01396601203112, 'lng': 118.71928192771026}}"
"{'name': '江苏芭芭拉教育科技股份有限公司', 'location': {'lat': 32.01566180997327, 'lng': 118.72124260452907}, 'address': '梦都大街156号华夏天成', 'province': '江苏省', 'city': '南京市', 'area': '建邺区', 'street_id': 'f06f609431877135bca822da', 'detail': 1, 'uid': 'f06f609431877135bca822da', 'detail_info': {'tag': '公司企业;公司', 'type': 'enterprise', 'detail_url': 'http://api.map.baidu.com/place/detail?uid=f06f609431877135bca822da&output=html&source=placeapi_v2', 'children': [], 'lat': 32.01566180997327, 'lng': 118.72124260452907}}"
"{'name': '南京舒迪佳体育用品有限公司', 'location': {'lat': 32.00929799103143, 'lng': 118.71969027191277}, 'address': '燕山路附近', 'province': '江苏省', 'city': '南京市', 'area': '建邺区', 'telephone': '(025)86200532', 'detail': 1, 'uid': 'b34fc71a1083228287330402', 'detail_info': {'tag': '公司企业;公司', 'type': 'enterprise', 'detail_url': 'http://api.map.baidu.com/place/detail?uid=b34fc71a1083228287330402&output=html&source=placeapi_v2', 'overall_rating': '5.0', 'comment_num': '1', 'children': [], 'lat': 32.00929799103143, 'lng': 118.71969027191277}}"
"{'name': '中侨', 'location': {'lat': 32.01811306943693, 'lng': 118.71719615415851}, 'address': '江苏省南京市建邺区乐山路167-12', 'province': '江苏省', 'city': '南京市', 'area': '建邺区', 'street_id': 'dfb72c28e6e315e822f01748', 'detail': 1, 'uid': 'dfb72c28e6e315e822f01748', 'detail_info': {'tag': '公司企业;公司', 'type': 'enterprise', 'detail_url': 'http://api.map.baidu.com/place/detail?uid=dfb72c28e6e315e822f01748&output=html&source=placeapi_v2', 'children': [], 'lat': 32.01811306943693, 'lng': 118.71719615415851}}"
"{'name': '南京河西建环环境服务有限公司(润城分公司)', 'location': {'lat': 32.009569065490474, 'lng': 118.71070523653455}, 'address': '金马郦城3幢102室', 'province': '江苏省', 'city': '南京市', 'area': '建邺区', 'street_id': 'a89778a4771fc1c62902e13c', 'detail': 1, 'uid': 'a89778a4771fc1c62902e13c', 'detail_info': {'tag': '公司企业;公司', 'type': 'enterprise', 'detail_url': 'http://api.map.baidu.com/place/detail?uid=a89778a4771fc1c62902e13c&output=html&source=placeapi_v2', 'children': [], 'lat': 32.009569065490474, 'lng': 118.71070523653455}}"
"{'name': '河西新能源客运有限公司', 'location': {'lat': 32.01100178813893, 'lng': 118.71720663186133}, 'address': '江苏省南京市建邺区河西中央商务区河西新能源客运有限公司', 'province': '江苏省', 'city': '南京市', 'area': '建邺区', 'detail': 1, 'uid': '0c834cf7cba0b48b9222e0a6', 'detail_info': {'tag': '公司企业;公司', 'type': 'enterprise', 'detail_url': 'http://api.map.baidu.com/place/detail?uid=0c834cf7cba0b48b9222e0a6&output=html&source=placeapi_v2', 'children': [], 'lat': 32.01100178813893, 'lng': 118.71720663186133}}"
"{'name': '江苏共赢高科投资有限公司', 'location': {'lat': 32.01121035610521, 'lng': 118.71246641041604}, 'address': '乐山路180号富士达电梯2楼', 'province': '江苏省', 'city': '南京市', 'area': '建邺区', 'telephone': '(025)83113888', 'detail': 1, 'uid': '6fc01ab5f331f179d23ce35a', 'detail_info': {'tag': '公司企业;公司', 'type': 'enterprise', 'detail_url': 'http://api.map.baidu.com/place/detail?uid=6fc01ab5f331f179d23ce35a&output=html&source=placeapi_v2', 'children': [], 'lat': 32.01121035610521, 'lng': 118.71246641041604}}"
"{'name': '泉州宝丰石材有限公司南京分公司', 'location': {'lat': 32.0093091261816, 'lng': 118.71683356554571}, 'address': '江东中路222号科技中心大楼7层7029、7031', 'province': '江苏省', 'city': '南京市', 'area': '建邺区', 'street_id': '44101d5175c0b384102935a5', 'detail': 1, 'uid': '44101d5175c0b384102935a5', 'detail_info': {'tag': '公司企业;公司', 'navi_location': {'lng': 118.72867792022, 'lat': 32.012878410919}, 'type': 'enterprise', 'detail_url': 'http://api.map.baidu.com/place/detail?uid=44101d5175c0b384102935a5&output=html&source=placeapi_v2', 'children': [], 'lat': 32.0093091261816, 'lng': 118.71683356554571}}"
"{'name': '大连三洋冷链有限公司(南京奥林匹克体育中心科技中心大楼南)', 'location': {'lat': 32.00917248466234, 'lng': 118.71664953489865}, 'address': '江东中路222号科技中心大楼5层5003', 'province': '江苏省', 'city': '南京市', 'area': '建邺区', 'street_id': '321ce8504543e57b4354d723', 'detail': 1, 'uid': '321ce8504543e57b4354d723', 'detail_info': {'tag': '公司企业;公司', 'navi_location': {'lng': 118.72867792022, 'lat': 32.012878410919}, 'type': 'enterprise', 'detail_url': 'http://api.map.baidu.com/place/detail?uid=321ce8504543e57b4354d723&output=html&source=placeapi_v2', 'children': [], 'lat': 32.00917248466234, 'lng': 118.71664953489865}}"
"{'name': '江苏精享裕建工有限公司南京分公司', 'location': {'lat': 32.013579023691214, 'lng': 118.72608111008712}, 'address': '南京市建邺区梦都大街126-41号', 'province': '江苏省', 'city': '南京市', 'area': '建邺区', 'telephone': '(025)86601767', 'detail': 1, 'uid': 'e36c8fd0163fd6082fe67b3c', 'detail_info': {'tag': '公司企业;公司', 'type': 'enterprise', 'detail_url': 'http://api.map.baidu.com/place/detail?uid=e36c8fd0163fd6082fe67b3c&output=html&source=placeapi_v2', 'children': [], 'lat': 32.013579023691214, 'lng': 118.72608111008712}}"
"{'name': '南京奥体物业服务有限责任公司商业管理项目部', 'location': {'lat': 32.01893812429504, 'lng': 118.7225161280368}, 'address': '南京市建邺区兴隆大街与华山路交叉路口往东南约100米(丹枫园)', 'province': '江苏省', 'city': '南京市', 'area': '建邺区', 'street_id': '1b3f2798944b44022cb17e16', 'detail': 1, 'uid': '1b3f2798944b44022cb17e16', 'detail_info': {'tag': '公司企业;公司', 'type': 'enterprise', 'detail_url': 'http://api.map.baidu.com/place/detail?uid=1b3f2798944b44022cb17e16&output=html&source=placeapi_v2', 'children': [], 'lat': 32.01893812429504, 'lng': 118.7225161280368}}"
"{'name': '南京天奥体育文化发展有限公司', 'location': {'lat': 32.01067981939829, 'lng': 118.7194862717937}, 'address': '奥体中心体育场5026室', 'province': '江苏省', 'city': '南京市', 'area': '建邺区', 'detail': 1, 'uid': 'ad38c7e2d950964cc356ace2', 'detail_info': {'tag': '公司企业;公司', 'type': 'enterprise', 'detail_url': 'http://api.map.baidu.com/place/detail?uid=ad38c7e2d950964cc356ace2&output=html&source=placeapi_v2', 'children': [], 'lat': 32.01067981939829, 'lng': 118.7194862717937}}"
"{'name': '依靠广告策划有限公司', 'location': {'lat': 32.0161071946949, 'lng': 118.72326423830529}, 'address': '江苏省南京市建邺区燕山路150号附近', 'province': '江苏省', 'city': '南京市', 'area': '建邺区', 'detail': 1, 'uid': '011ff864d551f667364aaeab', 'detail_info': {'tag': '公司企业;公司', 'type': 'enterprise', 'detail_url': 'http://api.map.baidu.com/place/detail?uid=011ff864d551f667364aaeab&output=html&source=placeapi_v2', 'children': [], 'lat': 32.0161071946949, 'lng': 118.72326423830529}}"
"{'name': '南京世界美丽文化发展公司', 'location': {'lat': 32.0093091261816, 'lng': 118.71683356554571}, 'address': '南京市建邺区奥体大街(科技中心大楼)', 'province': '江苏省', 'city': '南京市', 'area': '建邺区', 'street_id': '2cacfb2e728d6aa2e856fa19', 'detail': 1, 'uid': '2cacfb2e728d6aa2e856fa19', 'detail_info': {'tag': '公司企业;公司', 'type': 'enterprise', 'detail_url': 'http://api.map.baidu.com/place/detail?uid=2cacfb2e728d6aa2e856fa19&output=html&source=placeapi_v2', 'children': [], 'lat': 32.0093091261816, 'lng': 118.71683356554571}}"
"{'name': '上海钰申金融金融信息服务有限公司南京第二分公司', 'location': {'lat': 32.01488098490925, 'lng': 118.72199859932073}, 'address': '建邺区梦都大街150号建筑师公社408', 'province': '江苏省', 'city': '南京市', 'area': '建邺区', 'detail': 1, 'uid': 'b95015414b068b4d441a3289', 'detail_info': {'tag': '公司企业;公司', 'type': 'enterprise', 'detail_url': 'http://api.map.baidu.com/place/detail?uid=b95015414b068b4d441a3289&output=html&source=placeapi_v2', 'children': [], 'lat': 32.01488098490925, 'lng': 118.72199859932073}}"
"{'name': '上海玻机智能幕墙股份有限公司(南京奥林匹克体育中心科技中心大楼南)', 'location': {'lat': 32.00917248466234, 'lng': 118.71664953489865}, 'address': '江东中路222号科技中心大楼5层5021', 'province': '江苏省', 'city': '南京市', 'area': '建邺区', 'street_id': '78f7e87c5daa300573455b66', 'detail': 1, 'uid': '78f7e87c5daa300573455b66', 'detail_info': {'tag': '公司企业;公司', 'navi_location': {'lng': 118.72867792022, 'lat': 32.012878410919}, 'type': 'enterprise', 'detail_url': 'http://api.map.baidu.com/place/detail?uid=78f7e87c5daa300573455b66&output=html&source=placeapi_v2', 'children': [], 'lat': 32.00917248466234, 'lng': 118.71664953489865}}"
"{'name': '九尺木公司', 'location': {'lat': 32.01482537335188, 'lng': 118.72185022929261}, 'address': '燕山路建筑师工社603', 'province': '江苏省', 'city': '南京市', 'area': '建邺区', 'street_id': 'c945c62000bc24a21b94c660', 'detail': 1, 'uid': 'c945c62000bc24a21b94c660', 'detail_info': {'tag': '公司企业;公司', 'type': 'enterprise', 'detail_url': 'http://api.map.baidu.com/place/detail?uid=c945c62000bc24a21b94c660&output=html&source=placeapi_v2', 'children': [], 'lat': 32.01482537335188, 'lng': 118.72185022929261}}"
"{'name': '深圳捷信信弛咨询有限公司(南京分公司)', 'location': {'lat': 32.01485654047117, 'lng': 118.72233422893449}, 'address': '梦都大街150-1号510', 'province': '江苏省', 'city': '南京市', 'area': '建邺区', 'telephone': '(025)87768613', 'detail': 1, 'uid': '028b219dec4c6c6ae60738f5', 'detail_info': {'tag': '公司企业;公司', 'type': 'enterprise', 'detail_url': 'http://api.map.baidu.com/place/detail?uid=028b219dec4c6c6ae60738f5&output=html&source=placeapi_v2', 'children': [], 'lat': 32.01485654047117, 'lng': 118.72233422893449}}"
"{'name': '天豪物业公司', 'location': {'lat': 32.018581274117466, 'lng': 118.71533103163259}, 'address': '松花江西街59号滨江奥城听雨苑11幢', 'province': '江苏省', 'city': '南京市', 'area': '建邺区', 'detail': 1, 'uid': '2350637247b98bc900ff2d80', 'detail_info': {'tag': '公司企业;公司', 'type': 'enterprise', 'detail_url': 'http://api.map.baidu.com/place/detail?uid=2350637247b98bc900ff2d80&output=html&source=placeapi_v2', 'children': [], 'lat': 32.018581274117466, 'lng': 118.71533103163259}}"
"{'name': '江苏苏星律师事务所', 'location': {'lat': 32.00917248466234, 'lng': 118.71664953489865}, 'address': '江东中路222号奥体科技中心大楼三楼', 'province': '江苏省', 'city': '南京市', 'area': '建邺区', 'street_id': '50a3cfb8c019a3d221f017ae', 'telephone': '(025)84731456', 'detail': 1, 'uid': '50a3cfb8c019a3d221f017ae', 'detail_info': {'tag': '公司企业;公司', 'navi_location': {'lng': 118.72867792022, 'lat': 32.012878410919}, 'type': 'enterprise', 'detail_url': 'http://api.map.baidu.com/place/detail?uid=50a3cfb8c019a3d221f017ae&output=html&source=placeapi_v2', 'children': [], 'lat': 32.00917248466234, 'lng': 118.71664953489865}}"
"{'name': '南京匠心云众文化传播有限公司', 'location': {'lat': 32.00942656717142, 'lng': 118.71019940969339}, 'address': '奥体大街199号金马郦城4幢113室', 'province': '江苏省', 'city': '南京市', 'area': '建邺区', 'detail': 1, 'uid': 'b47b8accf8fc41020b1cc739', 'detail_info': {'tag': '文化传媒;其他', 'detail_url': 'http://api.map.baidu.com/place/detail?uid=b47b8accf8fc41020b1cc739&output=html&source=placeapi_v2', 'children': [], 'lat': 32.00942656717142, 'lng': 118.71019940969339}}"
"{'name': '南京瑞欧文化传播有限公司', 'location': {'lat': 32.00917248466234, 'lng': 118.71664953489865}, 'address': '江东中路222号科技中心大楼4层4009', 'province': '江苏省', 'city': '南京市', 'area': '建邺区', 'detail': 1, 'uid': '97cab5203e2039c8a1a93432', 'detail_info': {'tag': '文化传媒;其他', 'type': 'enterprise', 'detail_url': 'http://api.map.baidu.com/place/detail?uid=97cab5203e2039c8a1a93432&output=html&source=placeapi_v2', 'overall_rating': '5.0', 'comment_num': '1', 'children': [], 'lat': 32.00917248466234, 'lng': 118.71664953489865}}"
"{'name': '米微服饰贸易公司', 'location': {'lat': 32.00620233676635, 'lng': 118.72696525894904}, 'address': '江苏省南京市建邺区江东中路269号-19楼', 'province': '江苏省', 'city': '南京市', 'area': '建邺区', 'street_id': '466ba66e651f6044a3acc495', 'detail': 1, 'uid': '466ba66e651f6044a3acc495', 'detail_info': {'tag': '公司企业;公司', 'type': 'enterprise', 'detail_url': 'http://api.map.baidu.com/place/detail?uid=466ba66e651f6044a3acc495&output=html&source=placeapi_v2', 'children': [], 'lat': 32.00620233676635, 'lng': 118.72696525894904}}"
"{'name': '友成集团(环宇融侨广场店)', 'location': {'lat': 32.00627233176267, 'lng': 118.71741409595103}, 'address': '奥体大街177号环宇美食广场5楼', 'province': '江苏省', 'city': '南京市', 'area': '建邺区', 'street_id': 'e1006b2f16a94b2ad4851f42', 'detail': 1, 'uid': 'e1006b2f16a94b2ad4851f42', 'detail_info': {'tag': '公司企业;公司', 'type': 'enterprise', 'detail_url': 'http://api.map.baidu.com/place/detail?uid=e1006b2f16a94b2ad4851f42&output=html&source=placeapi_v2', 'children': [], 'lat': 32.00627233176267, 'lng': 118.71741409595103}}"
"{'name': '博尚广告', 'location': {'lat': 32.01611940600287, 'lng': 118.72318354375899}, 'address': '燕山路150-1号', 'province': '江苏省', 'city': '南京市', 'area': '建邺区', 'telephone': '(025)52337511', 'detail': 1, 'uid': 'c232860430817ef1a80dd843', 'detail_info': {'tag': '公司企业;公司', 'type': 'enterprise', 'detail_url': 'http://api.map.baidu.com/place/detail?uid=c232860430817ef1a80dd843&output=html&source=placeapi_v2', 'children': [], 'lat': 32.01611940600287, 'lng': 118.72318354375899}}"
"{'name': '南京兴源盛和税务师事务所', 'location': {'lat': 32.01093853163578, 'lng': 118.71726134801409}, 'address': '江苏省南京市建邺区河西中央商务区中泰国际广场1幢', 'province': '江苏省', 'city': '南京市', 'area': '建邺区', 'detail': 1, 'uid': 'e60f28e89767a30d0a5cb313', 'detail_info': {'tag': '公司企业;公司', 'type': 'enterprise', 'detail_url': 'http://api.map.baidu.com/place/detail?uid=e60f28e89767a30d0a5cb313&output=html&source=placeapi_v2', 'children': [], 'lat': 32.01093853163578, 'lng': 118.71726134801409}}"
"{'name': '江苏国际旅行社', 'location': {'lat': 32.01484207397444, 'lng': 118.72182234210584}, 'address': '梦都大街150号建筑师工社', 'province': '江苏省', 'city': '南京市', 'area': '建邺区', 'detail': 1, 'uid': 'bf632be690ffa1b46240a93d', 'detail_info': {'tag': '公司企业;公司', 'type': 'enterprise', 'detail_url': 'http://api.map.baidu.com/place/detail?uid=bf632be690ffa1b46240a93d&output=html&source=placeapi_v2', 'children': [], 'lat': 32.01484207397444, 'lng': 118.72182234210584}}"
"{'name': '紫辉时代广场营销中心', 'location': {'lat': 32.013220355652756, 'lng': 118.7252388400287}, 'address': '江苏省南京市建邺区梦都大街130号附近', 'province': '江苏省', 'city': '南京市', 'area': '建邺区', 'detail': 1, 'uid': '1d60a4ceedfddd680b69d99d', 'detail_info': {'tag': '公司企业;公司', 'type': 'enterprise', 'detail_url': 'http://api.map.baidu.com/place/detail?uid=1d60a4ceedfddd680b69d99d&output=html&source=placeapi_v2', 'children': [], 'lat': 32.013220355652756, 'lng': 118.7252388400287}}"
"{'name': '依索帕拉文化发展有限公司', 'location': {'lat': 32.01492487349948, 'lng': 118.72180240648929}, 'address': '梦都大街150号建筑师公社107室依索帕拉画廊', 'province': '江苏省', 'city': '南京市', 'area': '建邺区', 'detail': 1, 'uid': '2f86a997bed94668471a321e', 'detail_info': {'tag': '公司企业;公司', 'type': 'enterprise', 'detail_url': 'http://api.map.baidu.com/place/detail?uid=2f86a997bed94668471a321e&output=html&source=placeapi_v2', 'children': [], 'lat': 32.01492487349948, 'lng': 118.72180240648929}}"
"{'name': '顺丰速运(乐山路店)', 'location': {'lat': 32.0116595581337, 'lng': 118.7125966022944}, 'address': '江苏省南京市建邺区乐山路180号-北座-3层', 'province': '江苏省', 'city': '南京市', 'area': '建邺区', 'street_id': 'f71d2be0dbca7e142806ce3c', 'telephone': '95338', 'detail': 1, 'uid': 'f71d2be0dbca7e142806ce3c', 'detail_info': {'tag': '生活服务;物流公司', 'type': 'life', 'detail_url': 'http://api.map.baidu.com/place/detail?uid=f71d2be0dbca7e142806ce3c&output=html&source=placeapi_v2', 'overall_rating': '0.0', 'image_num': '1', 'comment_num': '0', 'children': [], 'lat': 32.0116595581337, 'lng': 118.7125966022944}}"
"{'name': '袁尔婚礼定制', 'location': {'lat': 32.00974643882028, 'lng': 118.72668254386923}, 'address': '中央商务区河西中央商务区江东中路235号南京涵月楼酒店一楼', 'province': '江苏省', 'city': '南京市', 'area': '建邺区', 'detail': 1, 'uid': 'a73779643cc744fb8e772709', 'detail_info': {'tag': '公司企业;公司', 'detail_url': 'http://api.map.baidu.com/place/detail?uid=a73779643cc744fb8e772709&output=html&source=placeapi_v2', 'children': [], 'lat': 32.00974643882028, 'lng': 118.72668254386923}}"
"{'name': '江苏省政府投资基金集聚区', 'location': {'lat': 32.013786853125566, 'lng': 118.72390638011741}, 'address': '江苏省南京市建邺区梦都大街136号金财大楼', 'province': '江苏省', 'city': '南京市', 'area': '建邺区', 'street_id': '68701f7fd2145cd2990050e1', 'detail': 1, 'uid': '68701f7fd2145cd2990050e1', 'detail_info': {'tag': '公司企业;园区', 'type': 'enterprise', 'detail_url': 'http://api.map.baidu.com/place/detail?uid=68701f7fd2145cd2990050e1&output=html&source=placeapi_v2', 'overall_rating': '0.0', 'comment_num': '1', 'children': [], 'lat': 32.013786853125566, 'lng': 118.72390638011741}}"
"{'name': 'BACCHUS', 'location': {'lat': 32.01168962145246, 'lng': 118.719936126619}, 'address': '建邺区江东中路222号南京奥体中心1号柱', 'province': '江苏省', 'city': '南京市', 'area': '建邺区', 'street_id': '7ebbaaa9aa02a75e0c0a7084', 'telephone': '(025)57713223', 'detail': 1, 'uid': '7ebbaaa9aa02a75e0c0a7084', 'detail_info': {'tag': '公司企业;其他', 'type': 'enterprise', 'detail_url': 'http://api.map.baidu.com/place/detail?uid=7ebbaaa9aa02a75e0c0a7084&output=html&source=placeapi_v2', 'price': '0.0', 'overall_rating': '4.0', 'comment_num': '6', 'children': [], 'lat': 32.01168962145246, 'lng': 118.719936126619}}"
"{'name': '施琅广告', 'location': {'lat': 32.010985419183406, 'lng': 118.71725239350017}, 'address': '江苏省南京市建邺区江东中路289号联强大厦2406施琅广告', 'province': '江苏省', 'city': '南京市', 'area': '建邺区', 'detail': 1, 'uid': 'c23d0f7dd55feef8b5f42f90', 'detail_info': {'tag': '公司企业;公司', 'type': 'enterprise', 'detail_url': 'http://api.map.baidu.com/place/detail?uid=c23d0f7dd55feef8b5f42f90&output=html&source=placeapi_v2', 'children': [], 'lat': 32.010985419183406, 'lng': 118.71725239350017}}"
"{'name': '俏乐一簇旅游', 'location': {'lat': 32.01094820902122, 'lng': 118.71731009394524}, 'address': '江苏省南京市建邺区河西中央商务区建邺区东渡新锐大厦庐山路128号123俏乐一簇旅游', 'province': '江苏省', 'city': '南京市', 'area': '建邺区', 'detail': 1, 'uid': '78a8ee1b74e6c29b3517dcb4', 'detail_info': {'tag': '公司企业', 'type': 'enterprise', 'detail_url': 'http://api.map.baidu.com/place/detail?uid=78a8ee1b74e6c29b3517dcb4&output=html&source=placeapi_v2', 'children': [], 'lat': 32.01094820902122, 'lng': 118.71731009394524}}"
"{'name': '果色花香果品公司(No.018)', 'location': {'lat': 32.0061462088241, 'lng': 118.71719122834676}, 'address': '南京市建邺区奥体大街177号', 'province': '江苏省', 'city': '南京市', 'area': '建邺区', 'street_id': 'aed9bd65c83759722d473317', 'telephone': '15371012276', 'detail': 1, 'uid': 'aed9bd65c83759722d473317', 'detail_info': {'tag': '购物;商铺', 'navi_location': {'lng': 118.72876992197, 'lat': 32.009919218224}, 'type': 'shopping', 'detail_url': 'http://api.map.baidu.com/place/detail?uid=aed9bd65c83759722d473317&output=html&source=placeapi_v2', 'overall_rating': '3.9', 'comment_num': '10', 'children': [], 'lat': 32.0061462088241, 'lng': 118.71719122834676}}"
"{'name': '晟邦物流(乐山路店)', 'location': {'lat': 32.01154636513149, 'lng': 118.71252404600772}, 'address': '沙洲街道乐山路180号', 'province': '江苏省', 'city': '南京市', 'area': '建邺区', 'street_id': 'ff179b20656f890114948e67', 'detail': 1, 'uid': 'ff179b20656f890114948e67', 'detail_info': {'tag': '生活服务;物流公司', 'type': 'life', 'detail_url': 'http://api.map.baidu.com/place/detail?uid=ff179b20656f890114948e67&output=html&source=placeapi_v2', 'children': [], 'lat': 32.01154636513149, 'lng': 118.71252404600772}}"
"{'name': '南京柯润玺商贸有限公司', 'location': {'lat': 32.020464595064624, 'lng': 118.72107045590654}, 'address': '江苏省南京市建邺区兴隆大街188-1号9层', 'province': '江苏省', 'city': '南京市', 'area': '建邺区', 'street_id': '71e024fe8d129c219b68b446', 'telephone': '(025)87797466', 'detail': 1, 'uid': '71e024fe8d129c219b68b446', 'detail_info': {'tag': '公司企业;公司', 'type': 'enterprise', 'detail_url': 'http://api.map.baidu.com/place/detail?uid=71e024fe8d129c219b68b446&output=html&source=placeapi_v2', 'overall_rating': '5.0', 'comment_num': '1', 'children': [], 'lat': 32.020464595064624, 'lng': 118.72107045590654}}"
"{'name': '嘉拓实业', 'location': {'lat': 32.02239056942447, 'lng': 118.71254719938214}, 'address': '螺丝桥大街83号', 'province': '江苏省', 'city': '南京市', 'area': '建邺区', 'street_id': 'dce5ac796e0cd345f33cbaa7', 'telephone': '(025)86276777', 'detail': 1, 'uid': 'dce5ac796e0cd345f33cbaa7', 'detail_info': {'tag': '公司企业;公司', 'navi_location': {'lng': 118.72412314927, 'lat': 32.026466612299}, 'type': 'enterprise', 'detail_url': 'http://api.map.baidu.com/place/detail?uid=dce5ac796e0cd345f33cbaa7&output=html&source=placeapi_v2', 'children': [], 'lat': 32.02239056942447, 'lng': 118.71254719938214}}"
"{'name': '南京市园林经济开发有限公司', 'location': {'lat': 32.01972053798485, 'lng': 118.71547272701198}, 'address': '松花江西街58号', 'province': '江苏省', 'city': '南京市', 'area': '建邺区', 'street_id': '1f2e31496c3801d5d23ce37b', 'telephone': '(025)86697222', 'detail': 1, 'uid': '1f2e31496c3801d5d23ce37b', 'detail_info': {'tag': '公司企业;公司', 'navi_location': {'lng': 118.72702230364, 'lat': 32.023309268699}, 'type': 'enterprise', 'detail_url': 'http://api.map.baidu.com/place/detail?uid=1f2e31496c3801d5d23ce37b&output=html&source=placeapi_v2', 'children': [], 'lat': 32.01972053798485, 'lng': 118.71547272701198}}"
"{'name': '康乃熙公司', 'location': {'lat': 32.02098729588049, 'lng': 118.72148240242099}, 'address': '江苏省南京市建邺区兴隆大街188-1号', 'province': '江苏省', 'city': '南京市', 'area': '建邺区', 'telephone': '(025)84509800', 'detail': 1, 'uid': 'acd61c4b41658032d23ce312', 'detail_info': {'tag': '公司企业;公司', 'type': 'enterprise', 'detail_url': 'http://api.map.baidu.com/place/detail?uid=acd61c4b41658032d23ce312&output=html&source=placeapi_v2', 'overall_rating': '5.0', 'comment_num': '2', 'children': [], 'lat': 32.02098729588049, 'lng': 118.72148240242099}}"
"{'name': '南京盛方经贸有限公司', 'location': {'lat': 32.027821083154684, 'lng': 118.72586146739903}, 'address': '建邺区商业文化旅游中心区燕山路118号(原苏宁物流4号库)', 'province': '江苏省', 'city': '南京市', 'area': '建邺区', 'street_id': '7fe5903197712a5741d63e35', 'detail': 1, 'uid': '7fe5903197712a5741d63e35', 'detail_info': {'tag': '公司企业;公司', 'type': 'enterprise', 'detail_url': 'http://api.map.baidu.com/place/detail?uid=7fe5903197712a5741d63e35&output=html&source=placeapi_v2', 'children': [], 'lat': 32.027821083154684, 'lng': 118.72586146739903}}"
"{'name': '南京一九一九酒业有限公司', 'location': {'lat': 32.020474493672154, 'lng': 118.71979620517578}, 'address': '南京市建邺区兴隆大街201-4', 'province': '江苏省', 'city': '南京市', 'area': '建邺区', 'street_id': '87c51699247fceb41b94c60b', 'telephone': '13605181189', 'detail': 1, 'uid': '87c51699247fceb41b94c60b', 'detail_info': {'tag': '公司企业;公司', 'type': 'enterprise', 'detail_url': 'http://api.map.baidu.com/place/detail?uid=87c51699247fceb41b94c60b&output=html&source=placeapi_v2', 'overall_rating': '4.0', 'comment_num': '1', 'children': [], 'lat': 32.020474493672154, 'lng': 118.71979620517578}}"
"{'name': '江苏斐多律师事务所', 'location': {'lat': 32.02080525548167, 'lng': 118.72166173882378}, 'address': '兴隆大街188-1号8层', 'province': '江苏省', 'city': '南京市', 'area': '建邺区', 'street_id': '77d4a5a06853453c2811d133', 'telephone': '(025)58711688', 'detail': 1, 'uid': '77d4a5a06853453c2811d133', 'detail_info': {'tag': '公司企业;公司', 'type': 'enterprise', 'detail_url': 'http://api.map.baidu.com/place/detail?uid=77d4a5a06853453c2811d133&output=html&source=placeapi_v2', 'children': [], 'lat': 32.02080525548167, 'lng': 118.72166173882378}}"
"{'name': '江苏淘好材有限公司', 'location': {'lat': 32.02736922731363, 'lng': 118.72762577932178}, 'address': '南京市建邺区燕山路118号', 'province': '江苏省', 'city': '南京市', 'area': '建邺区', 'street_id': '739cbc30edc6e100c356ac0a', 'detail': 1, 'uid': '739cbc30edc6e100c356ac0a', 'detail_info': {'tag': '公司企业;公司', 'type': 'enterprise', 'detail_url': 'http://api.map.baidu.com/place/detail?uid=739cbc30edc6e100c356ac0a&output=html&source=placeapi_v2', 'children': [], 'lat': 32.02736922731363, 'lng': 118.72762577932178}}"
"{'name': '南京补天科技实业有限公司', 'location': {'lat': 32.01899560961729, 'lng': 118.70990732742351}, 'address': '江苏省南京市建邺区梦都大街188号五矿御江金城9栋', 'province': '江苏省', 'city': '南京市', 'area': '建邺区', 'detail': 1, 'uid': 'eb55e244f688224bb020a8cb', 'detail_info': {'tag': '公司企业;公司', 'type': 'life', 'detail_url': 'http://api.map.baidu.com/place/detail?uid=eb55e244f688224bb020a8cb&output=html&source=placeapi_v2', 'image_num': '1', 'children': [], 'lat': 32.01899560961729, 'lng': 118.70990732742351}}"
"{'name': '南京兆乐新材料科技有限公司', 'location': {'lat': 32.022179790269966, 'lng': 118.71243798457726}, 'address': '江苏省南京市建邺区螺丝桥大街43号西南60米', 'province': '江苏省', 'city': '南京市', 'area': '建邺区', 'street_id': '60341affa0af4143c9fa5fa9', 'detail': 1, 'uid': '60341affa0af4143c9fa5fa9', 'detail_info': {'tag': '公司企业;公司', 'type': 'enterprise', 'detail_url': 'http://api.map.baidu.com/place/detail?uid=60341affa0af4143c9fa5fa9&output=html&source=placeapi_v2', 'children': [], 'lat': 32.022179790269966, 'lng': 118.71243798457726}}"
"{'name': '南京卓道环保科技有限公司', 'location': {'lat': 32.01970956631216, 'lng': 118.72064371566023}, 'address': '江苏省南京市建邺区兴隆大街189-9号海棠园7栋', 'province': '江苏省', 'city': '南京市', 'area': '建邺区', 'street_id': '9072c3abe9d542fa4207c1ee', 'detail': 1, 'uid': '9072c3abe9d542fa4207c1ee', 'detail_info': {'tag': '公司企业;公司', 'type': 'enterprise', 'detail_url': 'http://api.map.baidu.com/place/detail?uid=9072c3abe9d542fa4207c1ee&output=html&source=placeapi_v2', 'overall_rating': '0.0', 'comment_num': '1', 'children': [], 'lat': 32.01970956631216, 'lng': 118.72064371566023}}"
"{'name': '南京康奇宠物有限公司', 'location': {'lat': 32.020842691718165, 'lng': 118.72013743394096}, 'address': '兴隆大街196-2号附近', 'province': '江苏省', 'city': '南京市', 'area': '建邺区', 'detail': 1, 'uid': '76508d6f1175718514b54b2d', 'detail_info': {'tag': '公司企业;公司', 'type': 'enterprise', 'detail_url': 'http://api.map.baidu.com/place/detail?uid=76508d6f1175718514b54b2d&output=html&source=placeapi_v2', 'children': [], 'lat': 32.020842691718165, 'lng': 118.72013743394096}}"
"{'name': '南京家自在置业顾问有限公司', 'location': {'lat': 32.01964189022224, 'lng': 118.71045457366753}, 'address': '南京市建邺区螺丝桥大街138号', 'province': '江苏省', 'city': '南京市', 'area': '建邺区', 'street_id': 'e138b91a5ff3930059bbbc7e', 'telephone': '13851656573,(025)66079980', 'detail': 1, 'uid': 'e138b91a5ff3930059bbbc7e', 'detail_info': {'tag': '公司企业;公司', 'navi_location': {'lng': 118.72237000006, 'lat': 32.02342801479}, 'type': 'enterprise', 'detail_url': 'http://api.map.baidu.com/place/detail?uid=e138b91a5ff3930059bbbc7e&output=html&source=placeapi_v2', 'overall_rating': '0.0', 'children': [], 'lat': 32.01964189022224, 'lng': 118.71045457366753}}"
"{'name': '南京启才建筑工程有限公司', 'location': {'lat': 32.022192823520506, 'lng': 118.71243996480223}, 'address': '江苏省南京市建邺区螺丝桥大街91', 'province': '江苏省', 'city': '南京市', 'area': '建邺区', 'street_id': 'cc73bb4137fb00bddf1e523a', 'detail': 1, 'uid': 'cc73bb4137fb00bddf1e523a', 'detail_info': {'tag': '公司企业;公司', 'type': 'enterprise', 'detail_url': 'http://api.map.baidu.com/place/detail?uid=cc73bb4137fb00bddf1e523a&output=html&source=placeapi_v2', 'children': [], 'lat': 32.022192823520506, 'lng': 118.71243996480223}}"
"{'name': '南京科日电子有限公司', 'location': {'lat': 32.0271789846677, 'lng': 118.72639038312478}, 'address': '江苏省南京市建邺区燕山路118号南京科日电子有限公司', 'province': '江苏省', 'city': '南京市', 'area': '建邺区', 'detail': 1, 'uid': 'b5f85968c435639e46e274f0', 'detail_info': {'tag': '公司企业;公司', 'navi_location': {'lng': 118.73822899994, 'lat': 32.030728016128}, 'type': 'enterprise', 'detail_url': 'http://api.map.baidu.com/place/detail?uid=b5f85968c435639e46e274f0&output=html&source=placeapi_v2', 'children': [], 'lat': 32.0271789846677, 'lng': 118.72639038312478}}"
"{'name': '南京宇桥通用电器有限公司', 'location': {'lat': 32.0247676972712, 'lng': 118.71192439175346}, 'address': '兴隆大街218号', 'province': '江苏省', 'city': '南京市', 'area': '建邺区', 'street_id': 'c8e8f633cb595d6caa0dd8ad', 'detail': 1, 'uid': 'c8e8f633cb595d6caa0dd8ad', 'detail_info': {'tag': '公司企业;公司', 'type': 'enterprise', 'detail_url': 'http://api.map.baidu.com/place/detail?uid=c8e8f633cb595d6caa0dd8ad&output=html&source=placeapi_v2', 'children': [], 'lat': 32.0247676972712, 'lng': 118.71192439175346}}"
"{'name': '淮安市淮粮控股有限公司', 'location': {'lat': 32.02125725137067, 'lng': 118.71920856568214}, 'address': '江苏省南京市建邺区兴隆大街198号附近', 'province': '江苏省', 'city': '南京市', 'area': '建邺区', 'detail': 1, 'uid': '76831d00164fdbc404fef573', 'detail_info': {'tag': '公司企业;公司', 'type': 'enterprise', 'detail_url': 'http://api.map.baidu.com/place/detail?uid=76831d00164fdbc404fef573&output=html&source=placeapi_v2', 'children': [], 'lat': 32.02125725137067, 'lng': 118.71920856568214}}"
"{'name': '南京茂讯佳商贸有限公司', 'location': {'lat': 32.02691891473409, 'lng': 118.72597584556969}, 'address': '南京市建邺区燕山路118号和悦储运产业园1号楼西3F', 'province': '江苏省', 'city': '南京市', 'area': '建邺区', 'telephone': '(025)66015818', 'detail': 1, 'uid': '603ddf589e66b6c9f942b2ec', 'detail_info': {'tag': '公司企业;公司', 'type': 'enterprise', 'detail_url': 'http://api.map.baidu.com/place/detail?uid=603ddf589e66b6c9f942b2ec&output=html&source=placeapi_v2', 'price': '0.0', 'children': [], 'lat': 32.02691891473409, 'lng': 118.72597584556969}}"
"{'name': '江苏辰星工程项目管理有限公司', 'location': {'lat': 32.01974590865799, 'lng': 118.72067256943897}, 'address': '兴隆大街189-5号', 'province': '江苏省', 'city': '南京市', 'area': '建邺区', 'street_id': '887ca589268c28ce4151c085', 'detail': 1, 'uid': '887ca589268c28ce4151c085', 'detail_info': {'tag': '公司企业;公司', 'type': 'enterprise', 'detail_url': 'http://api.map.baidu.com/place/detail?uid=887ca589268c28ce4151c085&output=html&source=placeapi_v2', 'children': [], 'lat': 32.01974590865799, 'lng': 118.72067256943897}}"
"{'name': '淮北市丰宁贸易有限公司', 'location': {'lat': 32.01899560961729, 'lng': 118.70990732742351}, 'address': '梦都大街188号御江金城9号楼', 'province': '江苏省', 'city': '南京市', 'area': '建邺区', 'detail': 1, 'uid': '1851b5b404b7370695ec84bd', 'detail_info': {'tag': '公司企业;公司', 'type': 'enterprise', 'detail_url': 'http://api.map.baidu.com/place/detail?uid=1851b5b404b7370695ec84bd&output=html&source=placeapi_v2', 'children': [], 'lat': 32.01899560961729, 'lng': 118.70990732742351}}"
"{'name': '南京体育产业集团', 'location': {'lat': 32.026852121000076, 'lng': 118.70877459362748}, 'address': '扬子江大道226号体育产业双创基地', 'province': '江苏省', 'city': '南京市', 'area': '建邺区', 'telephone': '(025)85287385', 'detail': 1, 'uid': 'd0531b3e8e5b3d5388f15d24', 'detail_info': {'tag': '公司企业;公司', 'type': 'enterprise', 'detail_url': 'http://api.map.baidu.com/place/detail?uid=d0531b3e8e5b3d5388f15d24&output=html&source=placeapi_v2', 'children': [], 'lat': 32.026852121000076, 'lng': 118.70877459362748}}"
"{'name': '南京恩仕德电器有限公司', 'location': {'lat': 32.02708729485669, 'lng': 118.72686408252731}, 'address': '江苏省南京市建邺区燕山路118号北60米', 'province': '江苏省', 'city': '南京市', 'area': '建邺区', 'detail': 1, 'uid': '62db9d80884c020a52e5c525', 'detail_info': {'tag': '公司企业;公司', 'type': 'enterprise', 'detail_url': 'http://api.map.baidu.com/place/detail?uid=62db9d80884c020a52e5c525&output=html&source=placeapi_v2', 'children': [], 'lat': 32.02708729485669, 'lng': 118.72686408252731}}"
"{'name': '南京轩塔贸易有限公司', 'location': {'lat': 32.02659901835497, 'lng': 118.72639881844998}, 'address': '应天大街北150米', 'province': '江苏省', 'city': '南京市', 'area': '建邺区', 'street_id': 'f02601351c931f27c7f02525', 'detail': 1, 'uid': 'f02601351c931f27c7f02525', 'detail_info': {'tag': '公司企业;公司', 'type': 'enterprise', 'detail_url': 'http://api.map.baidu.com/place/detail?uid=f02601351c931f27c7f02525&output=html&source=placeapi_v2', 'children': [], 'lat': 32.02659901835497, 'lng': 118.72639881844998}}"
"{'name': '南京宁达复合材料有限公司', 'location': {'lat': 32.02073989011151, 'lng': 118.72456159806981}, 'address': '兴隆大街168号', 'province': '江苏省', 'city': '南京市', 'area': '建邺区', 'detail': 1, 'uid': '50a9fd79ab2e029ec6effb85', 'detail_info': {'tag': '公司企业;公司', 'type': 'enterprise', 'detail_url': 'http://api.map.baidu.com/place/detail?uid=50a9fd79ab2e029ec6effb85&output=html&source=placeapi_v2', 'children': [], 'lat': 32.02073989011151, 'lng': 118.72456159806981}}"
"{'name': '汇锦国际物业', 'location': {'lat': 32.02566688572997, 'lng': 118.71822649441033}, 'address': '江苏省南京市建邺区月安街50号', 'province': '江苏省', 'city': '南京市', 'area': '建邺区', 'street_id': '2a21194206ad643bf33cba4b', 'telephone': '(025)51877911', 'detail': 1, 'uid': '2a21194206ad643bf33cba4b', 'detail_info': {'tag': '公司企业;公司', 'navi_location': {'lng': 118.72910238215, 'lat': 32.028253186469}, 'type': 'enterprise', 'detail_url': 'http://api.map.baidu.com/place/detail?uid=2a21194206ad643bf33cba4b&output=html&source=placeapi_v2', 'children': [], 'lat': 32.02566688572997, 'lng': 118.71822649441033}}"
"{'name': '江苏好邻居商业管理有限公司', 'location': {'lat': 32.0216330492944, 'lng': 118.71555923773514}, 'address': '兴隆大街209号好邻居生活广场2楼', 'province': '江苏省', 'city': '南京市', 'area': '建邺区', 'detail': 1, 'uid': 'e5e99dd147a54f87b817e73f', 'detail_info': {'tag': '公司企业;公司', 'type': 'enterprise', 'detail_url': 'http://api.map.baidu.com/place/detail?uid=e5e99dd147a54f87b817e73f&output=html&source=placeapi_v2', 'children': [], 'lat': 32.0216330492944, 'lng': 118.71555923773514}}"
"{'name': '江苏省金融资产交易中心有限公司', 'location': {'lat': 32.020521168669056, 'lng': 118.72112020979628}, 'address': '江苏省南京市建邺区兴隆大街188-4号2层', 'province': '江苏省', 'city': '南京市', 'area': '建邺区', 'detail': 1, 'uid': '30988c0422fd71721df74da8', 'detail_info': {'tag': '公司企业;公司', 'type': 'enterprise', 'detail_url': 'http://api.map.baidu.com/place/detail?uid=30988c0422fd71721df74da8&output=html&source=placeapi_v2', 'children': [], 'lat': 32.020521168669056, 'lng': 118.72112020979628}}"
"{'name': '南京色珂贸易有限公司', 'location': {'lat': 32.02752126320211, 'lng': 118.72763064278504}, 'address': '燕山路118号苏宁物流中心4号楼2层', 'province': '江苏省', 'city': '南京市', 'area': '建邺区', 'street_id': '39e0db0b4d8224343010af84', 'detail': 1, 'uid': '39e0db0b4d8224343010af84', 'detail_info': {'tag': '公司企业;公司', 'type': 'enterprise', 'detail_url': 'http://api.map.baidu.com/place/detail?uid=39e0db0b4d8224343010af84&output=html&source=placeapi_v2', 'children': [], 'lat': 32.02752126320211, 'lng': 118.72763064278504}}"
"{'name': '南京青兰酒店设备有限公司', 'location': {'lat': 32.02710984002714, 'lng': 118.7267972544809}, 'address': '江苏省南京市建邺区燕山路和悦储运产业园', 'province': '江苏省', 'city': '南京市', 'area': '建邺区', 'street_id': '7db301c9c895e7b6c26c140b', 'detail': 1, 'uid': '7db301c9c895e7b6c26c140b', 'detail_info': {'tag': '公司企业;公司', 'type': 'enterprise', 'detail_url': 'http://api.map.baidu.com/place/detail?uid=7db301c9c895e7b6c26c140b&output=html&source=placeapi_v2', 'children': [], 'lat': 32.02710984002714, 'lng': 118.7267972544809}}"
"{'name': '南京米粒体育发展有限公司', 'location': {'lat': 32.02661067659786, 'lng': 118.70857407968236}, 'address': '江苏省南京市建邺区扬子江大道226号南京体育产业双创基地负一楼', 'province': '江苏省', 'city': '南京市', 'area': '建邺区', 'detail': 1, 'uid': '577bf8aa405d26b978f79637', 'detail_info': {'tag': '公司企业;公司', 'type': 'enterprise', 'detail_url': 'http://api.map.baidu.com/place/detail?uid=577bf8aa405d26b978f79637&output=html&source=placeapi_v2', 'overall_rating': '0.0', 'comment_num': '1', 'children': [], 'lat': 32.02661067659786, 'lng': 118.70857407968236}}"
"{'name': '江苏云途乐器有限公司', 'location': {'lat': 32.02170801531501, 'lng': 118.71488695151675}, 'address': '兴隆街道兴隆大街209号', 'province': '江苏省', 'city': '南京市', 'area': '建邺区', 'street_id': '848e429e3ef3ef60d13ce331', 'detail': 1, 'uid': '848e429e3ef3ef60d13ce331', 'detail_info': {'tag': '公司企业;公司', 'type': 'enterprise', 'detail_url': 'http://api.map.baidu.com/place/detail?uid=848e429e3ef3ef60d13ce331&output=html&source=placeapi_v2', 'overall_rating': '5.0', 'comment_num': '1', 'children': [], 'lat': 32.02170801531501, 'lng': 118.71488695151675}}"
"{'name': '南京和悦储运有限公司', 'location': {'lat': 32.026804981158826, 'lng': 118.72667484858181}, 'address': '江苏省南京市建邺区南苑街道燕山路118号南京和悦储运有限公司', 'province': '江苏省', 'city': '南京市', 'area': '建邺区', 'detail': 1, 'uid': '6b68e65529777ab24354d70d', 'detail_info': {'tag': '公司企业;公司', 'type': 'enterprise', 'detail_url': 'http://api.map.baidu.com/place/detail?uid=6b68e65529777ab24354d70d&output=html&source=placeapi_v2', 'children': [], 'lat': 32.026804981158826, 'lng': 118.72667484858181}}"
"{'name': '南京尊秀贸易有限公司', 'location': {'lat': 32.02698905550471, 'lng': 118.72712842183203}, 'address': '燕山路118号', 'province': '江苏省', 'city': '南京市', 'area': '建邺区', 'street_id': 'e493fd0b5209aead82288ae6', 'detail': 1, 'uid': 'e493fd0b5209aead82288ae6', 'detail_info': {'tag': '公司企业;公司', 'type': 'enterprise', 'detail_url': 'http://api.map.baidu.com/place/detail?uid=e493fd0b5209aead82288ae6&output=html&source=placeapi_v2', 'children': [], 'lat': 32.02698905550471, 'lng': 118.72712842183203}}"
"{'name': '南京沐氧舒心环保科技有限公司', 'location': {'lat': 32.02743260550117, 'lng': 118.72676109697007}, 'address': '江苏省南京市建邺区燕山路118号4号楼309室', 'province': '江苏省', 'city': '南京市', 'area': '建邺区', 'street_id': '5603d9f863e7842be011033e', 'detail': 1, 'uid': '5603d9f863e7842be011033e', 'detail_info': {'tag': '公司企业;公司', 'type': 'enterprise', 'detail_url': 'http://api.map.baidu.com/place/detail?uid=5603d9f863e7842be011033e&output=html&source=placeapi_v2', 'children': [], 'lat': 32.02743260550117, 'lng': 118.72676109697007}}"
"{'name': '江苏英博自控设备有限公司', 'location': {'lat': 32.0205393503575, 'lng': 118.71065486661321}, 'address': '梦都大街188号御江金城12栋1303室江苏英博自控设备有限公司', 'province': '江苏省', 'city': '南京市', 'area': '建邺区', 'detail': 1, 'uid': '0e1562677d359205e70738bb', 'detail_info': {'tag': '公司企业;公司', 'type': 'enterprise', 'detail_url': 'http://api.map.baidu.com/place/detail?uid=0e1562677d359205e70738bb&output=html&source=placeapi_v2', 'children': [], 'lat': 32.0205393503575, 'lng': 118.71065486661321}}"
"{'name': '南京玛思特装饰工程有限公司', 'location': {'lat': 32.02994325891406, 'lng': 118.72005117704605}, 'address': '江苏省南京市建邺区河北大街2号', 'province': '江苏省', 'city': '南京市', 'area': '建邺区', 'telephone': '13305147259', 'detail': 1, 'uid': '942bb4eb802d1eb4f7eafc0d', 'detail_info': {'tag': '公司企业;公司', 'type': 'enterprise', 'detail_url': 'http://api.map.baidu.com/place/detail?uid=942bb4eb802d1eb4f7eafc0d&output=html&source=placeapi_v2', 'children': [], 'lat': 32.02994325891406, 'lng': 118.72005117704605}}"
"{'name': '南京格源电器有限公司', 'location': {'lat': 32.02703266599115, 'lng': 118.7267723873004}, 'address': '燕山路118号附近', 'province': '江苏省', 'city': '南京市', 'area': '建邺区', 'detail': 1, 'uid': '98c84eaf1835b99972455b34', 'detail_info': {'tag': '公司企业;公司', 'type': 'enterprise', 'detail_url': 'http://api.map.baidu.com/place/detail?uid=98c84eaf1835b99972455b34&output=html&source=placeapi_v2', 'children': [], 'lat': 32.02703266599115, 'lng': 118.7267723873004}}"
"{'name': '南京昊冉建设工程有限公司', 'location': {'lat': 32.019455505296634, 'lng': 118.72081308230084}, 'address': '江苏省南京市建邺区兴隆大街189-6号', 'province': '江苏省', 'city': '南京市', 'area': '建邺区', 'telephone': '15062277499', 'detail': 1, 'uid': '33f4b257032c2beb04026fea', 'detail_info': {'tag': '公司企业;公司', 'type': 'enterprise', 'detail_url': 'http://api.map.baidu.com/place/detail?uid=33f4b257032c2beb04026fea&output=html&source=placeapi_v2', 'overall_rating': '0.0', 'comment_num': '1', 'children': [], 'lat': 32.019455505296634, 'lng': 118.72081308230084}}"
"{'name': '南京家自在置业顾问有限公司(凌江府店)', 'location': {'lat': 32.02545436746137, 'lng': 118.71469058344645}, 'address': '江苏省南京市建邺区月安街58-11号', 'province': '江苏省', 'city': '南京市', 'area': '建邺区', 'street_id': '54e5b3cd2b6ba724e8e5828d', 'detail': 1, 'uid': '54e5b3cd2b6ba724e8e5828d', 'detail_info': {'tag': '公司企业;公司', 'type': 'enterprise', 'detail_url': 'http://api.map.baidu.com/place/detail?uid=54e5b3cd2b6ba724e8e5828d&output=html&source=placeapi_v2', 'children': [], 'lat': 32.02545436746137, 'lng': 118.71469058344645}}"
"{'name': '南京德贝纳节能环保技术有限公司', 'location': {'lat': 32.02051199926757, 'lng': 118.71258702513802}, 'address': '松花江西街66号', 'province': '江苏省', 'city': '南京市', 'area': '建邺区', 'street_id': '3e39cc248bb9a821d12dd68f', 'telephone': '18551796805', 'detail': 1, 'uid': '3e39cc248bb9a821d12dd68f', 'detail_info': {'tag': '公司企业;公司', 'type': 'enterprise', 'detail_url': 'http://api.map.baidu.com/place/detail?uid=3e39cc248bb9a821d12dd68f&output=html&source=placeapi_v2', 'children': [], 'lat': 32.02051199926757, 'lng': 118.71258702513802}}"
"{'name': '南京体育产业双创基地', 'location': {'lat': 32.02676392488914, 'lng': 118.70864649025938},