"{'name': '棉花堤渡口', 'location': {'lat': 32.00809831420451, 'lng': 118.70079051990822}, 'address': '134路;134路高峰区间;B5路;江心洲航线', 'province': '江苏省', 'city': '南京市', 'area': '建邺区', 'detail': 0, 'uid': '1de6d6ab3a30b5c0a5c756e7', 'detail_info': {'tag': '公交车站', 'children': [], 'lat': 32.00809831420451, 'lng': 118.70079051990822}}"
"{'name': '郦城御园-停车场', 'location': {'lat': 32.0103932011101, 'lng': 118.70798962669481}, 'address': '建邺区河西新城奥体大街199号', 'province': '江苏省', 'city': '南京市', 'area': '建邺区', 'street_id': '4c808d0c99ede64988db738f', 'detail': 1, 'uid': '4c808d0c99ede64988db738f', 'detail_info': {'tag': '交通设施;停车场', 'navi_location': {'lng': 118.71970583972, 'lat': 32.0146784714}, 'type': 'life', 'detail_url': 'http://api.map.baidu.com/place/detail?uid=4c808d0c99ede64988db738f&output=html&source=placeapi_v2', 'price': '6元/首小时', 'image_num': '1', 'children': [], 'lat': 32.0103932011101, 'lng': 118.70798962669481}}"
"{'name': '江苏大剧院P2停车场-出入口', 'location': {'lat': 32.01505384473967, 'lng': 118.70761846583231}, 'address': '扬子江大道东150米', 'province': '江苏省', 'city': '南京市', 'area': '建邺区', 'street_id': '31b2ede859a209759f09f744', 'detail': 1, 'uid': '31b2ede859a209759f09f744', 'detail_info': {'tag': '出入口;停车场出入口', 'type': 'life', 'detail_url': 'http://api.map.baidu.com/place/detail?uid=31b2ede859a209759f09f744&output=html&source=placeapi_v2', 'image_num': '1', 'children': [], 'lat': 32.01505384473967, 'lng': 118.70761846583231}}"
"{'name': '碧瑶花园熙苑-地下停车场', 'location': {'lat': 32.006217717068466, 'lng': 118.70773980868017}, 'address': '乐山路199号碧瑶花园熙苑', 'province': '江苏省', 'city': '南京市', 'area': '建邺区', 'street_id': 'f4f7ba27813be190ede4a5c7', 'detail': 1, 'uid': 'f4f7ba27813be190ede4a5c7', 'detail_info': {'tag': '交通设施;停车场', 'navi_location': {'lng': 118.71942630142, 'lat': 32.009957636929}, 'type': 'life', 'detail_url': 'http://api.map.baidu.com/place/detail?uid=f4f7ba27813be190ede4a5c7&output=html&source=placeapi_v2', 'image_num': '1', 'children': [], 'lat': 32.006217717068466, 'lng': 118.70773980868017}}"
"{'name': '南京中国绿化博览园停车场-出入口', 'location': {'lat': 32.016939502522824, 'lng': 118.70527440351054}, 'address': '江苏省南京市建邺区兴隆街道万景园路滨江公园', 'province': '江苏省', 'city': '南京市', 'area': '建邺区', 'street_id': 'bf617e91d658427ec9fa5f2f', 'detail': 1, 'uid': 'bf617e91d658427ec9fa5f2f', 'detail_info': {'tag': '出入口;停车场出入口', 'type': 'life', 'detail_url': 'http://api.map.baidu.com/place/detail?uid=bf617e91d658427ec9fa5f2f&output=html&source=placeapi_v2', 'image_num': '1', 'children': [], 'lat': 32.016939502522824, 'lng': 118.70527440351054}}"
"{'name': '滨江公园-停车场', 'location': {'lat': 32.01810454674792, 'lng': 118.70255419081576}, 'address': '南京市建邺区扬子江大道228号滨江公园内', 'province': '江苏省', 'city': '南京市', 'area': '建邺区', 'street_id': '1a318af92052d74c5d0d0209', 'detail': 1, 'uid': '1a318af92052d74c5d0d0209', 'detail_info': {'tag': '交通设施;停车场', 'navi_location': {'lng': 118.7167395927, 'lat': 32.020806879224}, 'type': 'life', 'detail_url': 'http://api.map.baidu.com/place/detail?uid=1a318af92052d74c5d0d0209&output=html&source=placeapi_v2', 'overall_rating': '0.0', 'image_num': '1', 'comment_num': '0', 'children': [], 'lat': 32.01810454674792, 'lng': 118.70255419081576}}"
"{'name': '旗杆渡口', 'location': {'lat': 32.00970719340585, 'lng': 118.69733250950023}, 'address': '江心洲航线', 'province': '江苏省', 'city': '南京市', 'area': '建邺区', 'detail': 0, 'uid': 'dd97069c651f9786b320a89c', 'detail_info': {'tag': '公交车站', 'children': [], 'lat': 32.00970719340585, 'lng': 118.69733250950023}}"
"{'name': '金陵江滨酒店-停车场', 'location': {'lat': 32.01356870501557, 'lng': 118.70301740904489}, 'address': '太阳宫路东50米', 'province': '江苏省', 'city': '南京市', 'area': '建邺区', 'detail': 1, 'uid': '81ce5b6d3c6f0f5a2bd7ab11', 'detail_info': {'tag': '交通设施;停车场', 'navi_location': {'lng': 118.7147089165, 'lat': 32.017754655119}, 'type': 'life', 'detail_url': 'http://api.map.baidu.com/place/detail?uid=81ce5b6d3c6f0f5a2bd7ab11&output=html&source=placeapi_v2', 'image_num': '1', 'children': [], 'lat': 32.01356870501557, 'lng': 118.70301740904489}}"
"{'name': '水泊云天A座-地上停车场', 'location': {'lat': 32.005919891059136, 'lng': 118.70314434046352}, 'address': '滨江公园万景园路9号(近绿博园)水泊云天温泉会所内', 'province': '江苏省', 'city': '南京市', 'area': '建邺区', 'street_id': '6cc296ef178ca006d4851f7d', 'detail': 1, 'uid': '6cc296ef178ca006d4851f7d', 'detail_info': {'tag': '交通设施;停车场', 'type': 'life', 'detail_url': 'http://api.map.baidu.com/place/detail?uid=6cc296ef178ca006d4851f7d&output=html&source=placeapi_v2', 'image_num': '1', 'children': [], 'lat': 32.005919891059136, 'lng': 118.70314434046352}}"
"{'name': '江苏大剧院P3停车场(出入口)', 'location': {'lat': 32.01378883155495, 'lng': 118.70716968276086}, 'address': '扬子江大道东100米', 'province': '江苏省', 'city': '南京市', 'area': '建邺区', 'detail': 1, 'uid': '1c043814d6bef117f11937e0', 'detail_info': {'tag': '出入口;停车场出入口', 'type': 'life', 'detail_url': 'http://api.map.baidu.com/place/detail?uid=1c043814d6bef117f11937e0&output=html&source=placeapi_v2', 'image_num': '1', 'children': [], 'lat': 32.01378883155495, 'lng': 118.70716968276086}}"
"{'name': '南京中国绿化博览园-停车场', 'location': {'lat': 32.01440403003136, 'lng': 118.70285235400053}, 'address': '太阳宫路西50米', 'province': '江苏省', 'city': '南京市', 'area': '建邺区', 'street_id': 'd8b927de636b8898bca822de', 'detail': 1, 'uid': 'd8b927de636b8898bca822de', 'detail_info': {'tag': '交通设施;停车场', 'type': 'life', 'detail_url': 'http://api.map.baidu.com/place/detail?uid=d8b927de636b8898bca822de&output=html&source=placeapi_v2', 'image_num': '1', 'children': [], 'lat': 32.01440403003136, 'lng': 118.70285235400053}}"
"{'name': '爱康君安健疗国际-地面停车场', 'location': {'lat': 32.00810641217632, 'lng': 118.7031367660588}, 'address': '扬子江大道266-1号', 'province': '江苏省', 'city': '南京市', 'area': '建邺区', 'detail': 1, 'uid': '7ddcdc5e7e812233adb22a39', 'detail_info': {'tag': '交通设施;停车场', 'type': 'life', 'detail_url': 'http://api.map.baidu.com/place/detail?uid=7ddcdc5e7e812233adb22a39&output=html&source=placeapi_v2', 'image_num': '1', 'children': [], 'lat': 32.00810641217632, 'lng': 118.7031367660588}}"
"{'name': '苏宁滨江壹号-地下停车场', 'location': {'lat': 32.0060319023302, 'lng': 118.70671351707973}, 'address': '楠溪江西街111号', 'province': '江苏省', 'city': '南京市', 'area': '建邺区', 'street_id': '97612d50cbc22f499d95deb7', 'detail': 1, 'uid': '97612d50cbc22f499d95deb7', 'detail_info': {'tag': '交通设施;停车场', 'type': 'life', 'detail_url': 'http://api.map.baidu.com/place/detail?uid=97612d50cbc22f499d95deb7&output=html&source=placeapi_v2', 'image_num': '1', 'children': [], 'lat': 32.0060319023302, 'lng': 118.70671351707973}}"
"{'name': '碧瑶花园熙苑停车场-入口', 'location': {'lat': 32.00614069290867, 'lng': 118.70773979205192}, 'address': '江苏省南京市建邺区楠溪江西街北50米', 'province': '江苏省', 'city': '南京市', 'area': '建邺区', 'street_id': 'f47e70a94a00783d2e47334e', 'detail': 1, 'uid': 'f47e70a94a00783d2e47334e', 'detail_info': {'tag': '出入口;停车场出入口', 'type': 'life', 'detail_url': 'http://api.map.baidu.com/place/detail?uid=f47e70a94a00783d2e47334e&output=html&source=placeapi_v2', 'image_num': '1', 'children': [], 'lat': 32.00614069290867, 'lng': 118.70773979205192}}"
"{'name': '棉花堤渡口', 'location': {'lat': 32.0088798357953, 'lng': 118.70039225631436}, 'address': '南京市建邺区扬子江大道268号', 'province': '江苏省', 'city': '南京市', 'area': '建邺区', 'street_id': '6835e3a7ad234e4ee21103b0', 'telephone': '(025)86463864', 'detail': 1, 'uid': '6835e3a7ad234e4ee21103b0', 'detail_info': {'tag': '交通设施;港口', 'navi_location': {'lng': 118.71251023292, 'lat': 32.012865029187}, 'type': 'life', 'detail_url': 'http://api.map.baidu.com/place/detail?uid=6835e3a7ad234e4ee21103b0&output=html&source=placeapi_v2', 'overall_rating': '5.0', 'image_num': '6', 'comment_num': '2', 'children': [], 'lat': 32.0088798357953, 'lng': 118.70039225631436}}"
"{'name': '旗杆渡口', 'location': {'lat': 32.009634157753645, 'lng': 118.69726792755328}, 'address': '江苏省南京市建邺区旗杆渡口(江堤路东)', 'province': '江苏省', 'city': '南京市', 'area': '建邺区', 'street_id': '75036835b29710af5f0d02b0', 'detail': 1, 'uid': '75036835b29710af5f0d02b0', 'detail_info': {'tag': '交通设施;港口', 'navi_location': {'lng': 118.70862661566, 'lat': 32.013872543255}, 'type': 'life', 'detail_url': 'http://api.map.baidu.com/place/detail?uid=75036835b29710af5f0d02b0&output=html&source=placeapi_v2', 'overall_rating': '4.5', 'image_num': '3', 'comment_num': '2', 'children': [], 'lat': 32.009634157753645, 'lng': 118.69726792755328}}"
"{'name': '扬子江大道/梦都大街(路口)', 'location': {'lat': 32.01817535049836, 'lng': 118.70686538026756}, 'address': '江苏省南京市建邺区', 'province': '江苏省', 'city': '南京市', 'area': '建邺区', 'street_id': '4ce10ce6bf8b49a0441a3239', 'detail': 1, 'uid': '4ce10ce6bf8b49a0441a3239', 'detail_info': {'tag': '道路;路口', 'type': 'life', 'detail_url': 'http://api.map.baidu.com/place/detail?uid=4ce10ce6bf8b49a0441a3239&output=html&source=placeapi_v2', 'image_num': '1', 'children': [], 'lat': 32.01817535049836, 'lng': 118.70686538026756}}"
"{'name': '洲泰路/民安路(路口)', 'location': {'lat': 32.01043063803109, 'lng': 118.69519025565612}, 'address': '南京市建邺区洲泰路', 'province': '江苏省', 'city': '南京市', 'area': '建邺区', 'street_id': '606ab0d0b625402b0e3ddac8', 'detail': 1, 'uid': '606ab0d0b625402b0e3ddac8', 'detail_info': {'tag': '道路;路口', 'type': 'life', 'detail_url': 'http://api.map.baidu.com/place/detail?uid=606ab0d0b625402b0e3ddac8&output=html&source=placeapi_v2', 'image_num': '1', 'children': [], 'lat': 32.01043063803109, 'lng': 118.69519025565612}}"
"{'name': '万景园-停车场', 'location': {'lat': 32.01488723798467, 'lng': 118.7055104368802}, 'address': '南京市建邺区万景园路8号附近', 'province': '江苏省', 'city': '南京市', 'area': '建邺区', 'street_id': 'fe57fe9320330e48128824a0', 'detail': 1, 'uid': 'fe57fe9320330e48128824a0', 'detail_info': {'tag': '交通设施;停车场', 'type': 'life', 'detail_url': 'http://api.map.baidu.com/place/detail?uid=fe57fe9320330e48128824a0&output=html&source=placeapi_v2', 'image_num': '1', 'children': [], 'lat': 32.01488723798467, 'lng': 118.7055104368802}}"
"{'name': '江堤路与民安路交叉口', 'location': {'lat': 32.009795290829565, 'lng': 118.69701855105994}, 'address': '江苏省南京市建邺区', 'province': '江苏省', 'city': '南京市', 'area': '建邺区', 'street_id': 'bf5308eb308ca094b52655a8', 'detail': 1, 'uid': 'bf5308eb308ca094b52655a8', 'detail_info': {'tag': '道路;路口', 'type': 'life', 'detail_url': 'http://api.map.baidu.com/place/detail?uid=bf5308eb308ca094b52655a8&output=html&source=placeapi_v2', 'image_num': '1', 'children': [], 'lat': 32.009795290829565, 'lng': 118.69701855105994}}"
"{'name': '郦城御园停车场-出入口', 'location': {'lat': 32.0105305780587, 'lng': 118.70800949644287}, 'address': '江苏省南京市建邺区奥体大街199-3号附近', 'province': '江苏省', 'city': '南京市', 'area': '建邺区', 'street_id': '6eff7bfa622f0ad9220262d5', 'detail': 1, 'uid': '6eff7bfa622f0ad9220262d5', 'detail_info': {'tag': '出入口;停车场出入口', 'navi_location': {'lng': 118.71968670222, 'lat': 32.014593610277}, 'type': 'life', 'detail_url': 'http://api.map.baidu.com/place/detail?uid=6eff7bfa622f0ad9220262d5&output=html&source=placeapi_v2', 'image_num': '1', 'children': [], 'lat': 32.0105305780587, 'lng': 118.70800949644287}}"
"{'name': '奥体大街/扬子江大道(路口)', 'location': {'lat': 32.0114984423223, 'lng': 118.70596691495146}, 'address': '江苏省南京市建邺区', 'province': '江苏省', 'city': '南京市', 'area': '建邺区', 'street_id': 'a6c4eb100a66981cad080f2a', 'detail': 1, 'uid': 'a6c4eb100a66981cad080f2a', 'detail_info': {'tag': '道路;路口', 'type': 'life', 'detail_url': 'http://api.map.baidu.com/place/detail?uid=a6c4eb100a66981cad080f2a&output=html&source=placeapi_v2', 'image_num': '1', 'children': [], 'lat': 32.0114984423223, 'lng': 118.70596691495146}}"
"{'name': '南京中国绿化博览园-南门停车场', 'location': {'lat': 32.0168256842456, 'lng': 118.70511351644075}, 'address': '江苏省南京市建邺区扬子江大道288号', 'province': '江苏省', 'city': '南京市', 'area': '建邺区', 'street_id': 'ff33ecea035b407715a190b1', 'detail': 1, 'uid': 'ff33ecea035b407715a190b1', 'detail_info': {'tag': '交通设施;停车场', 'type': 'life', 'detail_url': 'http://api.map.baidu.com/place/detail?uid=ff33ecea035b407715a190b1&output=html&source=placeapi_v2', 'image_num': '1', 'children': [], 'lat': 32.0168256842456, 'lng': 118.70511351644075}}"
"{'name': '绿博园酒店-地上停车场', 'location': {'lat': 32.00764466033997, 'lng': 118.70333239252456}, 'address': '江苏省南京市建邺区扬子江大道266-2号花园一号绿博园酒店', 'province': '江苏省', 'city': '南京市', 'area': '建邺区', 'street_id': '8894c284059bb65cc72ba14d', 'detail': 1, 'uid': '8894c284059bb65cc72ba14d', 'detail_info': {'tag': '交通设施;停车场', 'type': 'life', 'detail_url': 'http://api.map.baidu.com/place/detail?uid=8894c284059bb65cc72ba14d&output=html&source=placeapi_v2', 'image_num': '1', 'children': [], 'lat': 32.00764466033997, 'lng': 118.70333239252456}}"
"{'name': '文化广场-停车场', 'location': {'lat': 32.00892625118807, 'lng': 118.69632002026539}, 'address': '江堤路与洲秦路交叉口西北100米', 'province': '江苏省', 'city': '南京市', 'area': '建邺区', 'street_id': 'c8a4d3afcace24641ef74db4', 'detail': 1, 'uid': 'c8a4d3afcace24641ef74db4', 'detail_info': {'tag': '交通设施;停车场', 'type': 'life', 'detail_url': 'http://api.map.baidu.com/place/detail?uid=c8a4d3afcace24641ef74db4&output=html&source=placeapi_v2', 'overall_rating': '0.0', 'image_num': '1', 'comment_num': '0', 'children': [], 'lat': 32.00892625118807, 'lng': 118.69632002026539}}"
"{'name': '停车场(棉花堤路)', 'location': {'lat': 32.00861757087849, 'lng': 118.70103394159962}, 'address': '扬子江大道266号南京澳洋健康管理中心', 'province': '江苏省', 'city': '南京市', 'area': '建邺区', 'detail': 1, 'uid': '0c8ecdc44931f762a2d23062', 'detail_info': {'tag': '交通设施;停车场', 'type': 'life', 'detail_url': 'http://api.map.baidu.com/place/detail?uid=0c8ecdc44931f762a2d23062&output=html&source=placeapi_v2', 'image_num': '1', 'children': [], 'lat': 32.00861757087849, 'lng': 118.70103394159962}}"
"{'name': '滨江公园-停车场', 'location': {'lat': 32.01111897442726, 'lng': 118.70225182101771}, 'address': '南京市建邺区扬子江大道228号滨江公园内', 'province': '江苏省', 'city': '南京市', 'area': '建邺区', 'street_id': '3e03df33b13d84f83617dc8b', 'detail': 1, 'uid': '3e03df33b13d84f83617dc8b', 'detail_info': {'tag': '交通设施;停车场', 'type': 'life', 'detail_url': 'http://api.map.baidu.com/place/detail?uid=3e03df33b13d84f83617dc8b&output=html&source=placeapi_v2', 'price': '免费', 'image_num': '1', 'children': [], 'lat': 32.01111897442726, 'lng': 118.70225182101771}}"
"{'name': '金陵江滨酒店-4号停车场', 'location': {'lat': 32.01474594041748, 'lng': 118.70301716905516}, 'address': '太阳宫路东50米', 'province': '江苏省', 'city': '南京市', 'area': '建邺区', 'street_id': '4e0d0d21821a5acba2a93474', 'detail': 1, 'uid': '4e0d0d21821a5acba2a93474', 'detail_info': {'tag': '交通设施;停车场', 'type': 'life', 'detail_url': 'http://api.map.baidu.com/place/detail?uid=4e0d0d21821a5acba2a93474&output=html&source=placeapi_v2', 'image_num': '1', 'children': [], 'lat': 32.01474594041748, 'lng': 118.70301716905516}}"
"{'name': '环岛东路中', 'location': {'lat': 32.014587162922574, 'lng': 118.69207282596385}, 'address': 'B5路', 'province': '江苏省', 'city': '南京市', 'area': '建邺区', 'detail': 0, 'uid': '3e2ee523bb7b5e05bd484201', 'detail_info': {'tag': '公交车站', 'children': [], 'lat': 32.014587162922574, 'lng': 118.69207282596385}}"
"{'name': '福溪温泉地面停车场', 'location': {'lat': 32.00596137775633, 'lng': 118.70305594418457}, 'address': '南京市建邺区滨江公园万景园路9号(近绿博园)水泊云天温泉会所内', 'province': '江苏省', 'city': '南京市', 'area': '建邺区', 'street_id': '7f8327e964546bfbc26c1416', 'detail': 1, 'uid': '7f8327e964546bfbc26c1416', 'detail_info': {'tag': '交通设施;停车场', 'navi_location': {'lng': 118.71476608018, 'lat': 32.009977852621}, 'type': 'life', 'detail_url': 'http://api.map.baidu.com/place/detail?uid=7f8327e964546bfbc26c1416&output=html&source=placeapi_v2', 'overall_rating': '0.0', 'image_num': '1', 'children': [], 'lat': 32.00596137775633, 'lng': 118.70305594418457}}"
"{'name': '滨江公园停车场-出入口', 'location': {'lat': 32.01428059270291, 'lng': 118.70271232134483}, 'address': '南京市建邺区扬子江大道288号', 'province': '江苏省', 'city': '南京市', 'area': '建邺区', 'street_id': 'b6e4c97a242dd07c6fa3ccc5', 'detail': 1, 'uid': 'b6e4c97a242dd07c6fa3ccc5', 'detail_info': {'tag': '出入口;停车场出入口', 'type': 'life', 'detail_url': 'http://api.map.baidu.com/place/detail?uid=b6e4c97a242dd07c6fa3ccc5&output=html&source=placeapi_v2', 'image_num': '1', 'children': [], 'lat': 32.01428059270291, 'lng': 118.70271232134483}}"
"{'name': '洲秦路-路侧停车位', 'location': {'lat': 32.0088187209957, 'lng': 118.6960249042282}, 'address': '南京市建邺区洲秦路与民安路交叉路口往南约100米(江心洲市民广场西侧)', 'province': '江苏省', 'city': '南京市', 'area': '建邺区', 'detail': 1, 'uid': 'b4f3f7a81f56820b138824a5', 'detail_info': {'tag': '交通设施;路侧停车位', 'type': 'life', 'detail_url': 'http://api.map.baidu.com/place/detail?uid=b4f3f7a81f56820b138824a5&output=html&source=placeapi_v2', 'image_num': '1', 'children': [], 'lat': 32.0088187209957, 'lng': 118.6960249042282}}"
"{'name': '滨江公园-停车场', 'location': {'lat': 32.00782616622043, 'lng': 118.70289535470971}, 'address': '南京市建邺区扬子江大道228号滨江公园内', 'province': '江苏省', 'city': '南京市', 'area': '建邺区', 'street_id': 'f1b6d43f61db7fb12fb96de7', 'detail': 1, 'uid': 'f1b6d43f61db7fb12fb96de7', 'detail_info': {'tag': '交通设施;停车场', 'type': 'life', 'detail_url': 'http://api.map.baidu.com/place/detail?uid=f1b6d43f61db7fb12fb96de7&output=html&source=placeapi_v2', 'image_num': '1', 'children': [], 'lat': 32.00782616622043, 'lng': 118.70289535470971}}"
"{'name': '停车场', 'location': {'lat': 32.01642489159886, 'lng': 118.70547424409682}, 'address': '扬子江大道228号', 'province': '江苏省', 'city': '南京市', 'area': '建邺区', 'detail': 1, 'uid': '1d3fab87d786398ccac3db99', 'detail_info': {'tag': '交通设施;停车场', 'type': 'life', 'detail_url': 'http://api.map.baidu.com/place/detail?uid=1d3fab87d786398ccac3db99&output=html&source=placeapi_v2', 'image_num': '1', 'children': [], 'lat': 32.01642489159886, 'lng': 118.70547424409682}}"
"{'name': '洲秦路-路侧停车位', 'location': {'lat': 32.00882599188204, 'lng': 118.69610837061897}, 'address': '南京市建邺区洲秦路与民安路交叉路口往南约100米(江心洲市民广场西侧)', 'province': '江苏省', 'city': '南京市', 'area': '建邺区', 'detail': 1, 'uid': 'ddb19b2187b4886fc16c1408', 'detail_info': {'tag': '交通设施;路侧停车位', 'type': 'life', 'detail_url': 'http://api.map.baidu.com/place/detail?uid=ddb19b2187b4886fc16c1408&output=html&source=placeapi_v2', 'image_num': '1', 'children': [], 'lat': 32.00882599188204, 'lng': 118.69610837061897}}"
"{'name': '万景园路-路侧停车位', 'location': {'lat': 32.01267827007857, 'lng': 118.70519395315948}, 'address': '南京市建邺区万景园路与奥体大街交叉路口东北侧(南京金陵江滨国际会议中心酒店东侧)', 'province': '江苏省', 'city': '南京市', 'area': '建邺区', 'detail': 1, 'uid': 'bee2af5547c777f8c17da213', 'detail_info': {'tag': '交通设施;路侧停车位', 'type': 'life', 'detail_url': 'http://api.map.baidu.com/place/detail?uid=bee2af5547c777f8c17da213&output=html&source=placeapi_v2', 'image_num': '1', 'children': [], 'lat': 32.01267827007857, 'lng': 118.70519395315948}}"
"{'name': '南京长江汽渡东南岸', 'location': {'lat': 32.00689509643604, 'lng': 118.70044167934496}, 'address': '棉花堤路附近', 'province': '江苏省', 'city': '南京市', 'area': '建邺区', 'street_id': '4d86e61a80aa85a1ede4a5a1', 'detail': 1, 'uid': '4d86e61a80aa85a1ede4a5a1', 'detail_info': {'tag': '道路', 'type': 'life', 'detail_url': 'http://api.map.baidu.com/place/detail?uid=4d86e61a80aa85a1ede4a5a1&output=html&source=placeapi_v2', 'image_num': '1', 'children': [], 'lat': 32.00689509643604, 'lng': 118.70044167934496}}"
"{'name': '碧瑶花园二期-地下停车场', 'location': {'lat': 32.00630959571101, 'lng': 118.70784712670095}, 'address': '乐山路199号', 'province': '江苏省', 'city': '南京市', 'area': '建邺区', 'street_id': '76c2f052060ff85f465726c7', 'detail': 1, 'uid': '76c2f052060ff85f465726c7', 'detail_info': {'tag': '交通设施;停车场', 'type': 'life', 'detail_url': 'http://api.map.baidu.com/place/detail?uid=76c2f052060ff85f465726c7&output=html&source=placeapi_v2', 'image_num': '1', 'children': [], 'lat': 32.00630959571101, 'lng': 118.70784712670095}}"
"{'name': '水泊云天A座地上停车场-出口', 'location': {'lat': 32.00677986962929, 'lng': 118.70277996693642}, 'address': '扬子江大道266号', 'province': '江苏省', 'city': '南京市', 'area': '建邺区', 'street_id': '35420b9f61fb83ef2e47331a', 'detail': 1, 'uid': '35420b9f61fb83ef2e47331a', 'detail_info': {'tag': '出入口;停车场出入口', 'type': 'life', 'detail_url': 'http://api.map.baidu.com/place/detail?uid=35420b9f61fb83ef2e47331a&output=html&source=placeapi_v2', 'image_num': '1', 'children': [], 'lat': 32.00677986962929, 'lng': 118.70277996693642}}"
"{'name': '南京澳洋健康管理中心停车场-出入口', 'location': {'lat': 32.0082266818317, 'lng': 118.70286063575169}, 'address': '扬子江大道266号', 'province': '江苏省', 'city': '南京市', 'area': '建邺区', 'street_id': '54a12b74598946f5b21e360b', 'detail': 1, 'uid': '54a12b74598946f5b21e360b', 'detail_info': {'tag': '出入口;停车场出入口', 'type': 'life', 'detail_url': 'http://api.map.baidu.com/place/detail?uid=54a12b74598946f5b21e360b&output=html&source=placeapi_v2', 'image_num': '1', 'children': [], 'lat': 32.0082266818317, 'lng': 118.70286063575169}}"
"{'name': '棉花堤渡口自行车租赁点', 'location': {'lat': 32.00845404646596, 'lng': 118.70076870309046}, 'address': '江苏省南京市建邺区兴隆街道滨江公园棉花堤渡口', 'province': '江苏省', 'city': '南京市', 'area': '建邺区', 'street_id': '615f844783f8f4f32ce67bfa', 'detail': 1, 'uid': '615f844783f8f4f32ce67bfa', 'detail_info': {'tag': '交通设施;其他', 'navi_location': {'lng': 118.71245955052, 'lat': 32.012522464109}, 'type': 'life', 'detail_url': 'http://api.map.baidu.com/place/detail?uid=615f844783f8f4f32ce67bfa&output=html&source=placeapi_v2', 'overall_rating': '0.0', 'image_num': '1', 'comment_num': '0', 'children': [], 'lat': 32.00845404646596, 'lng': 118.70076870309046}}"
"{'name': '南京澳洋健康管理中心停车场', 'location': {'lat': 32.00802122146887, 'lng': 118.70306921019373}, 'address': '扬子江大道266号南京澳洋健康管理中心', 'province': '江苏省', 'city': '南京市', 'area': '建邺区', 'detail': 1, 'uid': 'da7b320c5623634ea3acc4b2', 'detail_info': {'tag': '交通设施;停车场', 'type': 'life', 'detail_url': 'http://api.map.baidu.com/place/detail?uid=da7b320c5623634ea3acc4b2&output=html&source=placeapi_v2', 'image_num': '1', 'children': [], 'lat': 32.00802122146887, 'lng': 118.70306921019373}}"
"{'name': '景荟自助餐厅-停车场', 'location': {'lat': 32.01340229648682, 'lng': 118.70432366990768}, 'address': '扬子江大道260号', 'province': '江苏省', 'city': '南京市', 'area': '建邺区', 'street_id': '36dae9b70d9288371b11d58d', 'detail': 1, 'uid': '36dae9b70d9288371b11d58d', 'detail_info': {'tag': '交通设施;停车场', 'type': 'life', 'detail_url': 'http://api.map.baidu.com/place/detail?uid=36dae9b70d9288371b11d58d&output=html&source=placeapi_v2', 'price': '免费', 'overall_rating': '4.0', 'image_num': '1', 'comment_num': '1', 'children': [], 'lat': 32.01340229648682, 'lng': 118.70432366990768}}"
"{'name': '停车场', 'location': {'lat': 32.010018672107414, 'lng': 118.69472219815337}, 'address': '南京市建邺区洲泰路与民安路交叉路口西南侧(南京市公安局建邺分局江心洲派出所西侧约50米)', 'province': '江苏省', 'city': '南京市', 'area': '建邺区', 'street_id': '84e05ae9d8e05001df1e52b6', 'detail': 1, 'uid': '84e05ae9d8e05001df1e52b6', 'detail_info': {'tag': '交通设施;停车场', 'type': 'life', 'detail_url': 'http://api.map.baidu.com/place/detail?uid=84e05ae9d8e05001df1e52b6&output=html&source=placeapi_v2', 'image_num': '1', 'children': [], 'lat': 32.010018672107414, 'lng': 118.69472219815337}}"
"{'name': '扬子江大道-路侧停车位', 'location': {'lat': 32.006372917970296, 'lng': 118.70307987162886}, 'address': '江苏省南京市建邺区扬子江大道266号-a幢附近', 'province': '江苏省', 'city': '南京市', 'area': '建邺区', 'detail': 1, 'uid': 'c5941e0af636409883a00c7f', 'detail_info': {'tag': '交通设施;路侧停车位', 'type': 'life', 'detail_url': 'http://api.map.baidu.com/place/detail?uid=c5941e0af636409883a00c7f&output=html&source=placeapi_v2', 'image_num': '1', 'children': [], 'lat': 32.006372917970296, 'lng': 118.70307987162886}}"
"{'name': '停车场', 'location': {'lat': 32.0093632607795, 'lng': 118.69578645820974}, 'address': '民安路与江堤路交叉口西南100米', 'province': '江苏省', 'city': '南京市', 'area': '建邺区', 'detail': 1, 'uid': '6052e4ab984fbde551e5c568', 'detail_info': {'tag': '交通设施;停车场', 'type': 'life', 'detail_url': 'http://api.map.baidu.com/place/detail?uid=6052e4ab984fbde551e5c568&output=html&source=placeapi_v2', 'image_num': '1', 'children': [], 'lat': 32.0093632607795, 'lng': 118.69578645820974}}"
"{'name': '停车场', 'location': {'lat': 32.01225587500204, 'lng': 118.69040190297967}, 'address': '扬子江大道268号', 'province': '江苏省', 'city': '南京市', 'area': '建邺区', 'street_id': '3af67ad3bb4463b559bbbc49', 'detail': 1, 'uid': '3af67ad3bb4463b559bbbc49', 'detail_info': {'tag': '交通设施;停车场', 'navi_location': {'lng': 118.70189450756, 'lat': 32.016275192118}, 'type': 'life', 'detail_url': 'http://api.map.baidu.com/place/detail?uid=3af67ad3bb4463b559bbbc49&output=html&source=placeapi_v2', 'overall_rating': '0.0', 'image_num': '1', 'children': [], 'lat': 32.01225587500204, 'lng': 118.69040190297967}}"
"{'name': '中国石化(南京上新河便利加油站)', 'location': {'lat': 32.022164201425056, 'lng': 118.70815888403656}, 'address': '江苏省南京市建邺区扬子江大道', 'province': '江苏省', 'city': '南京市', 'area': '建邺区', 'street_id': '53fac2df7bfa57afd7851fa3', 'detail': 1, 'uid': '53fac2df7bfa57afd7851fa3', 'detail_info': {'tag': '交通设施;加油加气站', 'navi_location': {'lng': 118.71955958031, 'lat': 32.025885661839}, 'type': 'life', 'detail_url': 'http://api.map.baidu.com/place/detail?uid=53fac2df7bfa57afd7851fa3&output=html&source=placeapi_v2', 'overall_rating': '4.4', 'image_num': '17', 'comment_num': '12', 'children': [], 'lat': 32.022164201425056, 'lng': 118.70815888403656}}"
"{'name': '绿洲苑北', 'location': {'lat': 32.025669806563656, 'lng': 118.69357811681675}, 'address': '486路', 'province': '江苏省', 'city': '南京市', 'area': '建邺区', 'detail': 0, 'uid': '6edc865f8cf39e79cac3db86', 'detail_info': {'tag': '公交车站', 'children': [], 'lat': 32.025669806563656, 'lng': 118.69357811681675}}"
"{'name': '芳华苑北', 'location': {'lat': 32.02695261375523, 'lng': 118.69168543932614}, 'address': '486路;552路', 'province': '江苏省', 'city': '南京市', 'area': '建邺区', 'detail': 0, 'uid': '70c4cea1b993b3d59b68b4a2', 'detail_info': {'tag': '公交车站', 'children': [], 'lat': 32.02695261375523, 'lng': 118.69168543932614}}"
"{'name': '南京中国绿化博览园-停车场', 'location': {'lat': 32.019870830447665, 'lng': 118.70526820405763}, 'address': '南京市建邺区扬子江大道228号滨江公园南京中国绿化博览园', 'province': '江苏省', 'city': '南京市', 'area': '建邺区', 'street_id': '66db20aa5ec343871d58007b', 'detail': 1, 'uid': '66db20aa5ec343871d58007b', 'detail_info': {'tag': '交通设施;停车场', 'type': 'life', 'detail_url': 'http://api.map.baidu.com/place/detail?uid=66db20aa5ec343871d58007b&output=html&source=placeapi_v2', 'image_num': '1', 'children': [], 'lat': 32.019870830447665, 'lng': 118.70526820405763}}"
"{'name': '南京中国绿化博览园停车场(太阳宫路)', 'location': {'lat': 32.019019912742785, 'lng': 118.70256770341922}, 'address': '江苏省南京市建邺区扬子江大道288号', 'province': '江苏省', 'city': '南京市', 'area': '建邺区', 'street_id': '3d38e950867574c6eaf85372', 'detail': 1, 'uid': 'ee5f2918b6b460c4f5c59c04', 'detail_info': {'tag': '交通设施;停车场', 'type': 'life', 'detail_url': 'http://api.map.baidu.com/place/detail?uid=ee5f2918b6b460c4f5c59c04&output=html&source=placeapi_v2', 'overall_rating': '3.0', 'image_num': '1', 'comment_num': '1', 'children': [], 'lat': 32.019019912742785, 'lng': 118.70256770341922}}"
"{'name': '滨江花园酒店-停车场', 'location': {'lat': 32.022094885549876, 'lng': 118.70680975826181}, 'address': '江苏省南京市建邺区扬子江大道218号', 'province': '江苏省', 'city': '南京市', 'area': '建邺区', 'street_id': '59a45b65438dd421081cc79e', 'detail': 1, 'uid': 'b5f45b638cfb1d66ae31e5ec', 'detail_info': {'tag': '交通设施;停车场', 'type': 'life', 'detail_url': 'http://api.map.baidu.com/place/detail?uid=b5f45b638cfb1d66ae31e5ec&output=html&source=placeapi_v2', 'image_num': '1', 'children': [], 'lat': 32.022094885549876, 'lng': 118.70680975826181}}"
"{'name': '洲岛家园绿洲苑-停车场', 'location': {'lat': 32.02538294548419, 'lng': 118.69322746984808}, 'address': '永定街与红星街交叉口西150米', 'province': '江苏省', 'city': '南京市', 'area': '建邺区', 'street_id': 'cbf537eb9654750c0bf5ebc2', 'detail': 1, 'uid': 'cbf537eb9654750c0bf5ebc2', 'detail_info': {'tag': '交通设施;停车场', 'navi_location': {'lng': 118.70521002294, 'lat': 32.02963644674}, 'type': 'life', 'detail_url': 'http://api.map.baidu.com/place/detail?uid=cbf537eb9654750c0bf5ebc2&output=html&source=placeapi_v2', 'image_num': '1', 'children': [], 'lat': 32.02538294548419, 'lng': 118.69322746984808}}"
"{'name': '中新大道·红星街', 'location': {'lat': 32.02695843801145, 'lng': 118.69311094524313}, 'address': '552路', 'province': '江苏省', 'city': '南京市', 'area': '建邺区', 'detail': 0, 'uid': '64dcc470b0cc55ba4bcc4a4e', 'detail_info': {'tag': '公交车站', 'children': [], 'lat': 32.02695843801145, 'lng': 118.69311094524313}}"
"{'name': '洲岛家园芳华苑-地下停车场', 'location': {'lat': 32.02677562447485, 'lng': 118.69152949332344}, 'address': '中新大道与红星街交叉口西北100米', 'province': '江苏省', 'city': '南京市', 'area': '建邺区', 'detail': 1, 'uid': 'e71b5b7a4697bde2ad080fb4', 'detail_info': {'tag': '交通设施;停车场', 'type': 'life', 'detail_url': 'http://api.map.baidu.com/place/detail?uid=e71b5b7a4697bde2ad080fb4&output=html&source=placeapi_v2', 'children': [], 'lat': 32.02677562447485, 'lng': 118.69152949332344}}"
"{'name': '洲岛家园芳华苑-停车场', 'location': {'lat': 32.024835699878764, 'lng': 118.68989132133892}, 'address': '南京市建邺区中新大道西150米', 'province': '江苏省', 'city': '南京市', 'area': '建邺区', 'detail': 1, 'uid': '77de8d048b5bc49240e1922a', 'detail_info': {'tag': '交通设施;停车场', 'navi_location': {'lng': 118.70324191821, 'lat': 32.030865000144}, 'type': 'life', 'detail_url': 'http://api.map.baidu.com/place/detail?uid=77de8d048b5bc49240e1922a&output=html&source=placeapi_v2', 'children': [], 'lat': 32.024835699878764, 'lng': 118.68989132133892}}"
"{'name': '南京中国绿化博览园-停靠点', 'location': {'lat': 32.02453250578284, 'lng': 118.70793180674195}, 'address': '扬子江大道228号滨江公园南京中国绿化博览园内', 'province': '江苏省', 'city': '南京市', 'area': '建邺区', 'street_id': 'fb4d38b9c47a92301c3894ce', 'detail': 1, 'uid': 'fb4d38b9c47a92301c3894ce', 'detail_info': {'tag': '出入口;门', 'type': 'life', 'detail_url': 'http://api.map.baidu.com/place/detail?uid=fb4d38b9c47a92301c3894ce&output=html&source=placeapi_v2', 'image_num': '1', 'children': [], 'lat': 32.02453250578284, 'lng': 118.70793180674195}}"
"{'name': '胜利街·中新大道', 'location': {'lat': 32.03013951325773, 'lng': 118.69432375031238}, 'address': '486路', 'province': '江苏省', 'city': '南京市', 'area': '建邺区', 'detail': 0, 'uid': 'c2ad7583b4da1a973b221c49', 'detail_info': {'tag': '公交车站', 'children': [], 'lat': 32.03013951325773, 'lng': 118.69432375031238}}"
"{'name': '洲岛家园-停车场', 'location': {'lat': 32.025970975258225, 'lng': 118.69058854576014}, 'address': '南京市建邺区中新大道西150米', 'province': '江苏省', 'city': '南京市', 'area': '建邺区', 'street_id': '64c5d6c9f3fe6ce379b55c63', 'detail': 1, 'uid': '64c5d6c9f3fe6ce379b55c63', 'detail_info': {'tag': '交通设施;停车场', 'navi_location': {'lng': 118.70325880007, 'lat': 32.030887862948}, 'type': 'life', 'detail_url': 'http://api.map.baidu.com/place/detail?uid=64c5d6c9f3fe6ce379b55c63&output=html&source=placeapi_v2', 'children': [], 'lat': 32.025970975258225, 'lng': 118.69058854576014}}"
"{'name': '南京中国绿化博览园-停车场', 'location': {'lat': 32.02398410896437, 'lng': 118.70646680601503}, 'address': '金丝柳路与银杏路交叉口北200米', 'province': '江苏省', 'city': '南京市', 'area': '建邺区', 'detail': 1, 'uid': '9d7dd71805c80a616fc02c00', 'detail_info': {'tag': '交通设施;停车场', 'type': 'life', 'detail_url': 'http://api.map.baidu.com/place/detail?uid=9d7dd71805c80a616fc02c00&output=html&source=placeapi_v2', 'image_num': '1', 'children': [], 'lat': 32.02398410896437, 'lng': 118.70646680601503}}"
"{'name': '南京中国绿化博览园-入口停车场', 'location': {'lat': 32.019688513588136, 'lng': 118.70282962865161}, 'address': '南京市建邺区扬子江大道88-2号', 'province': '江苏省', 'city': '南京市', 'area': '建邺区', 'street_id': '4875def1f7f37598abf7293b', 'detail': 1, 'uid': '4875def1f7f37598abf7293b', 'detail_info': {'tag': '交通设施;停车场', 'navi_location': {'lng': 118.71428805768, 'lat': 32.0228665512}, 'type': 'life', 'detail_url': 'http://api.map.baidu.com/place/detail?uid=4875def1f7f37598abf7293b&output=html&source=placeapi_v2', 'overall_rating': '3.0', 'image_num': '1', 'comment_num': '1', 'children': [], 'lat': 32.019688513588136, 'lng': 118.70282962865161}}"
"{'name': '洲岛家园绿洲苑停车场-出入口', 'location': {'lat': 32.025575622116655, 'lng': 118.69356526693429}, 'address': '江苏省南京市建邺区红星街附近', 'province': '江苏省', 'city': '南京市', 'area': '建邺区', 'detail': 1, 'uid': 'ce6e15a2cf668732b05c6a47', 'detail_info': {'tag': '出入口;停车场出入口', 'type': 'life', 'detail_url': 'http://api.map.baidu.com/place/detail?uid=ce6e15a2cf668732b05c6a47&output=html&source=placeapi_v2', 'image_num': '1', 'children': [], 'lat': 32.025575622116655, 'lng': 118.69356526693429}}"
"{'name': '洲岛家园绿洲苑停车场-出口', 'location': {'lat': 32.023894618356756, 'lng': 118.69357343296271}, 'address': '洲岛家园绿洲苑', 'province': '江苏省', 'city': '南京市', 'area': '建邺区', 'detail': 1, 'uid': 'a8d241e0d80211bf583ac874', 'detail_info': {'tag': '出入口;停车场出入口', 'type': 'life', 'detail_url': 'http://api.map.baidu.com/place/detail?uid=a8d241e0d80211bf583ac874&output=html&source=placeapi_v2', 'image_num': '1', 'children': [], 'lat': 32.023894618356756, 'lng': 118.69357343296271}}"
"{'name': '洲岛家园绿洲苑停车场-入口', 'location': {'lat': 32.02366424606175, 'lng': 118.6934036267737}, 'address': '江苏省南京市建邺区林荫路西150米', 'province': '江苏省', 'city': '南京市', 'area': '建邺区', 'detail': 1, 'uid': '306657889e7839c6047ce80b', 'detail_info': {'tag': '出入口;停车场出入口', 'type': 'life', 'detail_url': 'http://api.map.baidu.com/place/detail?uid=306657889e7839c6047ce80b&output=html&source=placeapi_v2', 'image_num': '1', 'children': [], 'lat': 32.02366424606175, 'lng': 118.6934036267737}}"
"{'name': '上新河(轮渡站)', 'location': {'lat': 32.02998704714891, 'lng': 118.70661797842861}, 'address': '南京市建邺区内环南线(南京中国绿化博览园北侧)', 'province': '江苏省', 'city': '南京市', 'area': '建邺区', 'street_id': '379c3be09e0d6976f32d83f8', 'detail': 1, 'uid': '379c3be09e0d6976f32d83f8', 'detail_info': {'tag': '交通设施;港口', 'type': 'life', 'detail_url': 'http://api.map.baidu.com/place/detail?uid=379c3be09e0d6976f32d83f8&output=html&source=placeapi_v2', 'image_num': '1', 'children': [], 'lat': 32.02998704714891, 'lng': 118.70661797842861}}"
"{'name': '胜利街与中新大道交叉口', 'location': {'lat': 32.02968346328603, 'lng': 118.6950098826474}, 'address': '江苏省南京市建邺区', 'province': '江苏省', 'city': '南京市', 'area': '建邺区', 'detail': 1, 'uid': 'be2626a0f428aef76d20b92a', 'detail_info': {'tag': '道路;路口', 'type': 'life', 'detail_url': 'http://api.map.baidu.com/place/detail?uid=be2626a0f428aef76d20b92a&output=html&source=placeapi_v2', 'image_num': '1', 'children': [], 'lat': 32.02968346328603, 'lng': 118.6950098826474}}"
"{'name': '青奥办停车场', 'location': {'lat': 32.023816509756486, 'lng': 118.70735606550139}, 'address': '扬子江大道228号滨江公园南京绿化博览园附近', 'province': '江苏省', 'city': '南京市', 'area': '建邺区', 'street_id': 'ebe79d47e66affe049fc8dd3', 'detail': 1, 'uid': 'ebe79d47e66affe049fc8dd3', 'detail_info': {'tag': '交通设施;停车场', 'type': 'life', 'detail_url': 'http://api.map.baidu.com/place/detail?uid=ebe79d47e66affe049fc8dd3&output=html&source=placeapi_v2', 'image_num': '1', 'children': [], 'lat': 32.023816509756486, 'lng': 118.70735606550139}}"
"{'name': '观光小火车地铁广场停车点', 'location': {'lat': 32.02729232999403, 'lng': 118.70779558506648}, 'address': '南京市建邺区扬子江大道228号滨江公园南京中国绿化博览园内', 'province': '江苏省', 'city': '南京市', 'area': '建邺区', 'street_id': 'e3ceaaa296fc90a0fda778bc', 'detail': 1, 'uid': 'e3ceaaa296fc90a0fda778bc', 'detail_info': {'tag': '旅游景点;景点', 'type': 'scope', 'detail_url': 'http://api.map.baidu.com/place/detail?uid=e3ceaaa296fc90a0fda778bc&output=html&source=placeapi_v2', 'overall_rating': '0.0', 'children': [], 'lat': 32.02729232999403, 'lng': 118.70779558506648}}"
"{'name': '红星桥', 'location': {'lat': 32.02167279063289, 'lng': 118.69338400874095}, 'address': '南京市建邺区林荫路与中新大道交叉路口往西南约100米(洲岛家园-绿洲苑东南侧约100米)', 'province': '江苏省', 'city': '南京市', 'area': '建邺区', 'street_id': '161a0ed2c7262a505dd4fead', 'detail': 1, 'uid': '161a0ed2c7262a505dd4fead', 'detail_info': {'tag': '交通设施;桥', 'type': 'life', 'detail_url': 'http://api.map.baidu.com/place/detail?uid=161a0ed2c7262a505dd4fead&output=html&source=placeapi_v2', 'image_num': '1', 'children': [], 'lat': 32.02167279063289, 'lng': 118.69338400874095}}"
"{'name': '残疾人专用停车位', 'location': {'lat': 32.018812833787045, 'lng': 118.70256481620864}, 'address': '南京市建邺区扬子江大道228号滨江公园内', 'province': '江苏省', 'city': '南京市', 'area': '建邺区', 'street_id': 'ce7918d4aedf30814557266f', 'detail': 1, 'uid': 'ce7918d4aedf30814557266f', 'detail_info': {'tag': '交通设施;普通停车位', 'type': 'life', 'detail_url': 'http://api.map.baidu.com/place/detail?uid=ce7918d4aedf30814557266f&output=html&source=placeapi_v2', 'image_num': '1', 'children': [], 'lat': 32.018812833787045, 'lng': 118.70256481620864}}"
"{'name': '洲岛家园绿洲苑-停车场', 'location': {'lat': 32.024628350492435, 'lng': 118.6933333807453}, 'address': '永定街与红星街交叉口西150米', 'province': '江苏省', 'city': '南京市', 'area': '建邺区', 'detail': 1, 'uid': '095947866f323306b45f1ece', 'detail_info': {'tag': '交通设施;停车场', 'type': 'life', 'detail_url': 'http://api.map.baidu.com/place/detail?uid=095947866f323306b45f1ece&output=html&source=placeapi_v2', 'image_num': '1', 'children': [], 'lat': 32.024628350492435, 'lng': 118.6933333807453}}"
"{'name': '绿洲苑东', 'location': {'lat': 32.0236142634975, 'lng': 118.69376445384219}, 'address': '486路', 'province': '江苏省', 'city': '南京市', 'area': '建邺区', 'detail': 0, 'uid': 'f5bbb72db03e8179a8175a31', 'detail_info': {'tag': '公交车站', 'children': [], 'lat': 32.0236142634975, 'lng': 118.69376445384219}}"
"{'name': '生态科技岛小学', 'location': {'lat': 32.028730101512686, 'lng': 118.69132305043004}, 'address': '486路;552路', 'province': '江苏省', 'city': '南京市', 'area': '建邺区', 'detail': 0, 'uid': 'cba1fd48287428bf3ce23118', 'detail_info': {'tag': '公交车站', 'children': [], 'lat': 32.028730101512686, 'lng': 118.69132305043004}}"
"{'name': '葡园路/林荫路(路口)', 'location': {'lat': 32.03123984730117, 'lng': 118.70268704149025}, 'address': '南京市建邺区葡园路', 'province': '江苏省', 'city': '南京市', 'area': '建邺区', 'street_id': '550fd5f9f78f1b78931fc962', 'detail': 1, 'uid': '550fd5f9f78f1b78931fc962', 'detail_info': {'tag': '道路;路口', 'type': 'life', 'detail_url': 'http://api.map.baidu.com/place/detail?uid=550fd5f9f78f1b78931fc962&output=html&source=placeapi_v2', 'image_num': '1', 'children': [], 'lat': 32.03123984730117, 'lng': 118.70268704149025}}"
"{'name': '停车场(金丝柳路)', 'location': {'lat': 32.02234226813072, 'lng': 118.70694571261902}, 'address': '南京市建邺区金丝柳路与银杏路交叉口东南50米', 'province': '江苏省', 'city': '南京市', 'area': '建邺区', 'detail': 1, 'uid': 'c1e2fc2ff930b5f440e192a7', 'detail_info': {'tag': '交通设施;停车场', 'type': 'life', 'detail_url': 'http://api.map.baidu.com/place/detail?uid=c1e2fc2ff930b5f440e192a7&output=html&source=placeapi_v2', 'image_num': '1', 'children': [], 'lat': 32.02234226813072, 'lng': 118.70694571261902}}"
"{'name': '上新河滨江游船码头', 'location': {'lat': 32.02973945423795, 'lng': 118.70762359867994}, 'address': '江苏省南京市建邺区林荫路滨江公园南京中国绿化博览园', 'province': '江苏省', 'city': '南京市', 'area': '建邺区', 'street_id': 'b02b6ea24a5325e81f389425', 'detail': 1, 'uid': 'b02b6ea24a5325e81f389425', 'detail_info': {'tag': '交通设施;港口', 'type': 'life', 'detail_url': 'http://api.map.baidu.com/place/detail?uid=b02b6ea24a5325e81f389425&output=html&source=placeapi_v2', 'image_num': '1', 'children': [], 'lat': 32.02973945423795, 'lng': 118.70762359867994}}"
"{'name': '绿洲新岛西', 'location': {'lat': 32.02955431586532, 'lng': 118.69500006103016}, 'address': '486路;552路', 'province': '江苏省', 'city': '南京市', 'area': '建邺区', 'detail': 0, 'uid': '0b40e513a289416417b54b67', 'detail_info': {'tag': '公交车站', 'children': [], 'lat': 32.02955431586532, 'lng': 118.69500006103016}}"
"{'name': '青奥办车辆停放点', 'location': {'lat': 32.025654321281856, 'lng': 118.70785846397665}, 'address': '扬子江大道228', 'province': '江苏省', 'city': '南京市', 'area': '建邺区', 'street_id': '2ec907390e2323edc1f1cf5b', 'detail': 1, 'uid': '2ec907390e2323edc1f1cf5b', 'detail_info': {'tag': '交通设施;停车场', 'type': 'life', 'detail_url': 'http://api.map.baidu.com/place/detail?uid=2ec907390e2323edc1f1cf5b&output=html&source=placeapi_v2', 'image_num': '1', 'children': [], 'lat': 32.025654321281856, 'lng': 118.70785846397665}}"
"{'name': '木樨路与银杏路交叉口', 'location': {'lat': 32.02310761387551, 'lng': 118.70506271923188}, 'address': '扬子江大道228-1号南京中国绿化博览园附近', 'province': '江苏省', 'city': '南京市', 'area': '建邺区', 'detail': 1, 'uid': '145995a463bec3571df74d2c', 'detail_info': {'tag': '道路;路口', 'type': 'life', 'detail_url': 'http://api.map.baidu.com/place/detail?uid=145995a463bec3571df74d2c&output=html&source=placeapi_v2', 'image_num': '1', 'children': [], 'lat': 32.02310761387551, 'lng': 118.70506271923188}}"
"{'name': '江心洲', 'location': {'lat': 32.03449553052495, 'lng': 118.69843513895002}, 'address': '地铁10号线', 'province': '江苏省', 'city': '南京市', 'area': '建邺区', 'detail': 1, 'uid': 'f63b05750fe5b10a4251c00d', 'detail_info': {'tag': '地铁站', 'children': [], 'lat': 32.03449553052495, 'lng': 118.69843513895002}}"
"{'name': '江心洲地铁站', 'location': {'lat': 32.03361241396547, 'lng': 118.69817971824632}, 'address': '486路;552路;B5路', 'province': '江苏省', 'city': '南京市', 'area': '建邺区', 'detail': 0, 'uid': '20b6d56617a234a825d2bb92', 'detail_info': {'tag': '公交车站', 'children': [], 'lat': 32.03361241396547, 'lng': 118.69817971824632}}"
"{'name': '仁恒绿洲新岛-新岛停车场', 'location': {'lat': 32.03237655387926, 'lng': 118.69880583278179}, 'address': '中新大道与志坚路交叉口东南150米', 'province': '江苏省', 'city': '南京市', 'area': '建邺区', 'detail': 1, 'uid': '30d42fad3003151742d63e8a', 'detail_info': {'tag': '交通设施;停车场', 'type': 'life', 'detail_url': 'http://api.map.baidu.com/place/detail?uid=30d42fad3003151742d63e8a&output=html&source=placeapi_v2', 'image_num': '1', 'children': [], 'lat': 32.03237655387926, 'lng': 118.69880583278179}}"
"{'name': '长岛观澜汐园-停车场', 'location': {'lat': 32.04295312580971, 'lng': 118.70125125622913}, 'address': '东、南、西、北均至江心洲洲泰村集体土地银城长岛观澜附近', 'province': '江苏省', 'city': '南京市', 'area': '建邺区', 'detail': 1, 'uid': '0a365f82cf2bdbc69d82ea18', 'detail_info': {'tag': '交通设施;停车场', 'type': 'life', 'detail_url': 'http://api.map.baidu.com/place/detail?uid=0a365f82cf2bdbc69d82ea18&output=html&source=placeapi_v2', 'image_num': '1', 'children': [], 'lat': 32.04295312580971, 'lng': 118.70125125622913}}"
"{'name': '江心洲总站', 'location': {'lat': 32.035506130857, 'lng': 118.69664275726565}, 'address': '552路', 'province': '江苏省', 'city': '南京市', 'area': '建邺区', 'detail': 0, 'uid': '12fd676e35595e99095cb3dd', 'detail_info': {'tag': '公交车站', 'children': [], 'lat': 32.035506130857, 'lng': 118.69664275726565}}"
"{'name': '长岛观澜润园-停车场', 'location': {'lat': 32.04315705780223, 'lng': 118.70605092906702}, 'address': '南京市建邺区星影街与中新大道交叉路口往南约50米(长岛观澜润园)', 'province': '江苏省', 'city': '南京市', 'area': '建邺区', 'detail': 1, 'uid': '5780e3636b41dc8badcb6650', 'detail_info': {'tag': '交通设施;停车场', 'type': 'life', 'detail_url': 'http://api.map.baidu.com/place/detail?uid=5780e3636b41dc8badcb6650&output=html&source=placeapi_v2', 'image_num': '1', 'children': [], 'lat': 32.04315705780223, 'lng': 118.70605092906702}}"
"{'name': '特斯拉目的地充电站(仁恒.绿洲新岛)', 'location': {'lat': 32.0324494729183, 'lng': 118.6981212625674}, 'address': '江苏省南京市建邺区中新生态科技岛中新大道东侧', 'province': '江苏省', 'city': '南京市', 'area': '建邺区', 'detail': 1, 'uid': 'ea3bb11b6de6c62a2db17e6f', 'detail_info': {'tag': '交通设施;充电站', 'type': 'life', 'detail_url': 'http://api.map.baidu.com/place/detail?uid=ea3bb11b6de6c62a2db17e6f&output=html&source=placeapi_v2', 'image_num': '1', 'children': [], 'lat': 32.0324494729183, 'lng': 118.6981212625674}}"
"{'name': '市气象局', 'location': {'lat': 32.039397421708514, 'lng': 118.7024918735677}, 'address': '486路;552路', 'province': '江苏省', 'city': '南京市', 'area': '建邺区', 'detail': 0, 'uid': '7c22ecb429a1227cf4b91612', 'detail_info': {'tag': '公交车站', 'children': [], 'lat': 32.039397421708514, 'lng': 118.7024918735677}}"
"{'name': '紫荆公馆南', 'location': {'lat': 32.04235359426202, 'lng': 118.7029127817469}, 'address': '486路', 'province': '江苏省', 'city': '南京市', 'area': '建邺区', 'detail': 0, 'uid': '4ba9c8cecd9d4a3fb23c81bc', 'detail_info': {'tag': '公交车站', 'children': [], 'lat': 32.04235359426202, 'lng': 118.7029127817469}}"
"{'name': '仁恒绿洲新岛停车场-出入口', 'location': {'lat': 32.03258054278744, 'lng': 118.6980009215771}, 'address': '中新大道与志坚路交叉口东南100米', 'province': '江苏省', 'city': '南京市', 'area': '建邺区', 'detail': 1, 'uid': 'dc9b494c2d0c32124054d73b', 'detail_info': {'tag': '出入口;停车场出入口', 'type': 'life', 'detail_url': 'http://api.map.baidu.com/place/detail?uid=dc9b494c2d0c32124054d73b&output=html&source=placeapi_v2', 'image_num': '1', 'children': [], 'lat': 32.03258054278744, 'lng': 118.6980009215771}}"
"{'name': '红光桥', 'location': {'lat': 32.03821707833048, 'lng': 118.70177000484874}, 'address': '南京市建邺区中新大道与宏俊街交叉路口东北侧(南京市气象局西侧)', 'province': '江苏省', 'city': '南京市', 'area': '建邺区', 'street_id': 'cd625b8820556e9a1811d528', 'detail': 1, 'uid': 'cd625b8820556e9a1811d528', 'detail_info': {'tag': '交通设施;桥', 'type': 'life', 'detail_url': 'http://api.map.baidu.com/place/detail?uid=cd625b8820556e9a1811d528&output=html&source=placeapi_v2', 'image_num': '1', 'children': [], 'lat': 32.03821707833048, 'lng': 118.70177000484874}}"
"{'name': '长岛观澜沁园-地下停车场', 'location': {'lat': 32.04351038236345, 'lng': 118.70132613867699}, 'address': '江苏省南京市建邺区绿水街19', 'province': '江苏省', 'city': '南京市', 'area': '建邺区', 'detail': 1, 'uid': '563398cf1f028b5cb5f42fdc', 'detail_info': {'tag': '交通设施;停车场', 'type': 'life', 'detail_url': 'http://api.map.baidu.com/place/detail?uid=563398cf1f028b5cb5f42fdc&output=html&source=placeapi_v2', 'image_num': '1', 'children': [], 'lat': 32.04351038236345, 'lng': 118.70132613867699}}"
"{'name': '南京长江隧道/江堤路(路口)', 'location': {'lat': 32.04123921196299, 'lng': 118.69388989129436}, 'address': '南京市建邺区江堤路', 'province': '江苏省', 'city': '南京市', 'area': '建邺区', 'detail': 1, 'uid': 'd28bac9fa06bbf07a21de959', 'detail_info': {'tag': '道路;路口', 'type': 'life', 'detail_url': 'http://api.map.baidu.com/place/detail?uid=d28bac9fa06bbf07a21de959&output=html&source=placeapi_v2', 'image_num': '1', 'children': [], 'lat': 32.04123921196299, 'lng': 118.69388989129436}}"
"{'name': '应天大街高架/葡园路(路口)', 'location': {'lat': 32.03602623426658, 'lng': 118.70000018352512}, 'address': '南京市建邺区应天大街高架', 'province': '江苏省', 'city': '南京市', 'area': '建邺区', 'detail': 1, 'uid': '6f828e6ce54a3a336c47601e', 'detail_info': {'tag': '道路;路口', 'type': 'life', 'detail_url': 'http://api.map.baidu.com/place/detail?uid=6f828e6ce54a3a336c47601e&output=html&source=placeapi_v2', 'image_num': '1', 'children': [], 'lat': 32.03602623426658, 'lng': 118.70000018352512}}"
"{'name': '夹江大桥/应天大街高架(路口)', 'location': {'lat': 32.03522720865495, 'lng': 118.70136391959576}, 'address': '南京市建邺区应天大街高架', 'province': '江苏省', 'city': '南京市', 'area': '建邺区', 'street_id': '1d4a266f908d07b0b6f42fe2', 'detail': 1, 'uid': '1d4a266f908d07b0b6f42fe2', 'detail_info': {'tag': '道路;路口', 'type': 'life', 'detail_url': 'http://api.map.baidu.com/place/detail?uid=1d4a266f908d07b0b6f42fe2&output=html&source=placeapi_v2', 'image_num': '1', 'children': [], 'lat': 32.03522720865495, 'lng': 118.70136391959576}}"
"{'name': '应天大街高架/江堤路(路口)', 'location': {'lat': 32.04123921196299, 'lng': 118.69388989129436}, 'address': '南京市建邺区应天大街高架', 'province': '江苏省', 'city': '南京市', 'area': '建邺区', 'detail': 1, 'uid': 'c391c5457f09574062685884', 'detail_info': {'tag': '道路;路口', 'type': 'life', 'detail_url': 'http://api.map.baidu.com/place/detail?uid=c391c5457f09574062685884&output=html&source=placeapi_v2', 'image_num': '1', 'children': [], 'lat': 32.04123921196299, 'lng': 118.69388989129436}}"
"{'name': '夹江大桥/江堤路(路口)', 'location': {'lat': 32.033262669347906, 'lng': 118.70452375610883}, 'address': '南京市建邺区江堤路', 'province': '江苏省', 'city': '南京市', 'area': '建邺区', 'detail': 1, 'uid': 'e690a66f777b14abc4f50da2', 'detail_info': {'tag': '道路;路口', 'type': 'life', 'detail_url': 'http://api.map.baidu.com/place/detail?uid=e690a66f777b14abc4f50da2&output=html&source=placeapi_v2', 'image_num': '1', 'children': [], 'lat': 32.033262669347906, 'lng': 118.70452375610883}}"
"{'name': '长岛观澜沁园东', 'location': {'lat': 32.0437363629045, 'lng': 118.70272749430694}, 'address': '486路', 'province': '江苏省', 'city': '南京市', 'area': '建邺区', 'detail': 0, 'uid': '7db6b5908257756120022014', 'detail_info': {'tag': '公交车站', 'children': [], 'lat': 32.0437363629045, 'lng': 118.70272749430694}}"
"{'name': '升龙公园道-停车场', 'location': {'lat': 32.04448860363792, 'lng': 118.70527958382596}, 'address': '南京市建邺区升龙公园道内', 'province': '江苏省', 'city': '南京市', 'area': '建邺区', 'detail': 1, 'uid': '8c58b5a344c913ecce04efaa', 'detail_info': {'tag': '交通设施;停车场', 'type': 'life', 'detail_url': 'http://api.map.baidu.com/place/detail?uid=8c58b5a344c913ecce04efaa&output=html&source=placeapi_v2', 'image_num': '1', 'children': [], 'lat': 32.04448860363792, 'lng': 118.70527958382596}}"
"{'name': '公园道·檀园', 'location': {'lat': 32.04657059027346, 'lng': 118.70758607571429}, 'address': '486路', 'province': '江苏省', 'city': '南京市', 'area': '建邺区', 'detail': 0, 'uid': '4aec4c4f98534d956f3e1b69', 'detail_info': {'tag': '公交车站', 'children': [], 'lat': 32.04657059027346, 'lng': 118.70758607571429}}"
"{'name': '紫荆公馆北', 'location': {'lat': 32.044604576524215, 'lng': 118.70476091581133}, 'address': '486路', 'province': '江苏省', 'city': '南京市', 'area': '建邺区', 'detail': 0, 'uid': '90fde4031b0773942fb17ef6', 'detail_info': {'tag': '公交车站', 'children': [], 'lat': 32.044604576524215, 'lng': 118.70476091581133}}"
"{'name': '依威能源充电站(长岛观澜)', 'location': {'lat': 32.044391544650466, 'lng': 118.70227381541706}, 'address': '江苏省南京市建邺区星影街长岛观澜', 'province': '江苏省', 'city': '南京市', 'area': '建邺区', 'detail': 1, 'uid': 'df58dc6016d54ad2a204642f', 'detail_info': {'tag': '交通设施;充电站', 'type': 'life', 'detail_url': 'http://api.map.baidu.com/place/detail?uid=df58dc6016d54ad2a204642f&output=html&source=placeapi_v2', 'image_num': '1', 'children': [], 'lat': 32.044391544650466, 'lng': 118.70227381541706}}"
"{'name': '停车场', 'location': {'lat': 32.0463977671028, 'lng': 118.70534903510318}, 'address': '南京市建邺区星月街与思泽路交叉路口东南侧(升龙公园道)', 'province': '江苏省', 'city': '南京市', 'area': '建邺区', 'detail': 1, 'uid': 'e3883df4ea5ad5dac056acb7', 'detail_info': {'tag': '交通设施;停车场', 'type': 'life', 'detail_url': 'http://api.map.baidu.com/place/detail?uid=e3883df4ea5ad5dac056acb7&output=html&source=placeapi_v2', 'image_num': '1', 'children': [], 'lat': 32.0463977671028, 'lng': 118.70534903510318}}"
"{'name': '南京能瑞充电站(中华人民共和国南京海事)', 'location': {'lat': 32.04696163787651, 'lng': 118.69758614270245}, 'address': '江苏省南京市建邺区江心洲街道江堤路50号', 'province': '江苏省', 'city': '南京市', 'area': '建邺区', 'detail': 1, 'uid': 'dee478d328e57d443586f414', 'detail_info': {'tag': '交通设施;充电站', 'type': 'life', 'detail_url': 'http://api.map.baidu.com/place/detail?uid=dee478d328e57d443586f414&output=html&source=placeapi_v2', 'image_num': '1', 'children': [], 'lat': 32.04696163787651, 'lng': 118.69758614270245}}"
"{'name': '长岛观澜沁园-停车场', 'location': {'lat': 32.04441387379531, 'lng': 118.70217644393622}, 'address': '南京市建邺区亚鹏路与绿水街交叉路口往东北约150米(长岛观澜银城沁园)', 'province': '江苏省', 'city': '南京市', 'area': '建邺区', 'detail': 1, 'uid': '8e1900eef99ba7024c6d467c', 'detail_info': {'tag': '交通设施;停车场', 'type': 'life', 'detail_url': 'http://api.map.baidu.com/place/detail?uid=8e1900eef99ba7024c6d467c&output=html&source=placeapi_v2', 'image_num': '1', 'children': [], 'lat': 32.04441387379531, 'lng': 118.70217644393622}}"
"{'name': '滨江沙滩广场', 'location': {'lat': 32.07862640592643, 'lng': 118.69393735047197}, 'address': '698路[内圈];698路[外圈];G59路', 'province': '江苏省', 'city': '南京市', 'area': '浦口区', 'detail': 0, 'uid': '8a8ad363c538a2134054d7df', 'detail_info': {'tag': '公交车站', 'children': [], 'lat': 32.07862640592643, 'lng': 118.69393735047197}}"
"{'name': '滨江大道·平江大街', 'location': {'lat': 32.07592375043853, 'lng': 118.69059474713247}, 'address': '698路[内圈];698路[外圈];G59路', 'province': '江苏省', 'city': '南京市', 'area': '浦口区', 'detail': 0, 'uid': '6790d9fdd74e26fdc61b75e1', 'detail_info': {'tag': '公交车站', 'children': [], 'lat': 32.07592375043853, 'lng': 118.69059474713247}}"
"{'name': '滨江大道·石佛大街', 'location': {'lat': 32.07481875177638, 'lng': 118.68923624052047}, 'address': 'G59路', 'province': '江苏省', 'city': '南京市', 'area': '浦口区', 'detail': 0, 'uid': '698ce9cc09c99b1f8d77278a', 'detail_info': {'tag': '公交车站', 'children': [], 'lat': 32.07481875177638, 'lng': 118.68923624052047}}"
"{'name': '停车场', 'location': {'lat': 32.078719168538896, 'lng': 118.69440944040778}, 'address': '定山大街与滨江大道交叉口西南100米', 'province': '江苏省', 'city': '南京市', 'area': '浦口区', 'detail': 1, 'uid': '0bf4e4d839594fc0fa0cad84', 'detail_info': {'tag': '交通设施;停车场', 'detail_url': 'http://api.map.baidu.com/place/detail?uid=0bf4e4d839594fc0fa0cad84&output=html&source=placeapi_v2', 'children': [], 'lat': 32.078719168538896, 'lng': 118.69440944040778}}"
"{'name': '江北新区市民中心', 'location': {'lat': 32.08011881932967, 'lng': 118.69571361949427}, 'address': '698路[内圈];698路[外圈]', 'province': '江苏省', 'city': '南京市', 'area': '浦口区', 'detail': 0, 'uid': 'fb1409a8bbdac3a2f7e73b17', 'detail_info': {'tag': '公交车站', 'children': [], 'lat': 32.08011881932967, 'lng': 118.69571361949427}}"
"{'name': '奥体中心南门', 'location': {'lat': 32.00711028604541, 'lng': 118.7171755038176}, 'address': '133路;166路', 'province': '江苏省', 'city': '南京市', 'area': '建邺区', 'detail': 0, 'uid': '4f954315892bb6b228b97c32', 'detail_info': {'tag': '公交车站', 'children': [], 'lat': 32.00711028604541, 'lng': 118.7171755038176}}"
"{'name': '奥体东', 'location': {'lat': 32.00677875194288, 'lng': 118.72398400475146}, 'address': '地铁2号线', 'province': '江苏省', 'city': '南京市', 'area': '建邺区', 'detail': 1, 'uid': 'f55c8cd8fee6635996f08ced', 'detail_info': {'tag': '地铁站', 'children': [], 'lat': 32.00677875194288, 'lng': 118.72398400475146}}"
"{'name': '奥体中心北门', 'location': {'lat': 32.01268268142963, 'lng': 118.72481333450669}, 'address': '166路;513路;D7路', 'province': '江苏省', 'city': '南京市', 'area': '建邺区', 'detail': 0, 'uid': 'a222bab24463e73bd12dd625', 'detail_info': {'tag': '公交车站', 'children': [], 'lat': 32.01268268142963, 'lng': 118.72481333450669}}"
"{'name': '梦都大街', 'location': {'lat': 32.01762982795968, 'lng': 118.71661540710711}, 'address': '地铁10号线', 'province': '江苏省', 'city': '南京市', 'area': '建邺区', 'detail': 1, 'uid': '30be463dfecefe1d9c09f7b6', 'detail_info': {'tag': '地铁站', 'children': [], 'lat': 32.01762982795968, 'lng': 118.71661540710711}}"
"{'name': '奥体中心西门', 'location': {'lat': 32.010873151650756, 'lng': 118.71295847081792}, 'address': '7路;126路;y7路夜间', 'province': '江苏省', 'city': '南京市', 'area': '建邺区', 'detail': 0, 'uid': '8d8bbc135482c6d0fa42b27e', 'detail_info': {'tag': '公交车站', 'children': [], 'lat': 32.010873151650756, 'lng': 118.71295847081792}}"
"{'name': '奥体中心', 'location': {'lat': 32.01083868394818, 'lng': 118.71292964350026}, 'address': '地铁10号线', 'province': '江苏省', 'city': '南京市', 'area': '建邺区', 'detail': 1, 'uid': '2ddde82abbffcfa7430245f1', 'detail_info': {'tag': '地铁站', 'children': [], 'lat': 32.01083868394818, 'lng': 118.71292964350026}}"
"{'name': '南京涵月楼酒店-停车场', 'location': {'lat': 32.01001933666027, 'lng': 118.72725295047215}, 'address': '江东中路235号南京涵月楼酒店', 'province': '江苏省', 'city': '南京市', 'area': '建邺区', 'street_id': 'a4bc4f8170ffda30f33cba7f', 'detail': 1, 'uid': 'a4bc4f8170ffda30f33cba7f', 'detail_info': {'tag': '交通设施;停车场', 'navi_location': {'lng': 118.73938208556, 'lat': 32.013783565082}, 'type': 'life', 'detail_url': 'http://api.map.baidu.com/place/detail?uid=a4bc4f8170ffda30f33cba7f&output=html&source=placeapi_v2', 'overall_rating': '5.0', 'image_num': '3', 'comment_num': '1', 'children': [], 'lat': 32.01001933666027, 'lng': 118.72725295047215}}"
"{'name': '奥体中心东门', 'location': {'lat': 32.00744011800408, 'lng': 118.72400205753407}, 'address': '85路;109路;166路;D22路;有轨电车1号线', 'province': '江苏省', 'city': '南京市', 'area': '建邺区', 'detail': 0, 'uid': 'aa7f69d9b6ef91d63a04b1fe', 'detail_info': {'tag': '公交车站', 'children': [], 'lat': 32.00744011800408, 'lng': 118.72400205753407}}"
"{'name': '江苏大剧院-停车场', 'location': {'lat': 32.014686650616184, 'lng': 118.70819181414375}, 'address': '梦都大街与螺丝桥大街交叉口西南200米', 'province': '江苏省', 'city': '南京市', 'area': '建邺区', 'street_id': '1136d343b392e5bb49fd3f40', 'detail': 1, 'uid': '1136d343b392e5bb49fd3f40', 'detail_info': {'tag': '交通设施;停车场', 'navi_location': {'lng': 118.72140175788, 'lat': 32.021119697325}, 'type': 'life', 'detail_url': 'http://api.map.baidu.com/place/detail?uid=1136d343b392e5bb49fd3f40&output=html&source=placeapi_v2', 'image_num': '1', 'children': [], 'lat': 32.014686650616184, 'lng': 118.70819181414375}}"
"{'name': '中央商场河西店-地下停车场', 'location': {'lat': 32.01005316180719, 'lng': 118.72770275292986}, 'address': '江东中路237号', 'province': '江苏省', 'city': '南京市', 'area': '建邺区', 'street_id': '753543bc2e79d22a047ce88d', 'detail': 1, 'uid': '753543bc2e79d22a047ce88d', 'detail_info': {'tag': '交通设施;停车场', 'navi_location': {'lng': 118.73938809702, 'lat': 32.013783523979}, 'type': 'life', 'detail_url': 'http://api.map.baidu.com/place/detail?uid=753543bc2e79d22a047ce88d&output=html&source=placeapi_v2', 'image_num': '1', 'children': [], 'lat': 32.01005316180719, 'lng': 118.72770275292986}}"
"{'name': '南京市政务服务中心-停车场', 'location': {'lat': 32.00655329834958, 'lng': 118.72472733157123}, 'address': '江苏省南京市建邺区江东中路265号', 'province': '江苏省', 'city': '南京市', 'area': '建邺区', 'street_id': 'd1b5d47028ffb4947bf7967e', 'detail': 1, 'uid': 'd1b5d47028ffb4947bf7967e', 'detail_info': {'tag': '交通设施;停车场', 'navi_location': {'lng': 118.73652760122, 'lat': 32.009979913687}, 'type': 'life', 'detail_url': 'http://api.map.baidu.com/place/detail?uid=d1b5d47028ffb4947bf7967e&output=html&source=placeapi_v2', 'overall_rating': '4.0', 'image_num': '1', 'comment_num': '9', 'children': [], 'lat': 32.00655329834958, 'lng': 118.72472733157123}}"
"{'name': '新城大厦-停车场', 'location': {'lat': 32.007494555721415, 'lng': 118.72755789217163}, 'address': '江东中路265号', 'province': '江苏省', 'city': '南京市', 'area': '建邺区', 'street_id': '8082addcbf929f08705e807d', 'detail': 1, 'uid': '8082addcbf929f08705e807d', 'detail_info': {'tag': '交通设施;停车场', 'navi_location': {'lng': 118.73936651074, 'lat': 32.011071799332}, 'type': 'life', 'detail_url': 'http://api.map.baidu.com/place/detail?uid=8082addcbf929f08705e807d&output=html&source=placeapi_v2', 'overall_rating': '4.7', 'image_num': '0', 'comment_num': '7', 'children': [], 'lat': 32.007494555721415, 'lng': 118.72755789217163}}"
"{'name': '金陵图书馆-地上停车场', 'location': {'lat': 32.01436847280295, 'lng': 118.71349787167507}, 'address': '建邺区乐山路158号', 'province': '江苏省', 'city': '南京市', 'area': '建邺区', 'street_id': '3941789ad9c45330276e98fd', 'detail': 1, 'uid': '3941789ad9c45330276e98fd', 'detail_info': {'tag': '交通设施;停车场', 'navi_location': {'lng': 118.72609902793, 'lat': 32.018538736429}, 'type': 'life', 'detail_url': 'http://api.map.baidu.com/place/detail?uid=3941789ad9c45330276e98fd&output=html&source=placeapi_v2', 'price': '4元/首小时', 'image_num': '1', 'children': [], 'lat': 32.01436847280295, 'lng': 118.71349787167507}}"
"{'name': '江苏大剧院', 'location': {'lat': 32.012898017537985, 'lng': 118.7097600512238}, 'address': '133路;166路', 'province': '江苏省', 'city': '南京市', 'area': '建邺区', 'detail': 0, 'uid': '4005e170124a5795f8f0cb7d', 'detail_info': {'tag': '公交车站', 'children': [], 'lat': 32.012898017537985, 'lng': 118.7097600512238}}"
"{'name': '金马壹号商务酒店停车场(入口)', 'location': {'lat': 32.00886636837516, 'lng': 118.71170400222775}, 'address': '江苏省南京市建邺区奥体大街195附近', 'province': '江苏省', 'city': '南京市', 'area': '建邺区', 'street_id': '86f1b81937485e791f389441', 'detail': 1, 'uid': '86f1b81937485e791f389441', 'detail_info': {'tag': '出入口;停车场出入口', 'navi_location': {'lng': 118.72336416375, 'lat': 32.012663370904}, 'type': 'life', 'detail_url': 'http://api.map.baidu.com/place/detail?uid=86f1b81937485e791f389441&output=html&source=placeapi_v2', 'image_num': '1', 'children': [], 'lat': 32.00886636837516, 'lng': 118.71170400222775}}"
"{'name': '南京市公共资源交易中心-停车场', 'location': {'lat': 32.00810538531511, 'lng': 118.72618088938127}, 'address': '江苏省南京市建邺区江东中路265号', 'province': '江苏省', 'city': '南京市', 'area': '建邺区', 'street_id': 'c6cd6dd5abf8965c25d2bb7a', 'detail': 1, 'uid': 'c6cd6dd5abf8965c25d2bb7a', 'detail_info': {'tag': '交通设施;停车场', 'navi_location': {'lng': 118.73803163863, 'lat': 32.011966698555}, 'type': 'life', 'detail_url': 'http://api.map.baidu.com/place/detail?uid=c6cd6dd5abf8965c25d2bb7a&output=html&source=placeapi_v2', 'overall_rating': '4.8', 'image_num': '5', 'comment_num': '4', 'children': [], 'lat': 32.00810538531511, 'lng': 118.72618088938127}}"
"{'name': '南京奥体中心-停车场', 'location': {'lat': 32.006720068536815, 'lng': 118.72016771927133}, 'address': '奥体大街与巴山路交叉口东北150米', 'province': '江苏省', 'city': '南京市', 'area': '建邺区', 'street_id': '40a85e24b82af00887330486', 'detail': 1, 'uid': '40a85e24b82af00887330486', 'detail_info': {'tag': '交通设施;停车场', 'type': 'life', 'detail_url': 'http://api.map.baidu.com/place/detail?uid=40a85e24b82af00887330486&output=html&source=placeapi_v2', 'overall_rating': '4.0', 'image_num': '1', 'comment_num': '1', 'children': [], 'lat': 32.006720068536815, 'lng': 118.72016771927133}}"
"{'name': '南京奥林匹克体育中心-停车场', 'location': {'lat': 32.00743785641406, 'lng': 118.71794061533265}, 'address': '南京市建邺区江东中路222号南京奥林匹克体育中心内', 'province': '江苏省', 'city': '南京市', 'area': '建邺区', 'street_id': '4dcac17d49f824c8ae31e51d', 'detail': 1, 'uid': '4dcac17d49f824c8ae31e51d', 'detail_info': {'tag': '交通设施;停车场', 'navi_location': {'lng': 118.72947238521, 'lat': 32.011238809836}, 'type': 'life', 'detail_url': 'http://api.map.baidu.com/place/detail?uid=4dcac17d49f824c8ae31e51d&output=html&source=placeapi_v2', 'overall_rating': '0.0', 'image_num': '2', 'children': [], 'lat': 32.00743785641406, 'lng': 118.71794061533265}}"
"{'name': '江苏大剧院停车场-出入口', 'location': {'lat': 32.01703262288394, 'lng': 118.70874852703507}, 'address': '梦都大街与螺丝桥大街交叉口西南200米', 'province': '江苏省', 'city': '南京市', 'area': '建邺区', 'street_id': '1bf42f157139cc48744ff1fb', 'detail': 1, 'uid': '1bf42f157139cc48744ff1fb', 'detail_info': {'tag': '出入口;停车场出入口', 'type': 'life', 'detail_url': 'http://api.map.baidu.com/place/detail?uid=1bf42f157139cc48744ff1fb&output=html&source=placeapi_v2', 'image_num': '1', 'children': [], 'lat': 32.01703262288394, 'lng': 118.70874852703507}}"
"{'name': '南京市公共资源交易中心北门2号停车场-出入口', 'location': {'lat': 32.00816300329963, 'lng': 118.72612706040296}, 'address': '江苏省南京市建邺区江东中路265号', 'province': '江苏省', 'city': '南京市', 'area': '建邺区', 'street_id': 'c0853cafd073171430169b79', 'detail': 1, 'uid': 'c0853cafd073171430169b79', 'detail_info': {'tag': '出入口;停车场出入口', 'type': 'life', 'detail_url': 'http://api.map.baidu.com/place/detail?uid=c0853cafd073171430169b79&output=html&source=placeapi_v2', 'image_num': '1', 'children': [], 'lat': 32.00816300329963, 'lng': 118.72612706040296}}"
"{'name': '金陵图书馆', 'location': {'lat': 32.01501288294355, 'lng': 118.7152785168157}, 'address': '7路;126路;y7路夜间', 'province': '江苏省', 'city': '南京市', 'area': '建邺区', 'detail': 0, 'uid': '78c1638965c4a68ecb2915ea', 'detail_info': {'tag': '公交车站', 'children': [], 'lat': 32.01501288294355, 'lng': 118.7152785168157}}"
"{'name': '中央商场-停车场(奥体店)', 'location': {'lat': 32.00866621250553, 'lng': 118.726271678999}, 'address': '江东中路237号雨润国际广场(奥体中心)', 'province': '江苏省', 'city': '南京市', 'area': '建邺区', 'street_id': '3cf8cba1594a0cd688b988ec', 'detail': 1, 'uid': '3cf8cba1594a0cd688b988ec', 'detail_info': {'tag': '交通设施;停车场', 'navi_location': {'lng': 118.73866317705, 'lat': 32.011879497014}, 'type': 'life', 'detail_url': 'http://api.map.baidu.com/place/detail?uid=3cf8cba1594a0cd688b988ec&output=html&source=placeapi_v2', 'overall_rating': '3.3', 'image_num': '1', 'comment_num': '11', 'children': [], 'lat': 32.00866621250553, 'lng': 118.726271678999}}"
"{'name': '星程酒店-停车场', 'location': {'lat': 32.009421457492266, 'lng': 118.71151718777159}, 'address': '奥体大街199号金马壹号商务酒店', 'province': '江苏省', 'city': '南京市', 'area': '建邺区', 'street_id': '7f53f1a8392db140b13c8189', 'detail': 1, 'uid': '7f53f1a8392db140b13c8189', 'detail_info': {'tag': '交通设施;停车场', 'navi_location': {'lng': 118.72335964528, 'lat': 32.012650950065}, 'type': 'life', 'detail_url': 'http://api.map.baidu.com/place/detail?uid=7f53f1a8392db140b13c8189&output=html&source=placeapi_v2', 'overall_rating': '5.0', 'image_num': '1', 'comment_num': '1', 'children': [], 'lat': 32.009421457492266, 'lng': 118.71151718777159}}"
"{'name': '环宇融侨广场-地下停车场', 'location': {'lat': 32.006094255401024, 'lng': 118.71726781670895}, 'address': '奥体大街177号', 'province': '江苏省', 'city': '南京市', 'area': '建邺区', 'street_id': '5f0dd320a97a18532911d112', 'detail': 1, 'uid': '5f0dd320a97a18532911d112', 'detail_info': {'tag': '交通设施;停车场', 'navi_location': {'lng': 118.72873874718, 'lat': 32.009885398978}, 'type': 'life', 'detail_url': 'http://api.map.baidu.com/place/detail?uid=5f0dd320a97a18532911d112&output=html&source=placeapi_v2', 'overall_rating': '5.0', 'image_num': '1', 'comment_num': '1', 'children': [], 'lat': 32.006094255401024, 'lng': 118.71726781670895}}"
"{'name': '南京市政务服务中心-地上停车场', 'location': {'lat': 32.00650510807104, 'lng': 118.72662629458787}, 'address': '江东中路265号', 'province': '江苏省', 'city': '南京市', 'area': '建邺区', 'street_id': 'ce7b33c6ecc06f9361685868', 'detail': 1, 'uid': 'ce7b33c6ecc06f9361685868', 'detail_info': {'tag': '交通设施;停车场', 'navi_location': {'lng': 118.73775574386, 'lat': 32.009247151873}, 'type': 'life', 'detail_url': 'http://api.map.baidu.com/place/detail?uid=ce7b33c6ecc06f9361685868&output=html&source=placeapi_v2', 'image_num': '1', 'children': [], 'lat': 32.00650510807104, 'lng': 118.72662629458787}}"
"{'name': '紫鑫中华广场-停车场', 'location': {'lat': 32.014336560906685, 'lng': 118.72728649060545}, 'address': '梦都大街136号紫鑫中华广场', 'province': '江苏省', 'city': '南京市', 'area': '建邺区', 'street_id': '9cfc20f764ccca105fbe8679', 'detail': 1, 'uid': '9cfc20f764ccca105fbe8679', 'detail_info': {'tag': '交通设施;停车场', 'navi_location': {'lng': 118.73916782083, 'lat': 32.017781259545}, 'type': 'life', 'detail_url': 'http://api.map.baidu.com/place/detail?uid=9cfc20f764ccca105fbe8679&output=html&source=placeapi_v2', 'overall_rating': '0.0', 'image_num': '1', 'children': [], 'lat': 32.014336560906685, 'lng': 118.72728649060545}}"
"{'name': '南京奥林匹克体育中心体育场-南入口停车场', 'location': {'lat': 32.0090801056379, 'lng': 118.71962357039094}, 'address': '南京市建邺区江东中路222号南京奥林匹克体育中心体育场内', 'province': '江苏省', 'city': '南京市', 'area': '建邺区', 'street_id': '13a66d747489d79baeb22a39', 'detail': 1, 'uid': '13a66d747489d79baeb22a39', 'detail_info': {'tag': '交通设施;停车场', 'navi_location': {'lng': 118.73128184828, 'lat': 32.01290354332}, 'type': 'life', 'detail_url': 'http://api.map.baidu.com/place/detail?uid=13a66d747489d79baeb22a39&output=html&source=placeapi_v2', 'image_num': '0', 'children': [], 'lat': 32.0090801056379, 'lng': 118.71962357039094}}"
"{'name': '丹桂园-停车场', 'location': {'lat': 32.01761708632819, 'lng': 118.72522675039272}, 'address': '江苏省南京市建邺区燕山路149', 'province': '江苏省', 'city': '南京市', 'area': '建邺区', 'street_id': '1d41104bd6a5667de856fa61', 'detail': 1, 'uid': '1d41104bd6a5667de856fa61', 'detail_info': {'tag': '交通设施;停车场', 'navi_location': {'lng': 118.73687536555, 'lat': 32.020950683664}, 'type': 'life', 'detail_url': 'http://api.map.baidu.com/place/detail?uid=1d41104bd6a5667de856fa61&output=html&source=placeapi_v2', 'image_num': '1', 'children': [], 'lat': 32.01761708632819, 'lng': 118.72522675039272}}"
"{'name': '南京市妇女儿童活动中心-停车场', 'location': {'lat': 32.015175294006085, 'lng': 118.71411807125186}, 'address': '江苏省南京市建邺区乐山路150', 'province': '江苏省', 'city': '南京市', 'area': '建邺区', 'street_id': '1631de4d20503af9283a9fab', 'detail': 1, 'uid': '1631de4d20503af9283a9fab', 'detail_info': {'tag': '交通设施;停车场', 'navi_location': {'lng': 118.72614925129, 'lat': 32.018558919976}, 'type': 'life', 'detail_url': 'http://api.map.baidu.com/place/detail?uid=1631de4d20503af9283a9fab&output=html&source=placeapi_v2', 'overall_rating': '0.0', 'image_num': '2', 'children': [], 'lat': 32.015175294006085, 'lng': 118.71411807125186}}"
"{'name': '南京雨润国际广场地下停车场', 'location': {'lat': 32.00832634640444, 'lng': 118.72687188754031}, 'address': '江东中路235号雨润国际广场', 'province': '江苏省', 'city': '南京市', 'area': '建邺区', 'street_id': 'a037e6920c0fa48843ab9a8d', 'detail': 1, 'uid': 'a037e6920c0fa48843ab9a8d', 'detail_info': {'tag': '交通设施;停车场', 'navi_location': {'lng': 118.73868802418, 'lat': 32.011891610558}, 'type': 'life', 'detail_url': 'http://api.map.baidu.com/place/detail?uid=a037e6920c0fa48843ab9a8d&output=html&source=placeapi_v2', 'overall_rating': '3.0', 'image_num': '1', 'comment_num': '3', 'children': [], 'lat': 32.00832634640444, 'lng': 118.72687188754031}}"
"{'name': '阿里山路与富春江西街交叉口', 'location': {'lat': 32.00618643332748, 'lng': 118.71324828271284}, 'address': '南京市建邺区富春江西街', 'province': '江苏省', 'city': '南京市', 'area': '建邺区', 'street_id': 'f480342c57ccf3a29d95dea5', 'detail': 1, 'uid': 'f480342c57ccf3a29d95dea5', 'detail_info': {'tag': '道路;路口', 'type': 'life', 'detail_url': 'http://api.map.baidu.com/place/detail?uid=f480342c57ccf3a29d95dea5&output=html&source=placeapi_v2', 'image_num': '1', 'children': [], 'lat': 32.00618643332748, 'lng': 118.71324828271284}}"
"{'name': '新城大厦-地上停车场', 'location': {'lat': 32.00719596375, 'lng': 118.72657557572512}, 'address': '江东中路269号', 'province': '江苏省', 'city': '南京市', 'area': '建邺区', 'street_id': 'bf7776fcb0d8efd8593ac84b', 'detail': 1, 'uid': 'bf7776fcb0d8efd8593ac84b', 'detail_info': {'tag': '交通设施;停车场', 'type': 'life', 'detail_url': 'http://api.map.baidu.com/place/detail?uid=bf7776fcb0d8efd8593ac84b&output=html&source=placeapi_v2', 'image_num': '0', 'children': [], 'lat': 32.00719596375, 'lng': 118.72657557572512}}"
"{'name': '777水疗会所-停车场', 'location': {'lat': 32.01595197266502, 'lng': 118.72398161057943}, 'address': '松花江西街与燕山路交叉口南50米', 'province': '江苏省', 'city': '南京市', 'area': '建邺区', 'detail': 1, 'uid': '7cc61d5f17996fef6cc02c5f', 'detail_info': {'tag': '交通设施;停车场', 'type': 'life', 'detail_url': 'http://api.map.baidu.com/place/detail?uid=7cc61d5f17996fef6cc02c5f&output=html&source=placeapi_v2', 'image_num': '1', 'children': [], 'lat': 32.01595197266502, 'lng': 118.72398161057943}}"
"{'name': '联强国际大厦-地上停车场', 'location': {'lat': 32.00615589494139, 'lng': 118.72391213487113}, 'address': '江东中路289号', 'province': '江苏省', 'city': '南京市', 'area': '建邺区', 'street_id': '01a29a055f2245cb1e58009c', 'detail': 1, 'uid': '01a29a055f2245cb1e58009c', 'detail_info': {'tag': '交通设施;停车场', 'navi_location': {'lng': 118.73652759853, 'lat': 32.009939885543}, 'type': 'life', 'detail_url': 'http://api.map.baidu.com/place/detail?uid=01a29a055f2245cb1e58009c&output=html&source=placeapi_v2', 'image_num': '1', 'children': [], 'lat': 32.00615589494139, 'lng': 118.72391213487113}}"
"{'name': '建筑师工社(商业)-地上停车场', 'location': {'lat': 32.01487381227897, 'lng': 118.72255234591955}, 'address': '南京市建邺区梦都大街150号建筑师工社', 'province': '江苏省', 'city': '南京市', 'area': '建邺区', 'street_id': 'fb0f601c541e53454054d75a', 'detail': 1, 'uid': 'fb0f601c541e53454054d75a', 'detail_info': {'tag': '交通设施;停车场', 'navi_location': {'lng': 118.73444425647, 'lat': 32.018519959652}, 'type': 'life', 'detail_url': 'http://api.map.baidu.com/place/detail?uid=fb0f601c541e53454054d75a&output=html&source=placeapi_v2', 'image_num': '1', 'children': [], 'lat': 32.01487381227897, 'lng': 118.72255234591955}}"
"{'name': '南京河西公共自行车行政服务大厅站', 'location': {'lat': 32.007864263812145, 'lng': 118.72515112856934}, 'address': '江东中路266号附近', 'province': '江苏省', 'city': '南京市', 'area': '建邺区', 'street_id': 'e4638010348a3892ae045725', 'detail': 1, 'uid': 'e4638010348a3892ae045725', 'detail_info': {'tag': '交通设施;其他', 'type': 'life', 'detail_url': 'http://api.map.baidu.com/place/detail?uid=e4638010348a3892ae045725&output=html&source=placeapi_v2', 'image_num': '1', 'children': [], 'lat': 32.007864263812145, 'lng': 118.72515112856934}}"
"{'name': '金马郦城-停车场', 'location': {'lat': 32.00833630066506, 'lng': 118.71170892153036}, 'address': '南京市建邺区乐山路与富春江西街交叉口东北150米', 'province': '江苏省', 'city': '南京市', 'area': '建邺区', 'street_id': '2d35c1c0f6a28c7b16a19001', 'detail': 1, 'uid': '2d35c1c0f6a28c7b16a19001', 'detail_info': {'tag': '交通设施;停车场', 'navi_location': {'lng': 118.72154812957, 'lat': 32.01208397676}, 'type': 'life', 'detail_url': 'http://api.map.baidu.com/place/detail?uid=2d35c1c0f6a28c7b16a19001&output=html&source=placeapi_v2', 'image_num': '1', 'children': [], 'lat': 32.00833630066506, 'lng': 118.71170892153036}}"
"{'name': '南京奥林匹克体育中心-停车场', 'location': {'lat': 32.01141548133863, 'lng': 118.71477189508585}, 'address': '江东中路222号南京奥林匹克体育中心文体创业中心附近', 'province': '江苏省', 'city': '南京市', 'area': '建邺区', 'street_id': '0f5b285ef07b63190a5cb3d2', 'detail': 1, 'uid': '0f5b285ef07b63190a5cb3d2', 'detail_info': {'tag': '交通设施;停车场', 'type': 'life', 'detail_url': 'http://api.map.baidu.com/place/detail?uid=0f5b285ef07b63190a5cb3d2&output=html&source=placeapi_v2', 'image_num': '1', 'children': [], 'lat': 32.01141548133863, 'lng': 118.71477189508585}}"
"{'name': '燕山路/梦都大街(路口)', 'location': {'lat': 32.01392482131381, 'lng': 118.72218901141422}, 'address': '南京市建邺区', 'province': '江苏省', 'city': '南京市', 'area': '建邺区', 'street_id': '5c5d6e4185b0a7e697ec8443', 'detail': 1, 'uid': '5c5d6e4185b0a7e697ec8443', 'detail_info': {'tag': '道路;路口', 'type': 'life', 'detail_url': 'http://api.map.baidu.com/place/detail?uid=5c5d6e4185b0a7e697ec8443&output=html&source=placeapi_v2', 'image_num': '1', 'children': [], 'lat': 32.01392482131381, 'lng': 118.72218901141422}}"
"{'name': '奥体新城紫薇园停车场-出入口', 'location': {'lat': 32.01833182634787, 'lng': 118.71820490247342}, 'address': '江苏省南京市建邺区乐山路169号', 'province': '江苏省', 'city': '南京市', 'area': '建邺区', 'street_id': 'ce1f009d957cecbe306212b4', 'detail': 1, 'uid': 'ce1f009d957cecbe306212b4', 'detail_info': {'tag': '出入口;停车场出入口', 'type': 'life', 'detail_url': 'http://api.map.baidu.com/place/detail?uid=ce1f009d957cecbe306212b4&output=html&source=placeapi_v2', 'image_num': '1', 'children': [], 'lat': 32.01833182634787, 'lng': 118.71820490247342}}"
"{'name': '碧瑶花园-熙苑停车场', 'location': {'lat': 32.007911604861036, 'lng': 118.70898601169219}, 'address': '乐山路西200米', 'province': '江苏省', 'city': '南京市', 'area': '建邺区', 'detail': 1, 'uid': 'c568ae6115c2cdcec9fa5f90', 'detail_info': {'tag': '交通设施;停车场', 'type': 'life', 'detail_url': 'http://api.map.baidu.com/place/detail?uid=c568ae6115c2cdcec9fa5f90&output=html&source=placeapi_v2', 'image_num': '1', 'children': [], 'lat': 32.007911604861036, 'lng': 118.70898601169219}}"
"{'name': '烟波渔港(梦都店)-地上停车场', 'location': {'lat': 32.0169292526963, 'lng': 118.71554945230308}, 'address': '梦都大街176号烟波渔港梦都店(奥体中心北门对面)', 'province': '江苏省', 'city': '南京市', 'area': '建邺区', 'street_id': '1090cdb3a955d79343024543', 'detail': 1, 'uid': '1090cdb3a955d79343024543', 'detail_info': {'tag': '交通设施;停车场', 'navi_location': {'lng': 118.7276580538, 'lat': 32.02029803507}, 'type': 'life', 'detail_url': 'http://api.map.baidu.com/place/detail?uid=1090cdb3a955d79343024543&output=html&source=placeapi_v2', 'image_num': '1', 'children': [], 'lat': 32.0169292526963, 'lng': 118.71554945230308}}"
"{'name': '燕山路/兴隆大街(路口)', 'location': {'lat': 32.01856145593746, 'lng': 118.72550247937534}, 'address': '南京市建邺区兴隆大街', 'province': '江苏省', 'city': '南京市', 'area': '建邺区', 'street_id': 'bd5046e847d0a140d62ce297', 'detail': 1, 'uid': 'bd5046e847d0a140d62ce297', 'detail_info': {'tag': '道路;路口', 'type': 'life', 'detail_url': 'http://api.map.baidu.com/place/detail?uid=bd5046e847d0a140d62ce297&output=html&source=placeapi_v2', 'image_num': '1', 'children': [], 'lat': 32.01856145593746, 'lng': 118.72550247937534}}"
"{'name': '停车场', 'location': {'lat': 32.00921710519465, 'lng': 118.72709733865688}, 'address': '南京市建邺区江东中路235号中央商场B2', 'province': '江苏省', 'city': '南京市', 'area': '建邺区', 'street_id': '4d5e9916a696088831f71d2d', 'detail': 1, 'uid': '4d5e9916a696088831f71d2d', 'detail_info': {'tag': '交通设施;停车场', 'indoor_floor': 'B2', 'type': 'life', 'detail_url': 'http://api.map.baidu.com/place/detail?uid=4d5e9916a696088831f71d2d&output=html&source=placeapi_v2', 'image_num': '1', 'children': [], 'lat': 32.00921710519465, 'lng': 118.72709733865688}}"
"{'name': '江东中路/梦都大街(路口)', 'location': {'lat': 32.01133894852683, 'lng': 118.72729582580986}, 'address': '南京市建邺区梦都大街', 'province': '江苏省', 'city': '南京市', 'area': '建邺区', 'street_id': '4642844a29b07cd8c9fa5f21', 'detail': 1, 'uid': '4642844a29b07cd8c9fa5f21', 'detail_info': {'tag': '道路;路口', 'type': 'life', 'detail_url': 'http://api.map.baidu.com/place/detail?uid=4642844a29b07cd8c9fa5f21&output=html&source=placeapi_v2', 'image_num': '1', 'children': [], 'lat': 32.01133894852683, 'lng': 118.72729582580986}}"
"{'name': '紫鑫国际公寓-停车场', 'location': {'lat': 32.013136486394515, 'lng': 118.72538038826904}, 'address': '梦都大街130号紫鑫国际公寓', 'province': '江苏省', 'city': '南京市', 'area': '建邺区', 'street_id': '054729202bbf90b39ff77933', 'detail': 1, 'uid': '054729202bbf90b39ff77933', 'detail_info': {'tag': '交通设施;停车场', 'navi_location': {'lng': 118.73725057367, 'lat': 32.017029160903}, 'type': 'life', 'detail_url': 'http://api.map.baidu.com/place/detail?uid=054729202bbf90b39ff77933&output=html&source=placeapi_v2', 'image_num': '1', 'children': [], 'lat': 32.013136486394515, 'lng': 118.72538038826904}}"
"{'name': '燕山路·松花江西街', 'location': {'lat': 32.01543586844562, 'lng': 118.72334611209632}, 'address': '126路', 'province': '江苏省', 'city': '南京市', 'area': '建邺区', 'detail': 0, 'uid': '52d8bf51acbbc22d266e987b', 'detail_info': {'tag': '公交车站', 'children': [], 'lat': 32.01543586844562, 'lng': 118.72334611209632}}"
"{'name': '乐山路·富春江西街', 'location': {'lat': 32.00745557566719, 'lng': 118.71107273461317}, 'address': '7路;126路;y7路夜间', 'province': '江苏省', 'city': '南京市', 'area': '建邺区', 'detail': 0, 'uid': 'e398b368c577e404e81e979d', 'detail_info': {'tag': '公交车站', 'children': [], 'lat': 32.00745557566719, 'lng': 118.71107273461317}}"
"{'name': '奥皇酒店-地上停车场', 'location': {'lat': 32.018992037490726, 'lng': 118.7249550972949}, 'address': '兴隆大街168号奥皇酒店', 'province': '江苏省', 'city': '南京市', 'area': '建邺区', 'street_id': 'e91e27ab42199c8e343a71a6', 'detail': 1, 'uid': '5c1b980bfdd9e87dc61e51c6', 'detail_info': {'tag': '交通设施;停车场', 'type': 'life', 'detail_url': 'http://api.map.baidu.com/place/detail?uid=5c1b980bfdd9e87dc61e51c6&output=html&source=placeapi_v2', 'image_num': '1', 'children': [], 'lat': 32.018992037490726, 'lng': 118.7249550972949}}"
"{'name': '江苏大剧院p1停车场-出入口', 'location': {'lat': 32.01684835231617, 'lng': 118.70867605867879}, 'address': '梦都大街与螺丝桥大街交叉口西南200米', 'province': '江苏省', 'city': '南京市', 'area': '建邺区', 'detail': 1, 'uid': 'aa0625d840ec75ac8a36ee6b', 'detail_info': {'tag': '出入口;停车场出入口', 'type': 'life', 'detail_url': 'http://api.map.baidu.com/place/detail?uid=aa0625d840ec75ac8a36ee6b&output=html&source=placeapi_v2', 'image_num': '1', 'children': [], 'lat': 32.01684835231617, 'lng': 118.70867605867879}}"
"{'name': '雨润中央公馆-停车场', 'location': {'lat': 32.01014015633032, 'lng': 118.72753519473305}, 'address': '梦都大街与江东中路交叉口东南100米', 'province': '江苏省', 'city': '南京市', 'area': '建邺区', 'street_id': '77b9e156d75b114c3ce2311b', 'detail': 1, 'uid': '77b9e156d75b114c3ce2311b', 'detail_info': {'tag': '交通设施;停车场', 'navi_location': {'lng': 118.73941855407, 'lat': 32.013775216299}, 'type': 'life', 'detail_url': 'http://api.map.baidu.com/place/detail?uid=77b9e156d75b114c3ce2311b&output=html&source=placeapi_v2', 'image_num': '1', 'children': [], 'lat': 32.01014015633032, 'lng': 118.72753519473305}}"
"{'name': '奥体新城紫薇园-停车场', 'location': {'lat': 32.01708039919814, 'lng': 118.71708810598861}, 'address': '江苏省南京市建邺区乐山路167-25附近', 'province': '江苏省', 'city': '南京市', 'area': '建邺区', 'street_id': '011553e51806db10b05c6a55', 'detail': 1, 'uid': '011553e51806db10b05c6a55', 'detail_info': {'tag': '交通设施;停车场', 'navi_location': {'lng': 118.72898857403, 'lat': 32.020630908585}, 'type': 'life', 'detail_url': 'http://api.map.baidu.com/place/detail?uid=011553e51806db10b05c6a55&output=html&source=placeapi_v2', 'image_num': '1', 'children': [], 'lat': 32.01708039919814, 'lng': 118.71708810598861}}"
"{'name': '南京奥林匹克体育中心-地上停车场', 'location': {'lat': 32.012102786318756, 'lng': 118.71953596976162}, 'address': '江东中路222号', 'province': '江苏省', 'city': '南京市', 'area': '建邺区', 'street_id': '9d8c43ad0bf45744bda822f6', 'detail': 1, 'uid': '9d8c43ad0bf45744bda822f6', 'detail_info': {'tag': '交通设施;停车场', 'type': 'life', 'detail_url': 'http://api.map.baidu.com/place/detail?uid=9d8c43ad0bf45744bda822f6&output=html&source=placeapi_v2', 'image_num': '1', 'children': [], 'lat': 32.012102786318756, 'lng': 118.71953596976162}}"
"{'name': '南京仁恒辉盛阁国际酒店公寓-停车场', 'location': {'lat': 32.00794167580447, 'lng': 118.72755596377338}, 'address': '庐山路116号', 'province': '江苏省', 'city': '南京市', 'area': '建邺区', 'street_id': 'a4ad12ff946714c249fd3f90', 'detail': 1, 'uid': 'a4ad12ff946714c249fd3f90', 'detail_info': {'tag': '交通设施;停车场', 'navi_location': {'lng': 118.73946023634, 'lat': 32.011269847486}, 'type': 'life', 'detail_url': 'http://api.map.baidu.com/place/detail?uid=a4ad12ff946714c249fd3f90&output=html&source=placeapi_v2', 'overall_rating': '5.0', 'image_num': '1', 'comment_num': '1', 'children': [], 'lat': 32.00794167580447, 'lng': 118.72755596377338}}"
"{'name': '乐山路·梦都大街', 'location': {'lat': 32.01755743461909, 'lng': 118.71658857742143}, 'address': '7路;166路;B5路;y7路夜间', 'province': '江苏省', 'city': '南京市', 'area': '建邺区', 'detail': 0, 'uid': '3d30049363aa65c032870a5b', 'detail_info': {'tag': '公交车站', 'children': [], 'lat': 32.01755743461909, 'lng': 118.71658857742143}}"
"{'name': '停车场(奥体大街)', 'location': {'lat': 32.00983745878959, 'lng': 118.71090499869014}, 'address': '江苏省南京市建邺区河西新城奥体大街199号', 'province': '江苏省', 'city': '南京市', 'area': '建邺区', 'street_id': '9cea7ac4b94c124e29fc4832', 'detail': 1, 'uid': '9cea7ac4b94c124e29fc4832', 'detail_info': {'tag': '交通设施;停车场', 'type': 'life', 'detail_url': 'http://api.map.baidu.com/place/detail?uid=9cea7ac4b94c124e29fc4832&output=html&source=placeapi_v2', 'overall_rating': '4.0', 'image_num': '1', 'comment_num': '1', 'children': [], 'lat': 32.00983745878959, 'lng': 118.71090499869014}}"
"{'name': '澳星温泉养生馆-停车场', 'location': {'lat': 32.01736068108982, 'lng': 118.72026043144528}, 'address': '江苏省南京市建邺区松花江西街紫薇园(梦都大街地铁站东)', 'province': '江苏省', 'city': '南京市', 'area': '建邺区', 'street_id': '957c83d792a85901970319f1', 'detail': 1, 'uid': '957c83d792a85901970319f1', 'detail_info': {'tag': '交通设施;停车场', 'type': 'life', 'detail_url': 'http://api.map.baidu.com/place/detail?uid=957c83d792a85901970319f1&output=html&source=placeapi_v2', 'image_num': '1', 'children': [], 'lat': 32.01736068108982, 'lng': 118.72026043144528}}"
"{'name': '梦都大街西', 'location': {'lat': 32.01828511005812, 'lng': 118.70859007027349}, 'address': 'D7路', 'province': '江苏省', 'city': '南京市', 'area': '建邺区', 'detail': 0, 'uid': '1236f7c71003a249c41e51c3', 'detail_info': {'tag': '公交车站', 'children': [], 'lat': 32.01828511005812, 'lng': 118.70859007027349}}"
"{'name': '紫金农商银行营业部停车场-出入口', 'location': {'lat': 32.01353040097601, 'lng': 118.72365036614185}, 'address': '南京市建邺区梦都大街136号', 'province': '江苏省', 'city': '南京市', 'area': '建邺区', 'street_id': '700ab69832c3bb7ae856fa8f', 'detail': 1, 'uid': '700ab69832c3bb7ae856fa8f', 'detail_info': {'tag': '出入口;停车场出入口', 'type': 'life', 'detail_url': 'http://api.map.baidu.com/place/detail?uid=700ab69832c3bb7ae856fa8f&output=html&source=placeapi_v2', 'image_num': '1', 'children': [], 'lat': 32.01353040097601, 'lng': 118.72365036614185}}"
"{'name': '兴隆大街·燕山路', 'location': {'lat': 32.01811312356656, 'lng': 118.72667308472099}, 'address': '7路;129路', 'province': '江苏省', 'city': '南京市', 'area': '建邺区', 'detail': 0, 'uid': '95cede4f93f5524eeee4a59f', 'detail_info': {'tag': '公交车站', 'children': [], 'lat': 32.01811312356656, 'lng': 118.72667308472099}}"
"{'name': '梦都大街·乐山路', 'location': {'lat': 32.01539266240901, 'lng': 118.71884074327892}, 'address': '126路;166路;513路;D7路', 'province': '江苏省', 'city': '南京市', 'area': '建邺区', 'detail': 0, 'uid': 'af0156a4b70953901c389444', 'detail_info': {'tag': '公交车站', 'children': [], 'lat': 32.01539266240901, 'lng': 118.71884074327892}}"
"{'name': '汉庭酒店南京奥体中心二店-地面停车场', 'location': {'lat': 32.01446516097008, 'lng': 118.72308932280816}, 'address': '梦都大街138号', 'province': '江苏省', 'city': '南京市', 'area': '建邺区', 'street_id': '1793b033c945080cdd1e5241', 'detail': 1, 'uid': '1793b033c945080cdd1e5241', 'detail_info': {'tag': '交通设施;停车场', 'detail_url': 'http://api.map.baidu.com/place/detail?uid=1793b033c945080cdd1e5241&output=html&source=placeapi_v2', 'children': [], 'lat': 32.01446516097008, 'lng': 118.72308932280816}}"
"{'name': '大鹏饭店果木烤鸭外卖部-停车场', 'location': {'lat': 32.01396583656531, 'lng': 118.72316811632481}, 'address': '南京市建邺区区梦都大街128号', 'province': '江苏省', 'city': '南京市', 'area': '建邺区', 'telephone': '(025)86478868,(025)86478018', 'detail': 1, 'uid': '48ce899de69dbabff03cbaac', 'detail_info': {'tag': '交通设施;停车场', 'type': 'life', 'detail_url': 'http://api.map.baidu.com/place/detail?uid=48ce899de69dbabff03cbaac&output=html&source=placeapi_v2', 'image_num': '1', 'children': [], 'lat': 32.01396583656531, 'lng': 118.72316811632481}}"
"{'name': '停车场(紫薇园西)', 'location': {'lat': 32.01798904021849, 'lng': 118.71712358285401}, 'address': '梦都大街176-151号', 'province': '江苏省', 'city': '南京市', 'area': '建邺区', 'street_id': '86674166e914f7d4b04c496a', 'detail': 1, 'uid': '86674166e914f7d4b04c496a', 'detail_info': {'tag': '交通设施;停车场', 'type': 'life', 'detail_url': 'http://api.map.baidu.com/place/detail?uid=86674166e914f7d4b04c496a&output=html&source=placeapi_v2', 'overall_rating': '0.0', 'image_num': '1', 'children': [], 'lat': 32.01798904021849, 'lng': 118.71712358285401}}"
"{'name': '滨江奥城停车场-出入口', 'location': {'lat': 32.01735597230688, 'lng': 118.71505605383499}, 'address': '南京市建邺区梦都大街176-133号附近', 'province': '江苏省', 'city': '南京市', 'area': '建邺区', 'street_id': '27f5b0bbaee5c1e92fb17e4f', 'detail': 1, 'uid': '27f5b0bbaee5c1e92fb17e4f', 'detail_info': {'tag': '出入口;停车场出入口', 'type': 'life', 'detail_url': 'http://api.map.baidu.com/place/detail?uid=27f5b0bbaee5c1e92fb17e4f&output=html&source=placeapi_v2', 'image_num': '1', 'children': [], 'lat': 32.01735597230688, 'lng': 118.71505605383499}}"
"{'name': '梦都大街地铁站南', 'location': {'lat': 32.01668703268722, 'lng': 118.71486834358244}, 'address': '513路;D7路', 'province': '江苏省', 'city': '南京市', 'area': '建邺区', 'detail': 0, 'uid': '9022df4ad07ef8e9f4b916eb', 'detail_info': {'tag': '公交车站', 'children': [], 'lat': 32.01668703268722, 'lng': 118.71486834358244}}"
"{'name': '地铁奥体中心站-停车场', 'location': {'lat': 32.00910840258163, 'lng': 118.70995692524889}, 'address': '江苏省南京市建邺区奥体大街199号', 'province': '江苏省', 'city': '南京市', 'area': '建邺区', 'street_id': '03d9cbbd60f68af49e9d6847', 'detail': 1, 'uid': '8e9ac3fceb3c6dc922026233', 'detail_info': {'tag': '交通设施;停车场', 'type': 'life', 'detail_url': 'http://api.map.baidu.com/place/detail?uid=8e9ac3fceb3c6dc922026233&output=html&source=placeapi_v2', 'image_num': '1', 'children': [], 'lat': 32.00910840258163, 'lng': 118.70995692524889}}"
"{'name': '华夏天成-停车场', 'location': {'lat': 32.015821135402824, 'lng': 118.71982493267485}, 'address': '华山路与梦都大街交叉口北50米', 'province': '江苏省', 'city': '南京市', 'area': '建邺区', 'detail': 1, 'uid': 'e14f2eba153bfa3d3617dc9c', 'detail_info': {'tag': '交通设施;停车场', 'type': 'life', 'detail_url': 'http://api.map.baidu.com/place/detail?uid=e14f2eba153bfa3d3617dc9c&output=html&source=placeapi_v2', 'image_num': '1', 'children': [], 'lat': 32.015821135402824, 'lng': 118.71982493267485}}"
"{'name': '松花江西街-占道停车场(乐山路至江东中路段)', 'location': {'lat': 32.015874739960765, 'lng': 118.72474394175738}, 'address': '江苏省南京市建邺区松花江西街77号', 'province': '江苏省', 'city': '南京市', 'area': '建邺区', 'street_id': '4cce789cf8215b96f02d837a', 'detail': 1, 'uid': '4cce789cf8215b96f02d837a', 'detail_info': {'tag': '交通设施;停车场', 'type': 'life', 'detail_url': 'http://api.map.baidu.com/place/detail?uid=4cce789cf8215b96f02d837a&output=html&source=placeapi_v2', 'image_num': '1', 'children': [], 'lat': 32.015874739960765, 'lng': 118.72474394175738}}"
"{'name': '海棠园西门-停车场', 'location': {'lat': 32.018542986485315, 'lng': 118.71859388043823}, 'address': '兴隆大街199', 'province': '江苏省', 'city': '南京市', 'area': '建邺区', 'street_id': '57dfb4df87a0f411cd04ef36', 'detail': 1, 'uid': '57dfb4df87a0f411cd04ef36', 'detail_info': {'tag': '交通设施;停车场', 'navi_location': {'lng': 118.73027000235, 'lat': 32.022058620594}, 'type': 'life', 'detail_url': 'http://api.map.baidu.com/place/detail?uid=57dfb4df87a0f411cd04ef36&output=html&source=placeapi_v2', 'image_num': '1', 'children': [], 'lat': 32.018542986485315, 'lng': 118.71859388043823}}"
"{'name': '南京市建邺区乐山路的停车场', 'location': {'lat': 32.008299420601524, 'lng': 118.70973426803718}, 'address': '乐山路与富春江西街交叉口西北150米', 'province': '江苏省', 'city': '南京市', 'area': '建邺区', 'street_id': '96d00a88729d2d08a8f0cd16', 'detail': 1, 'uid': '96d00a88729d2d08a8f0cd16', 'detail_info': {'tag': '交通设施;停车场', 'type': 'life', 'detail_url': 'http://api.map.baidu.com/place/detail?uid=96d00a88729d2d08a8f0cd16&output=html&source=placeapi_v2', 'image_num': '1', 'children': [], 'lat': 32.008299420601524, 'lng': 118.70973426803718}}"
"{'name': '中央商场-停车场', 'location': {'lat': 32.00910251817246, 'lng': 118.72701356358255}, 'address': '南京市建邺区江东中路270号中央商场B2', 'province': '江苏省', 'city': '南京市', 'area': '建邺区', 'detail': 1, 'uid': 'b2d7fe23c5e9c5e53b04b139', 'detail_info': {'tag': '交通设施;停车场', 'indoor_floor': 'B2', 'type': 'life', 'detail_url': 'http://api.map.baidu.com/place/detail?uid=b2d7fe23c5e9c5e53b04b139&output=html&source=placeapi_v2', 'image_num': '1', 'children': [], 'lat': 32.00910251817246, 'lng': 118.72701356358255}}"
"{'name': '地铁奥体中心站停车场-出入口', 'location': {'lat': 32.011968715502555, 'lng': 118.71316617834839}, 'address': '乐山路180号', 'province': '江苏省', 'city': '南京市', 'area': '建邺区', 'street_id': '791e3d28070d88e0f4b916dd', 'detail': 1, 'uid': '791e3d28070d88e0f4b916dd', 'detail_info': {'tag': '出入口;停车场出入口', 'type': 'life', 'detail_url': 'http://api.map.baidu.com/place/detail?uid=791e3d28070d88e0f4b916dd&output=html&source=placeapi_v2', 'image_num': '1', 'children': [], 'lat': 32.011968715502555, 'lng': 118.71316617834839}}"
"{'name': '奥体建设站自行车租赁点', 'location': {'lat': 32.015269209166675, 'lng': 118.72000325243717}, 'address': '梦都大街156号华夏天成附近', 'province': '江苏省', 'city': '南京市', 'area': '建邺区', 'street_id': '37c9f8b2222b72449222e095', 'detail': 1, 'uid': '37c9f8b2222b72449222e095', 'detail_info': {'tag': '交通设施;其他', 'type': 'life', 'detail_url': 'http://api.map.baidu.com/place/detail?uid=37c9f8b2222b72449222e095&output=html&source=placeapi_v2', 'overall_rating': '5.0', 'image_num': '1', 'comment_num': '1', 'children': [], 'lat': 32.015269209166675, 'lng': 118.72000325243717}}"
"{'name': '奥体大街与燕山路交叉口', 'location': {'lat': 32.007049713768474, 'lng': 118.71713570145617}, 'address': '南京市建邺区奥体大街', 'province': '江苏省', 'city': '南京市', 'area': '建邺区', 'street_id': 'be14f01550ff685694ec84ef', 'detail': 1, 'uid': 'be14f01550ff685694ec84ef', 'detail_info': {'tag': '道路;路口', 'type': 'life', 'detail_url': 'http://api.map.baidu.com/place/detail?uid=be14f01550ff685694ec84ef&output=html&source=placeapi_v2', 'image_num': '1', 'children': [], 'lat': 32.007049713768474, 'lng': 118.71713570145617}}"
"{'name': '南京易充充电站(河西CBD停车场)', 'location': {'lat': 32.00825558266782, 'lng': 118.72690977179167}, 'address': '南京市建邺区江东中路269号', 'province': '江苏省', 'city': '南京市', 'area': '建邺区', 'detail': 1, 'uid': '586863cd91e942dc6c4760d1', 'detail_info': {'tag': '交通设施;充电站', 'type': 'life', 'detail_url': 'http://api.map.baidu.com/place/detail?uid=586863cd91e942dc6c4760d1&output=html&source=placeapi_v2', 'image_num': '1', 'children': [], 'lat': 32.00825558266782, 'lng': 118.72690977179167}}"
"{'name': '奥体新城紫薇园-停车场', 'location': {'lat': 32.01844976761508, 'lng': 118.71724277325727}, 'address': '乐山路与松花江西街交叉口东南50米', 'province': '江苏省', 'city': '南京市', 'area': '建邺区', 'detail': 1, 'uid': 'e4ed804d01da17f6eee4a54e', 'detail_info': {'tag': '交通设施;停车场', 'type': 'life', 'detail_url': 'http://api.map.baidu.com/place/detail?uid=e4ed804d01da17f6eee4a54e&output=html&source=placeapi_v2', 'image_num': '1', 'children': [], 'lat': 32.01844976761508, 'lng': 118.71724277325727}}"
"{'name': '南京陈氏太极拳馆-停车场', 'location': {'lat': 32.01060536283771, 'lng': 118.71783937409575}, 'address': '江苏省南京市建邺区江东中路222号南京奥林匹克体育中心内', 'province': '江苏省', 'city': '南京市', 'area': '建邺区', 'detail': 1, 'uid': '40eff01b4bb287bd2cb17e13', 'detail_info': {'tag': '交通设施;停车场', 'type': 'life', 'detail_url': 'http://api.map.baidu.com/place/detail?uid=40eff01b4bb287bd2cb17e13&output=html&source=placeapi_v2', 'overall_rating': '0.0', 'image_num': '1', 'comment_num': '1', 'children': [], 'lat': 32.01060536283771, 'lng': 118.71783937409575}}"
"{'name': '南京易充充电站(新城大厦地下车库)', 'location': {'lat': 32.007512232555904, 'lng': 118.72750503505044}, 'address': '南京市建邺区江东中路265号', 'province': '江苏省', 'city': '南京市', 'area': '建邺区', 'detail': 1, 'uid': 'd18ff1936b7f37e54054d71d', 'detail_info': {'tag': '交通设施;充电站', 'type': 'life', 'detail_url': 'http://api.map.baidu.com/place/detail?uid=d18ff1936b7f37e54054d71d&output=html&source=placeapi_v2', 'image_num': '1', 'children': [], 'lat': 32.007512232555904, 'lng': 118.72750503505044}}"
"{'name': '奥体大街·乐山路', 'location': {'lat': 32.00925482420183, 'lng': 118.71315328096853}, 'address': '133路;166路', 'province': '江苏省', 'city': '南京市', 'area': '建邺区', 'detail': 0, 'uid': 'e16a35ed52fbd6076d20b9c0', 'detail_info': {'tag': '公交车站', 'children': [], 'lat': 32.00925482420183, 'lng': 118.71315328096853}}"
"{'name': '停车场(奥体新城紫薇园东南)', 'location': {'lat': 32.016958988973364, 'lng': 118.7201251907309}, 'address': '华山路与松花江西街交叉口西南100米', 'province': '江苏省', 'city': '南京市', 'area': '建邺区', 'street_id': '8a8f96206fe2cf12b21e3627', 'detail': 1, 'uid': '8a8f96206fe2cf12b21e3627', 'detail_info': {'tag': '交通设施;停车场', 'type': 'life', 'detail_url': 'http://api.map.baidu.com/place/detail?uid=8a8f96206fe2cf12b21e3627&output=html&source=placeapi_v2', 'image_num': '1', 'children': [], 'lat': 32.016958988973364, 'lng': 118.7201251907309}}"
"{'name': '白鹭西街', 'location': {'lat': 32.01866818808311, 'lng': 118.7257207384703}, 'address': '126路', 'province': '江苏省', 'city': '南京市', 'area': '建邺区', 'detail': 0, 'uid': '3b76c3aece32ade81c38945a', 'detail_info': {'tag': '公交车站', 'children': [], 'lat': 32.01866818808311, 'lng': 118.7257207384703}}"
"{'name': '奥体东站自行车租赁点', 'location': {'lat': 32.00785390644917, 'lng': 118.72510826962244}, 'address': '江苏省南京市建邺区江东中路南京市政务服务中心西门', 'province': '江苏省', 'city': '南京市', 'area': '建邺区', 'street_id': 'f9c86da8a93a1f7df60e77ed', 'detail': 1, 'uid': 'f9c86da8a93a1f7df60e77ed', 'detail_info': {'tag': '交通设施;其他', 'navi_location': {'lng': 118.73677364441, 'lat': 32.011563173941}, 'type': 'life', 'detail_url': 'http://api.map.baidu.com/place/detail?uid=f9c86da8a93a1f7df60e77ed&output=html&source=placeapi_v2', 'image_num': '2', 'children': [], 'lat': 32.00785390644917, 'lng': 118.72510826962244}}"
"{'name': '奥体大街·大剧院路', 'location': {'lat': 32.0101483317079, 'lng': 118.7109527081231}, 'address': '133路;166路', 'province': '江苏省', 'city': '南京市', 'area': '建邺区', 'detail': 0, 'uid': '771260f4006dfb154054d740', 'detail_info': {'tag': '公交车站', 'children': [], 'lat': 32.0101483317079, 'lng': 118.7109527081231}}"
"{'name': '停车场(滨江·奥城西南)', 'location': {'lat': 32.01870476865493, 'lng': 118.7103953751057}, 'address': '梦都大街180号附近', 'province': '江苏省', 'city': '南京市', 'area': '建邺区', 'detail': 1, 'uid': 'd54c166bb2342555c6f025e8', 'detail_info': {'tag': '交通设施;停车场', 'type': 'life', 'detail_url': 'http://api.map.baidu.com/place/detail?uid=d54c166bb2342555c6f025e8&output=html&source=placeapi_v2', 'image_num': '1', 'children': [], 'lat': 32.01870476865493, 'lng': 118.7103953751057}}"
"{'name': '停车场(大剧院路)', 'location': {'lat': 32.01623161897481, 'lng': 118.71167832481297}, 'address': '梦都大街185号附近', 'province': '江苏省', 'city': '南京市', 'area': '建邺区', 'detail': 1, 'uid': '7440930cbef4024186420efb', 'detail_info': {'tag': '交通设施;停车场', 'type': 'life', 'detail_url': 'http://api.map.baidu.com/place/detail?uid=7440930cbef4024186420efb&output=html&source=placeapi_v2', 'image_num': '1', 'children': [], 'lat': 32.01623161897481, 'lng': 118.71167832481297}}"
"{'name': '华夏天成-地上停车场', 'location': {'lat': 32.015234510582566, 'lng': 118.72078671348635}, 'address': '南京市建邺区梦都大街154号附近', 'province': '江苏省', 'city': '南京市', 'area': '建邺区', 'street_id': '157a99543173d7fdc929156e', 'detail': 1, 'uid': '157a99543173d7fdc929156e', 'detail_info': {'tag': '交通设施;停车场', 'type': 'life', 'detail_url': 'http://api.map.baidu.com/place/detail?uid=157a99543173d7fdc929156e&output=html&source=placeapi_v2', 'image_num': '1', 'children': [], 'lat': 32.015234510582566, 'lng': 118.72078671348635}}"
"{'name': '庐山路-路侧停车位', 'location': {'lat': 32.00632637538412, 'lng': 118.72758659446751}, 'address': '江苏省南京市建邺区庐山路130号附近', 'province': '江苏省', 'city': '南京市', 'area': '建邺区', 'detail': 1, 'uid': 'dec6242eed613fdb8bb988a1', 'detail_info': {'tag': '交通设施;路侧停车位', 'type': 'life', 'detail_url': 'http://api.map.baidu.com/place/detail?uid=dec6242eed613fdb8bb988a1&output=html&source=placeapi_v2', 'image_num': '1', 'children': [], 'lat': 32.00632637538412, 'lng': 118.72758659446751}}"
"{'name': '停车场出入口', 'location': {'lat': 32.00945534102002, 'lng': 118.72712328218272}, 'address': '南京建邺区南京市建邺区江东中路270号中央商场B3', 'province': '江苏省', 'city': '南京市', 'area': '建邺区', 'street_id': '821f8714be5d5965213bf2d1', 'detail': 1, 'uid': '821f8714be5d5965213bf2d1', 'detail_info': {'tag': '出入口;停车场出入口', 'indoor_floor': 'B3', 'type': 'life', 'detail_url': 'http://api.map.baidu.com/place/detail?uid=821f8714be5d5965213bf2d1&output=html&source=placeapi_v2', 'image_num': '1', 'children': [], 'lat': 32.00945534102002, 'lng': 118.72712328218272}}"
"{'name': '南京市圣训堂停车场-出入口', 'location': {'lat': 32.01549502352842, 'lng': 118.7126993438278}, 'address': '梦都大街179号附近', 'province': '江苏省', 'city': '南京市', 'area': '建邺区', 'detail': 1, 'uid': '704e32f9809bfb68afee7a6a', 'detail_info': {'tag': '出入口;停车场出入口', 'type': 'life', 'detail_url': 'http://api.map.baidu.com/place/detail?uid=704e32f9809bfb68afee7a6a&output=html&source=placeapi_v2', 'image_num': '1', 'children': [], 'lat': 32.01549502352842, 'lng': 118.7126993438278}}"
"{'name': '奥体中心北门站自行车租赁点', 'location': {'lat': 32.01450708031431, 'lng': 118.72288012829786}, 'address': '江苏省南京市建邺区燕山路(汉庭酒店)', 'province': '江苏省', 'city': '南京市', 'area': '建邺区', 'street_id': '94bb3596f16b7c32db131844', 'detail': 1, 'uid': '94bb3596f16b7c32db131844', 'detail_info': {'tag': '交通设施;其他', 'type': 'life', 'detail_url': 'http://api.map.baidu.com/place/detail?uid=94bb3596f16b7c32db131844&output=html&source=placeapi_v2', 'image_num': '1', 'children': [], 'lat': 32.01450708031431, 'lng': 118.72288012829786}}"
"{'name': '中央商场(河西店)地上停车场-出口', 'location': {'lat': 32.009415596074795, 'lng': 118.72763789418092}, 'address': '江东中路237号中央商场(河西店)地上停车场', 'province': '江苏省', 'city': '南京市', 'area': '建邺区', 'detail': 1, 'uid': '78f8ad245d22fccd5cbe86d9', 'detail_info': {'tag': '出入口;停车场出入口', 'type': 'life', 'detail_url': 'http://api.map.baidu.com/place/detail?uid=78f8ad245d22fccd5cbe86d9&output=html&source=placeapi_v2', 'image_num': '1', 'children': [], 'lat': 32.009415596074795, 'lng': 118.72763789418092}}"
"{'name': '碧瑶花园熙苑停车场-出入口', 'location': {'lat': 32.0079418169483, 'lng': 118.70899793880457}, 'address': '乐山路189号', 'province': '江苏省', 'city': '南京市', 'area': '建邺区', 'detail': 1, 'uid': '1c96fcf70ad57c72373a7183', 'detail_info': {'tag': '出入口;停车场出入口', 'type': 'life', 'detail_url': 'http://api.map.baidu.com/place/detail?uid=1c96fcf70ad57c72373a7183&output=html&source=placeapi_v2', 'image_num': '1', 'children': [], 'lat': 32.0079418169483, 'lng': 118.70899793880457}}"
"{'name': '金马郦城西区-C1车库', 'location': {'lat': 32.008398835040275, 'lng': 118.70975713318586}, 'address': '乐山路与富春江西街交叉口西北200米', 'province': '江苏省', 'city': '南京市', 'area': '建邺区', 'street_id': '52e865b7cd4b5254bb17e79a', 'detail': 1, 'uid': '52e865b7cd4b5254bb17e79a', 'detail_info': {'tag': '交通设施;停车场', 'type': 'life', 'detail_url': 'http://api.map.baidu.com/place/detail?uid=52e865b7cd4b5254bb17e79a&output=html&source=placeapi_v2', 'image_num': '1', 'children': [], 'lat': 32.008398835040275, 'lng': 118.70975713318586}}"
"{'name': '南京市妇女儿童活动中心停车场-出口', 'location': {'lat': 32.01573504760813, 'lng': 118.71428993190759}, 'address': '江苏省南京市建邺区乐山路150号附近', 'province': '江苏省', 'city': '南京市', 'area': '建邺区', 'street_id': '27e1cc085bc35ea2b9df8ffd', 'detail': 1, 'uid': '27e1cc085bc35ea2b9df8ffd', 'detail_info': {'tag': '出入口;停车场出入口', 'navi_location': {'lng': 118.72623863539, 'lat': 32.018511466494},