"{'name': '茆长伟汽车维修中心', 'location': {'lat': 32.00917020579703, 'lng': 118.69421930514116}, 'address': '江苏省南京市建邺区绿岛新村东北洲泰路', 'province': '江苏省', 'city': '南京市', 'area': '建邺区', 'street_id': 'e776556f66fa70eb9f09f708', 'telephone': '13770537696', 'detail': 1, 'uid': 'e776556f66fa70eb9f09f708', 'detail_info': {'tag': '汽车服务;汽车维修', 'type': 'life', 'detail_url': 'http://api.map.baidu.com/place/detail?uid=e776556f66fa70eb9f09f708&output=html&source=placeapi_v2', 'image_num': '8', 'children': [], 'lat': 32.00917020579703, 'lng': 118.69421930514116}}"
"{'name': '江岛名车汇', 'location': {'lat': 32.04358022455456, 'lng': 118.70594615537715}, 'address': '江心洲星影街28/2', 'province': '江苏省', 'city': '南京市', 'area': '建邺区', 'street_id': '2b6e570f2595afe4f50e7792', 'telephone': '17314959539', 'detail': 1, 'uid': '2b6e570f2595afe4f50e7792', 'detail_info': {'tag': '汽车服务;汽车美容', 'navi_location': {'lng': 118.71750600002, 'lat': 32.047678019248}, 'type': 'life', 'detail_url': 'http://api.map.baidu.com/place/detail?uid=2b6e570f2595afe4f50e7792&output=html&source=placeapi_v2', 'image_num': '3', 'children': [], 'lat': 32.04358022455456, 'lng': 118.70594615537715}}"
"{'name': '敦煌汽车服务中心(奥体店)', 'location': {'lat': 32.01834691282056, 'lng': 118.7249513836239}, 'address': '兴隆街道兴隆大街167号', 'province': '江苏省', 'city': '南京市', 'area': '建邺区', 'street_id': 'ad39e8d275d9a2cc42d63e0b', 'detail': 1, 'uid': 'ad39e8d275d9a2cc42d63e0b', 'detail_info': {'tag': '汽车服务;汽车美容', 'navi_location': {'lng': 118.73708805134, 'lat': 32.021926673475}, 'type': 'life', 'detail_url': 'http://api.map.baidu.com/place/detail?uid=ad39e8d275d9a2cc42d63e0b&output=html&source=placeapi_v2', 'overall_rating': '3.8', 'image_num': '12', 'comment_num': '6', 'children': [], 'lat': 32.01834691282056, 'lng': 118.7249513836239}}"
"{'name': '华胜奔驰宝马奥迪专修连锁(乐山路店)', 'location': {'lat': 32.01171130785735, 'lng': 118.71270494822308}, 'address': '南京市建邺区乐山路180号', 'province': '江苏省', 'city': '南京市', 'area': '建邺区', 'street_id': '986ed3f62d473675a7c7562a', 'telephone': '(025)86275101,18012959727', 'detail': 1, 'uid': '986ed3f62d473675a7c7562a', 'detail_info': {'tag': '汽车服务;汽车维修', 'navi_location': {'lng': 118.7246322702, 'lat': 32.015267542609}, 'type': 'life', 'detail_url': 'http://api.map.baidu.com/place/detail?uid=986ed3f62d473675a7c7562a&output=html&source=placeapi_v2', 'overall_rating': '4.3', 'image_num': '23', 'comment_num': '27', 'children': [], 'lat': 32.01171130785735, 'lng': 118.71270494822308}}"
"{'name': '骏腾汽修(梦都大街店)', 'location': {'lat': 32.017473241262046, 'lng': 118.71376639912904}, 'address': '南京市建邺区梦都大街176-3号', 'province': '江苏省', 'city': '南京市', 'area': '建邺区', 'street_id': '407183f5ac6c736a4054d777', 'detail': 1, 'uid': '407183f5ac6c736a4054d777', 'detail_info': {'tag': '汽车服务;汽车维修', 'type': 'life', 'detail_url': 'http://api.map.baidu.com/place/detail?uid=407183f5ac6c736a4054d777&output=html&source=placeapi_v2', 'overall_rating': '5.0', 'image_num': '4', 'comment_num': '4', 'children': [], 'lat': 32.017473241262046, 'lng': 118.71376639912904}}"
"{'name': '南京奥体车展', 'location': {'lat': 32.010470378137924, 'lng': 118.71304197869775}, 'address': '江苏省南京市建邺区乐山路180号', 'province': '江苏省', 'city': '南京市', 'area': '建邺区', 'detail': 1, 'uid': '674ab94c868de0de8605bfa0', 'detail_info': {'tag': '汽车服务;汽车销售', 'type': 'life', 'detail_url': 'http://api.map.baidu.com/place/detail?uid=674ab94c868de0de8605bfa0&output=html&source=placeapi_v2', 'overall_rating': '0.0', 'image_num': '1', 'children': [], 'lat': 32.010470378137924, 'lng': 118.71304197869775}}"
"{'name': '宏志车务', 'location': {'lat': 32.006403288243, 'lng': 118.71361616145902}, 'address': '江苏省南京市建邺区富春江西街28-21', 'province': '江苏省', 'city': '南京市', 'area': '建邺区', 'street_id': 'd4a5567f333869704c6d4616', 'telephone': '15298379637', 'detail': 1, 'uid': 'd4a5567f333869704c6d4616', 'detail_info': {'tag': '汽车服务;汽车美容', 'navi_location': {'lng': 118.72509689986, 'lat': 32.01016773255}, 'type': 'life', 'detail_url': 'http://api.map.baidu.com/place/detail?uid=d4a5567f333869704c6d4616&output=html&source=placeapi_v2', 'image_num': '6', 'children': [], 'lat': 32.006403288243, 'lng': 118.71361616145902}}"
"{'name': '奔驰宝马奥迪保时捷专修连锁(中国第97南京建邺店)', 'location': {'lat': 32.01145410552317, 'lng': 118.71275864219787}, 'address': '江苏省南京市建邺区乐山路180号-北座-3层', 'province': '江苏省', 'city': '南京市', 'area': '建邺区', 'street_id': 'decd225c22a2684504fef556', 'detail': 1, 'uid': 'decd225c22a2684504fef556', 'detail_info': {'tag': '汽车服务;汽车维修', 'type': 'life', 'detail_url': 'http://api.map.baidu.com/place/detail?uid=decd225c22a2684504fef556&output=html&source=placeapi_v2', 'image_num': '1', 'children': [], 'lat': 32.01145410552317, 'lng': 118.71275864219787}}"
"{'name': '平价汽车用品(旗舰店)', 'location': {'lat': 32.00893219294731, 'lng': 118.72062894021856}, 'address': '江苏省南京市建邺区江东中路222号奥体中心地下停车场46号', 'province': '江苏省', 'city': '南京市', 'area': '建邺区', 'street_id': '4c890c6e11e0a57a9fec2b3d', 'telephone': '(025)86691628', 'detail': 1, 'uid': '4c890c6e11e0a57a9fec2b3d', 'detail_info': {'tag': '汽车服务;汽车美容', 'type': 'life', 'detail_url': 'http://api.map.baidu.com/place/detail?uid=4c890c6e11e0a57a9fec2b3d&output=html&source=placeapi_v2', 'image_num': '1', 'children': [], 'lat': 32.00893219294731, 'lng': 118.72062894021856}}"
"{'name': '南京维斯塔汽车销售服务有限公司', 'location': {'lat': 32.01473522886026, 'lng': 118.72174668359342}, 'address': '江苏省南京市建邺区梦都大街150号建筑师工社', 'province': '江苏省', 'city': '南京市', 'area': '建邺区', 'detail': 1, 'uid': '6e8bb7525d22a370adcb6656', 'detail_info': {'tag': '汽车服务;汽车销售', 'type': 'life', 'detail_url': 'http://api.map.baidu.com/place/detail?uid=6e8bb7525d22a370adcb6656&output=html&source=placeapi_v2', 'image_num': '1', 'children': [], 'lat': 32.01473522886026, 'lng': 118.72174668359342}}"
"{'name': '润东汽车集团有限公司南京奥体汽车销售中心', 'location': {'lat': 32.01047611418104, 'lng': 118.72191743832056}, 'address': '江苏省南京市建邺区江东中路222号奥体中心内', 'province': '江苏省', 'city': '南京市', 'area': '建邺区', 'detail': 1, 'uid': 'ba17749a9c5b13352906cedc', 'detail_info': {'tag': '汽车服务;汽车销售', 'type': 'life', 'detail_url': 'http://api.map.baidu.com/place/detail?uid=ba17749a9c5b13352906cedc&output=html&source=placeapi_v2', 'image_num': '1', 'children': [], 'lat': 32.01047611418104, 'lng': 118.72191743832056}}"
"{'name': '柏博汽车生活馆', 'location': {'lat': 32.009237968151126, 'lng': 118.72193432423319}, 'address': '南京市建邺区江东中路222号奥体中心55号', 'province': '江苏省', 'city': '南京市', 'area': '建邺区', 'street_id': 'f31de4cd5a02fea6a8175a67', 'detail': 1, 'uid': 'f31de4cd5a02fea6a8175a67', 'detail_info': {'tag': '汽车服务;汽车美容', 'type': 'life', 'detail_url': 'http://api.map.baidu.com/place/detail?uid=f31de4cd5a02fea6a8175a67&output=html&source=placeapi_v2', 'overall_rating': '0.0', 'image_num': '1', 'children': [], 'lat': 32.009237968151126, 'lng': 118.72193432423319}}"
"{'name': '帕博平行进口汽车展示厅', 'location': {'lat': 32.009067207948995, 'lng': 118.72071257739765}, 'address': '江苏省南京市建邺区江东中路222号', 'province': '江苏省', 'city': '南京市', 'area': '建邺区', 'street_id': '1c44d8ee651fdb2c1b11d5c0', 'detail': 1, 'uid': '1c44d8ee651fdb2c1b11d5c0', 'detail_info': {'tag': '汽车服务;汽车维修', 'type': 'life', 'detail_url': 'http://api.map.baidu.com/place/detail?uid=1c44d8ee651fdb2c1b11d5c0&output=html&source=placeapi_v2', 'image_num': '1', 'children': [], 'lat': 32.009067207948995, 'lng': 118.72071257739765}}"
"{'name': '一嗨租车(梦都大街地铁站送车点)', 'location': {'lat': 32.018146216875294, 'lng': 118.71663709033614}, 'address': '南京市建邺区梦都大街地铁站3号出口', 'province': '江苏省', 'city': '南京市', 'area': '建邺区', 'telephone': '(025)86403005', 'detail': 1, 'uid': 'e7b4b27e5edf74fb8c1a89d5', 'detail_info': {'tag': '汽车服务;汽车租赁', 'type': 'life', 'detail_url': 'http://api.map.baidu.com/place/detail?uid=e7b4b27e5edf74fb8c1a89d5&output=html&source=placeapi_v2', 'image_num': '1', 'children': [], 'lat': 32.018146216875294, 'lng': 118.71663709033614}}"
"{'name': '舒热佳', 'location': {'lat': 32.008945684361315, 'lng': 118.72075637277109}, 'address': '南京市建邺区奥体大街(南京奥林匹克体育中心)', 'province': '江苏省', 'city': '南京市', 'area': '建邺区', 'street_id': 'a47839c34fee496b86420e4b', 'detail': 1, 'uid': 'a47839c34fee496b86420e4b', 'detail_info': {'tag': '汽车服务', 'type': 'life', 'detail_url': 'http://api.map.baidu.com/place/detail?uid=a47839c34fee496b86420e4b&output=html&source=placeapi_v2', 'image_num': '1', 'children': [], 'lat': 32.008945684361315, 'lng': 118.72075637277109}}"
"{'name': '苏舜汽车生活馆(乐山路店)', 'location': {'lat': 32.02540740668363, 'lng': 118.72145667967031}, 'address': '乐山路111-8号', 'province': '江苏省', 'city': '南京市', 'area': '建邺区', 'street_id': '808be669fa69361240ab9a74', 'telephone': '(025)86302828', 'detail': 1, 'uid': '808be669fa69361240ab9a74', 'detail_info': {'tag': '汽车服务;汽车美容', 'navi_location': {'lng': 118.73308954439, 'lat': 32.029308039528}, 'type': 'life', 'detail_url': 'http://api.map.baidu.com/place/detail?uid=808be669fa69361240ab9a74&output=html&source=placeapi_v2', 'overall_rating': '4.5', 'image_num': '11', 'comment_num': '15', 'children': [], 'lat': 32.02540740668363, 'lng': 118.72145667967031}}"
"{'name': '特福莱汽车美容装饰(安轩源店)', 'location': {'lat': 32.02262318280686, 'lng': 118.72228810033445}, 'address': '月安街39-3号', 'province': '江苏省', 'city': '南京市', 'area': '建邺区', 'street_id': 'ae0e0f600f723bdbf4b9163c', 'telephone': '13914775367,(025)51861391', 'detail': 1, 'uid': 'ae0e0f600f723bdbf4b9163c', 'detail_info': {'tag': '汽车服务;汽车美容', 'type': 'life', 'detail_url': 'http://api.map.baidu.com/place/detail?uid=ae0e0f600f723bdbf4b9163c&output=html&source=placeapi_v2', 'price': '21', 'overall_rating': '3.5', 'image_num': '18', 'comment_num': '16', 'children': [], 'lat': 32.02262318280686, 'lng': 118.72228810033445}}"
"{'name': '品车生活汽车养护中心(奥体店)', 'location': {'lat': 32.020535026227236, 'lng': 118.71834816014827}, 'address': '南京市建邺区兴隆大街203-9号', 'province': '江苏省', 'city': '南京市', 'area': '建邺区', 'street_id': 'f161d67628e958b02dfaa72b', 'telephone': '(025)86527769', 'detail': 1, 'uid': 'f161d67628e958b02dfaa72b', 'detail_info': {'tag': '汽车服务;汽车美容', 'navi_location': {'lng': 118.72977595138, 'lat': 32.024333831664}, 'type': 'life', 'detail_url': 'http://api.map.baidu.com/place/detail?uid=f161d67628e958b02dfaa72b&output=html&source=placeapi_v2', 'price': '110', 'overall_rating': '3.0', 'image_num': '12', 'comment_num': '12', 'children': [], 'lat': 32.020535026227236, 'lng': 118.71834816014827}}"
"{'name': '六朝汽车服务中心(乐山路店)', 'location': {'lat': 32.023142643668294, 'lng': 118.719542848588}, 'address': '江苏省南京市建邺区乐山路69号', 'province': '江苏省', 'city': '南京市', 'area': '建邺区', 'street_id': 'ba4d0f7c933fd8b08adb735a', 'telephone': '13915994106', 'detail': 1, 'uid': 'ba4d0f7c933fd8b08adb735a', 'detail_info': {'tag': '汽车服务;汽车美容', 'type': 'life', 'detail_url': 'http://api.map.baidu.com/place/detail?uid=ba4d0f7c933fd8b08adb735a&output=html&source=placeapi_v2', 'image_num': '1', 'comment_num': '1', 'children': [], 'lat': 32.023142643668294, 'lng': 118.719542848588}}"
"{'name': '德志汽车', 'location': {'lat': 32.02255420466168, 'lng': 118.72248235771235}, 'address': '江苏省南京市建邺区月安街39-1号', 'province': '江苏省', 'city': '南京市', 'area': '建邺区', 'street_id': 'aad63a123888827e9f09f758', 'telephone': '(025)83600668', 'detail': 1, 'uid': 'aad63a123888827e9f09f758', 'detail_info': {'tag': '汽车服务;汽车维修', 'navi_location': {'lng': 118.73434599982, 'lat': 32.026298015305}, 'type': 'life', 'detail_url': 'http://api.map.baidu.com/place/detail?uid=aad63a123888827e9f09f758&output=html&source=placeapi_v2', 'overall_rating': '4.5', 'image_num': '11', 'comment_num': '2', 'children': [], 'lat': 32.02255420466168, 'lng': 118.72248235771235}}"
"{'name': '泊朗智能洗车', 'location': {'lat': 32.02149157262753, 'lng': 118.7161431212351}, 'address': '江苏省南京市建邺区兴隆大街209号3楼南80米', 'province': '江苏省', 'city': '南京市', 'area': '建邺区', 'detail': 1, 'uid': '94bbf74e4bb77bab430245bb', 'detail_info': {'tag': '汽车服务;汽车美容', 'type': 'life', 'detail_url': 'http://api.map.baidu.com/place/detail?uid=94bbf74e4bb77bab430245bb&output=html&source=placeapi_v2', 'image_num': '3', 'children': [], 'lat': 32.02149157262753, 'lng': 118.7161431212351}}"
"{'name': '淘汽云修(华欧汽车服务店)', 'location': {'lat': 32.02523167168884, 'lng': 118.72755361485241}, 'address': '兴隆街道燕山路128号舒心苑1幢102号', 'province': '江苏省', 'city': '南京市', 'area': '建邺区', 'telephone': '13901587862', 'detail': 1, 'uid': 'fbe75dadb265ea6d88db7376', 'detail_info': {'tag': '汽车服务;汽车维修', 'type': 'life', 'detail_url': 'http://api.map.baidu.com/place/detail?uid=fbe75dadb265ea6d88db7376&output=html&source=placeapi_v2', 'image_num': '1', 'children': [], 'lat': 32.02523167168884, 'lng': 118.72755361485241}}"
"{'name': '泉水叮咚维修做漆轮胎', 'location': {'lat': 32.02582244066045, 'lng': 118.72783943608029}, 'address': '江苏省南京市建邺区燕山路128号3-5附近', 'province': '江苏省', 'city': '南京市', 'area': '建邺区', 'street_id': '6178929c396e79e183a00c0e', 'detail': 1, 'uid': '6178929c396e79e183a00c0e', 'detail_info': {'tag': '汽车服务;汽车维修', 'type': 'life', 'detail_url': 'http://api.map.baidu.com/place/detail?uid=6178929c396e79e183a00c0e&output=html&source=placeapi_v2', 'image_num': '8', 'children': [], 'lat': 32.02582244066045, 'lng': 118.72783943608029}}"
"{'name': '车行畅汽修中心', 'location': {'lat': 32.02549638499149, 'lng': 118.72703881673716}, 'address': '应天大街932号号附近', 'province': '江苏省', 'city': '南京市', 'area': '建邺区', 'street_id': 'eff21e64e18a17d8774ff1ac', 'telephone': '15951880507,13814046434', 'detail': 1, 'uid': 'eff21e64e18a17d8774ff1ac', 'detail_info': {'tag': '汽车服务;汽车维修', 'navi_location': {'lng': 118.73891871802, 'lat': 32.029012681713}, 'type': 'life', 'detail_url': 'http://api.map.baidu.com/place/detail?uid=eff21e64e18a17d8774ff1ac&output=html&source=placeapi_v2', 'image_num': '12', 'children': [], 'lat': 32.02549638499149, 'lng': 118.72703881673716}}"
"{'name': '苏琪汽车维修养护中心(青桐园店)', 'location': {'lat': 32.024106673025756, 'lng': 118.7155179071689}, 'address': '江苏省南京市建邺区月安街59', 'province': '江苏省', 'city': '南京市', 'area': '建邺区', 'street_id': '7c44f67c3c68da1edb131866', 'detail': 1, 'uid': '7c44f67c3c68da1edb131866', 'detail_info': {'tag': '汽车服务;汽车美容', 'type': 'life', 'detail_url': 'http://api.map.baidu.com/place/detail?uid=7c44f67c3c68da1edb131866&output=html&source=placeapi_v2', 'image_num': '2', 'children': [], 'lat': 32.024106673025756, 'lng': 118.7155179071689}}"
"{'name': '途虎养车(南京特福莱汽车)', 'location': {'lat': 32.022720243789514, 'lng': 118.72229302036085}, 'address': '月安街39-3号', 'province': '江苏省', 'city': '南京市', 'area': '建邺区', 'detail': 1, 'uid': 'e4e0789e2767666b734b87b0', 'detail_info': {'tag': '汽车服务;汽车美容', 'type': 'life', 'detail_url': 'http://api.map.baidu.com/place/detail?uid=e4e0789e2767666b734b87b0&output=html&source=placeapi_v2', 'image_num': '1', 'children': [], 'lat': 32.022720243789514, 'lng': 118.72229302036085}}"
"{'name': 'Unique Garage', 'location': {'lat': 32.02885538969636, 'lng': 118.72657942631078}, 'address': '南京市建邺区华山路与积贤街交叉路口往东约100米(积贤雅苑)', 'province': '江苏省', 'city': '南京市', 'area': '建邺区', 'telephone': '18652070605', 'detail': 1, 'uid': '9fc9f6c5d1e4a502a9059d88', 'detail_info': {'tag': '购物;商铺', 'type': 'shopping', 'detail_url': 'http://api.map.baidu.com/place/detail?uid=9fc9f6c5d1e4a502a9059d88&output=html&source=placeapi_v2', 'overall_rating': '5.0', 'comment_num': '2', 'children': [], 'lat': 32.02885538969636, 'lng': 118.72657942631078}}"
"{'name': '风帆汽车蓄电池销售部', 'location': {'lat': 32.02469469787965, 'lng': 118.71551650449116}, 'address': '月安街57-2号', 'province': '江苏省', 'city': '南京市', 'area': '建邺区', 'street_id': '2f8b3be875de805378f796ef', 'telephone': '13016979457', 'detail': 1, 'uid': '2f8b3be875de805378f796ef', 'detail_info': {'tag': '购物;商铺', 'type': 'shopping', 'detail_url': 'http://api.map.baidu.com/place/detail?uid=2f8b3be875de805378f796ef&output=html&source=placeapi_v2', 'children': [], 'lat': 32.02469469787965, 'lng': 118.71551650449116}}"
"{'name': '南京宁宝汽车服务有限公司(鼓楼分公司)', 'location': {'lat': 32.0410638710392, 'lng': 118.72352717159427}, 'address': '江苏省南京市鼓楼区汉中门大街309号', 'province': '江苏省', 'city': '南京市', 'area': '鼓楼区', 'street_id': '76f051911898a0eda8059d07', 'detail': 1, 'uid': '76f051911898a0eda8059d07', 'detail_info': {'tag': '汽车服务;汽车维修', 'navi_location': {'lng': 118.73532604574, 'lat': 32.0448486585}, 'type': 'life', 'detail_url': 'http://api.map.baidu.com/place/detail?uid=76f051911898a0eda8059d07&output=html&source=placeapi_v2', 'overall_rating': '4.1', 'image_num': '4', 'comment_num': '14', 'children': [], 'lat': 32.0410638710392, 'lng': 118.72352717159427}}"
"{'name': '南京利之星汽车销售服务有限公司河西分公司', 'location': {'lat': 32.041109651839804, 'lng': 118.72289254737541}, 'address': '南京市鼓楼区汉中门大街309号B栋一层', 'province': '江苏省', 'city': '南京市', 'area': '鼓楼区', 'street_id': '5b59c7053191b9f4e31103ca', 'telephone': '4008181188,(025)85550000', 'detail': 1, 'uid': '5b59c7053191b9f4e31103ca', 'detail_info': {'tag': '汽车服务;汽车销售', 'navi_location': {'lng': 118.73516503166, 'lat': 32.045283456131}, 'type': 'life', 'detail_url': 'http://api.map.baidu.com/place/detail?uid=5b59c7053191b9f4e31103ca&output=html&source=placeapi_v2', 'overall_rating': '5.0', 'image_num': '7', 'comment_num': '3', 'children': [], 'lat': 32.041109651839804, 'lng': 118.72289254737541}}"
"{'name': '鹰之翼汽车销售服务有限公司', 'location': {'lat': 32.04130448225596, 'lng': 118.72402108942104}, 'address': '江苏省南京市鼓楼区汉中门大街297号南50米', 'province': '江苏省', 'city': '南京市', 'area': '鼓楼区', 'telephone': '(025)52646452', 'detail': 1, 'uid': '18b5fcf72035f2deddee8b7d', 'detail_info': {'tag': '汽车服务;汽车销售', 'type': 'life', 'detail_url': 'http://api.map.baidu.com/place/detail?uid=18b5fcf72035f2deddee8b7d&output=html&source=placeapi_v2', 'overall_rating': '4.3', 'image_num': '9', 'comment_num': '3', 'children': [], 'lat': 32.04130448225596, 'lng': 118.72402108942104}}"
"{'name': '轮库汽车服务连锁(锦江路店)', 'location': {'lat': 32.04226383485241, 'lng': 118.72742930483986}, 'address': '江苏省南京市鼓楼区锦江路1号', 'province': '江苏省', 'city': '南京市', 'area': '鼓楼区', 'street_id': '3f2260db79e647c9a0d230e5', 'telephone': '(025)83615811', 'detail': 1, 'uid': '3f2260db79e647c9a0d230e5', 'detail_info': {'tag': '汽车服务;汽车维修', 'navi_location': {'lng': 118.73948576169, 'lat': 32.046040724854}, 'type': 'life', 'detail_url': 'http://api.map.baidu.com/place/detail?uid=3f2260db79e647c9a0d230e5&output=html&source=placeapi_v2', 'overall_rating': '4.3', 'image_num': '6', 'comment_num': '7', 'children': [], 'lat': 32.04226383485241, 'lng': 118.72742930483986}}"
"{'name': '勇亮轩汽车服务中心', 'location': {'lat': 32.04203503764618, 'lng': 118.72464806812927}, 'address': '汉中门大街418', 'province': '江苏省', 'city': '南京市', 'area': '鼓楼区', 'street_id': '4f3fc85874037645ae31e5e9', 'telephone': '13405813043', 'detail': 1, 'uid': '4f3fc85874037645ae31e5e9', 'detail_info': {'tag': '汽车服务;汽车美容', 'navi_location': {'lng': 118.73694714673, 'lat': 32.045490102725}, 'type': 'life', 'detail_url': 'http://api.map.baidu.com/place/detail?uid=4f3fc85874037645ae31e5e9&output=html&source=placeapi_v2', 'overall_rating': '4.0', 'image_num': '8', 'comment_num': '2', 'children': [], 'lat': 32.04203503764618, 'lng': 118.72464806812927}}"
"{'name': 'ASTONMARTIN', 'location': {'lat': 32.03394344443681, 'lng': 118.71700634705707}, 'address': '江苏省南京市鼓楼区集庆门大街272号苏宁慧谷E07', 'province': '江苏省', 'city': '南京市', 'area': '鼓楼区', 'street_id': '06edad761dcc19199df779eb', 'detail': 1, 'uid': '06edad761dcc19199df779eb', 'detail_info': {'tag': '汽车服务;汽车销售', 'navi_location': {'lng': 118.72916508477, 'lat': 32.037654961953}, 'type': 'life', 'detail_url': 'http://api.map.baidu.com/place/detail?uid=06edad761dcc19199df779eb&output=html&source=placeapi_v2', 'overall_rating': '5.0', 'image_num': '14', 'comment_num': '8', 'children': [], 'lat': 32.03394344443681, 'lng': 118.71700634705707}}"
"{'name': '蓝精灵车灯升级(清江路店)', 'location': {'lat': 32.042119793478605, 'lng': 118.7237342324392}, 'address': '汉中门大街432号', 'province': '江苏省', 'city': '南京市', 'area': '鼓楼区', 'street_id': '213447002ef767728a2fb533', 'telephone': '18913016786', 'detail': 1, 'uid': '213447002ef767728a2fb533', 'detail_info': {'tag': '汽车服务;汽车美容', 'navi_location': {'lng': 118.73567456133, 'lat': 32.045396260854}, 'type': 'life', 'detail_url': 'http://api.map.baidu.com/place/detail?uid=213447002ef767728a2fb533&output=html&source=placeapi_v2', 'overall_rating': '5.0', 'image_num': '24', 'comment_num': '2', 'children': [], 'lat': 32.042119793478605, 'lng': 118.7237342324392}}"
"{'name': '易自助24小时自助洗车', 'location': {'lat': 32.04291444671329, 'lng': 118.72542151113798}, 'address': '南京市鼓楼区清江路与汉中门大街交叉路口往北约50米(清河双语幼儿园西侧)', 'province': '江苏省', 'city': '南京市', 'area': '鼓楼区', 'street_id': 'fd36caddad3cb3ed980050fa', 'detail': 1, 'uid': 'fd36caddad3cb3ed980050fa', 'detail_info': {'tag': '汽车服务;汽车美容', 'navi_location': {'lng': 118.73713130744, 'lat': 32.046501806404}, 'type': 'life', 'detail_url': 'http://api.map.baidu.com/place/detail?uid=fd36caddad3cb3ed980050fa&output=html&source=placeapi_v2', 'image_num': '1', 'children': [], 'lat': 32.04291444671329, 'lng': 118.72542151113798}}"
"{'name': '奔驰4s店', 'location': {'lat': 32.041064659222585, 'lng': 118.72309381637179}, 'address': '江苏省南京市鼓楼区江东街道汉中门大街309号港湾中心b座奔驰4s店', 'province': '江苏省', 'city': '南京市', 'area': '鼓楼区', 'detail': 1, 'uid': '422ac53c22bd7cc88c55ec3c', 'detail_info': {'tag': '汽车服务;汽车销售', 'navi_location': {'lng': 118.73491857616, 'lat': 32.044837532819}, 'type': 'life', 'detail_url': 'http://api.map.baidu.com/place/detail?uid=422ac53c22bd7cc88c55ec3c&output=html&source=placeapi_v2', 'image_num': '1', 'children': [], 'lat': 32.041064659222585, 'lng': 118.72309381637179}}"
"{'name': '南京宁宝宝马河西展厅', 'location': {'lat': 32.04125335600055, 'lng': 118.72357876912207}, 'address': '江苏省南京市鼓楼区汉中门大街309号', 'province': '江苏省', 'city': '南京市', 'area': '鼓楼区', 'street_id': 'faa5b6bf6c71bdcddbd89141', 'telephone': '(025)83108123', 'detail': 1, 'uid': 'faa5b6bf6c71bdcddbd89141', 'detail_info': {'tag': '汽车服务;汽车销售', 'navi_location': {'lng': 118.73536814393, 'lat': 32.044939083117}, 'type': 'life', 'detail_url': 'http://api.map.baidu.com/place/detail?uid=faa5b6bf6c71bdcddbd89141&output=html&source=placeapi_v2', 'image_num': '1', 'children': [], 'lat': 32.04125335600055, 'lng': 118.72357876912207}}"
"{'name': '车游车友俱乐部', 'location': {'lat': 32.04215116247074, 'lng': 118.72345722892759}, 'address': '江苏省南京市鼓楼区汉中门大街436号', 'province': '江苏省', 'city': '南京市', 'area': '鼓楼区', 'street_id': '2b373efc187e6ea482288aef', 'detail': 1, 'uid': '2b373efc187e6ea482288aef', 'detail_info': {'tag': '汽车服务;其他', 'navi_location': {'lng': 118.73535067099, 'lat': 32.045399560364}, 'type': 'life', 'detail_url': 'http://api.map.baidu.com/place/detail?uid=2b373efc187e6ea482288aef&output=html&source=placeapi_v2', 'image_num': '8', 'children': [], 'lat': 32.04215116247074, 'lng': 118.72345722892759}}"
"{'name': 'Mercedes Benz', 'location': {'lat': 32.04110505076182, 'lng': 118.72313361848339}, 'address': '江苏省南京市鼓楼区汉中门大街301号东50米', 'province': '江苏省', 'city': '南京市', 'area': '鼓楼区', 'street_id': 'c360fef2af8638d8bb17e706', 'detail': 1, 'uid': 'c360fef2af8638d8bb17e706', 'detail_info': {'tag': '汽车服务;汽车销售', 'type': 'life', 'detail_url': 'http://api.map.baidu.com/place/detail?uid=c360fef2af8638d8bb17e706&output=html&source=placeapi_v2', 'image_num': '6', 'children': [], 'lat': 32.04110505076182, 'lng': 118.72313361848339}}"
"{'name': '小王货车汽车配件', 'location': {'lat': 32.037324454181466, 'lng': 118.71665565677813}, 'address': '江苏省南京市建邺区清河路9号', 'province': '江苏省', 'city': '南京市', 'area': '建邺区', 'telephone': '18052022341,15261887066', 'detail': 1, 'uid': 'cc1a1808f81a39038b2fb506', 'detail_info': {'tag': '汽车服务;汽车配件', 'type': 'life', 'detail_url': 'http://api.map.baidu.com/place/detail?uid=cc1a1808f81a39038b2fb506&output=html&source=placeapi_v2', 'overall_rating': '0.0', 'image_num': '1', 'comment_num': '1', 'children': [], 'lat': 32.037324454181466, 'lng': 118.71665565677813}}"
"{'name': '运通汽车玻璃(清江路店)', 'location': {'lat': 32.04361291536296, 'lng': 118.72548353755994}, 'address': '清河新寓一村47号102室', 'province': '江苏省', 'city': '南京市', 'area': '鼓楼区', 'street_id': 'd4dbedbe296cb2374f3a59e7', 'telephone': '(025)86553611,13921439263', 'detail': 1, 'uid': 'd4dbedbe296cb2374f3a59e7', 'detail_info': {'tag': '汽车服务;汽车配件', 'type': 'life', 'detail_url': 'http://api.map.baidu.com/place/detail?uid=d4dbedbe296cb2374f3a59e7&output=html&source=placeapi_v2', 'overall_rating': '0.0', 'image_num': '10', 'children': [], 'lat': 32.04361291536296, 'lng': 118.72548353755994}}"
"{'name': '小谢汽车服务部', 'location': {'lat': 32.04907130745074, 'lng': 118.72707386398059}, 'address': '江苏省南京市鼓楼区清凉门大街296号', 'province': '江苏省', 'city': '南京市', 'area': '鼓楼区', 'street_id': '5e698d3ad913d96aa0acc47c', 'telephone': '18913830558', 'detail': 1, 'uid': '5e698d3ad913d96aa0acc47c', 'detail_info': {'tag': '汽车服务;汽车美容', 'type': 'life', 'detail_url': 'http://api.map.baidu.com/place/detail?uid=5e698d3ad913d96aa0acc47c&output=html&source=placeapi_v2', 'overall_rating': '5.0', 'image_num': '9', 'comment_num': '5', 'children': [], 'lat': 32.04907130745074, 'lng': 118.72707386398059}}"
"{'name': '朗月车行(途虎养车店)', 'location': {'lat': 32.04514507659484, 'lng': 118.72304947287377}, 'address': '江苏省南京市鼓楼区东宝路11号临江新育1号', 'province': '江苏省', 'city': '南京市', 'area': '鼓楼区', 'street_id': '9642245d3a15b59adbd891e9', 'telephone': '13851885370', 'detail': 1, 'uid': '9642245d3a15b59adbd891e9', 'detail_info': {'tag': '汽车服务;汽车美容', 'navi_location': {'lng': 118.73498311941, 'lat': 32.048868385847}, 'type': 'life', 'detail_url': 'http://api.map.baidu.com/place/detail?uid=9642245d3a15b59adbd891e9&output=html&source=placeapi_v2', 'overall_rating': '3.7', 'image_num': '11', 'comment_num': '10', 'children': [], 'lat': 32.04514507659484, 'lng': 118.72304947287377}}"
"{'name': '苏友快修连锁(湘江路店)', 'location': {'lat': 32.051846131431155, 'lng': 118.72541302627543}, 'address': '南京市鼓楼区湘江路32号(近长阳花园北门)', 'province': '江苏省', 'city': '南京市', 'area': '鼓楼区', 'street_id': '037c6255f51b809d1e1d114e', 'telephone': '(025)86260811', 'detail': 1, 'uid': '037c6255f51b809d1e1d114e', 'detail_info': {'tag': '汽车服务;汽车维修', 'navi_location': {'lng': 118.73723522612, 'lat': 32.05539028208}, 'type': 'life', 'detail_url': 'http://api.map.baidu.com/place/detail?uid=037c6255f51b809d1e1d114e&output=html&source=placeapi_v2', 'price': '14', 'overall_rating': '3.8', 'image_num': '13', 'comment_num': '15', 'children': [], 'lat': 32.051846131431155, 'lng': 118.72541302627543}}"
"{'name': '鞍前马后汽车服务中心', 'location': {'lat': 32.05304573342019, 'lng': 118.72333616274601}, 'address': '滨江大道1号鞍前马后汽车服务中心', 'province': '江苏省', 'city': '南京市', 'area': '鼓楼区', 'detail': 1, 'uid': 'adf6214b7deed36ab1077d96', 'detail_info': {'tag': '汽车服务;汽车美容', 'type': 'life', 'detail_url': 'http://api.map.baidu.com/place/detail?uid=adf6214b7deed36ab1077d96&output=html&source=placeapi_v2', 'image_num': '1', 'children': [], 'lat': 32.05304573342019, 'lng': 118.72333616274601}}"
"{'name': '漆车人车友会(服务店)', 'location': {'lat': 32.049059347457785, 'lng': 118.72739001544689}, 'address': '江苏省南京市鼓楼区清凉门大街180号附近', 'province': '江苏省', 'city': '南京市', 'area': '鼓楼区', 'street_id': '2f7b1839091f972417b54bf1', 'telephone': '(025)66910707,13901582571', 'detail': 1, 'uid': '2f7b1839091f972417b54bf1', 'detail_info': {'tag': '汽车服务;汽车美容', 'navi_location': {'lng': 118.73920262747, 'lat': 32.052546514698}, 'type': 'life', 'detail_url': 'http://api.map.baidu.com/place/detail?uid=2f7b1839091f972417b54bf1&output=html&source=placeapi_v2', 'overall_rating': '3.0', 'image_num': '8', 'comment_num': '2', 'children': [], 'lat': 32.049059347457785, 'lng': 118.72739001544689}}"
"{'name': '南京双择汽车维修服务有限公司', 'location': {'lat': 32.04620967555019, 'lng': 118.72638888687173}, 'address': '江东街道东宝路18号福林驾校巷内100米', 'province': '江苏省', 'city': '南京市', 'area': '鼓楼区', 'street_id': 'a7565d6a21e55146f4e73bfa', 'telephone': '(025)86290061', 'detail': 1, 'uid': 'a7565d6a21e55146f4e73bfa', 'detail_info': {'tag': '汽车服务;汽车维修', 'navi_location': {'lng': 118.73794607593, 'lat': 32.049791406445}, 'type': 'life', 'detail_url': 'http://api.map.baidu.com/place/detail?uid=a7565d6a21e55146f4e73bfa&output=html&source=placeapi_v2', 'image_num': '3', 'children': [], 'lat': 32.04620967555019, 'lng': 118.72638888687173}}"
"{'name': '南京万泓汽车维修养护中心', 'location': {'lat': 32.049083992707146, 'lng': 118.72733413975045}, 'address': '清凉门大街296号苏宁馨瑰园1栋', 'province': '江苏省', 'city': '南京市', 'area': '鼓楼区', 'street_id': 'b5183fb71c3ec007441a3225', 'telephone': '13815881135', 'detail': 1, 'uid': 'b5183fb71c3ec007441a3225', 'detail_info': {'tag': '汽车服务;汽车维修', 'navi_location': {'lng': 118.73889860136, 'lat': 32.05256423204}, 'type': 'life', 'detail_url': 'http://api.map.baidu.com/place/detail?uid=b5183fb71c3ec007441a3225&output=html&source=placeapi_v2', 'overall_rating': '5.0', 'image_num': '10', 'comment_num': '5', 'children': [], 'lat': 32.049083992707146, 'lng': 118.72733413975045}}"
"{'name': '浩泽汽车美容馆', 'location': {'lat': 32.04911005263766, 'lng': 118.72659518134837}, 'address': '清凉门大街296号2幢4单元102门面房', 'province': '江苏省', 'city': '南京市', 'area': '鼓楼区', 'street_id': '6a310da6090649c59222e095', 'telephone': '18502520452', 'detail': 1, 'uid': '6a310da6090649c59222e095', 'detail_info': {'tag': '汽车服务;汽车美容', 'type': 'life', 'detail_url': 'http://api.map.baidu.com/place/detail?uid=6a310da6090649c59222e095&output=html&source=placeapi_v2', 'image_num': '1', 'children': [], 'lat': 32.04911005263766, 'lng': 118.72659518134837}}"
"{'name': '幼狮汽修', 'location': {'lat': 32.05184800720628, 'lng': 118.72565026488006}, 'address': '江东街道湘江路32号', 'province': '江苏省', 'city': '南京市', 'area': '鼓楼区', 'street_id': '48006c7f5d13551559bbbc6f', 'detail': 1, 'uid': '48006c7f5d13551559bbbc6f', 'detail_info': {'tag': '汽车服务;汽车维修', 'navi_location': {'lng': 118.73742563455, 'lat': 32.055373639758}, 'type': 'life', 'detail_url': 'http://api.map.baidu.com/place/detail?uid=48006c7f5d13551559bbbc6f&output=html&source=placeapi_v2', 'overall_rating': '0.0', 'image_num': '5', 'comment_num': '1', 'children': [], 'lat': 32.05184800720628, 'lng': 118.72565026488006}}"
"{'name': '腾达汽修有限公司', 'location': {'lat': 32.045518615094096, 'lng': 118.72383510726304}, 'address': '江苏省南京市鼓楼区东宝路82号', 'province': '江苏省', 'city': '南京市', 'area': '鼓楼区', 'detail': 1, 'uid': '7578cfd38aeda1b91ce999f6', 'detail_info': {'tag': '汽车服务;汽车维修', 'type': 'life', 'detail_url': 'http://api.map.baidu.com/place/detail?uid=7578cfd38aeda1b91ce999f6&output=html&source=placeapi_v2', 'overall_rating': '5.0', 'image_num': '3', 'comment_num': '2', 'children': [], 'lat': 32.045518615094096, 'lng': 118.72383510726304}}"
"{'name': 'XPEL贴膜专营店', 'location': {'lat': 32.04898505345299, 'lng': 118.72783193776569}, 'address': '江苏省南京市鼓楼区清凉门大街160号附近', 'province': '江苏省', 'city': '南京市', 'area': '鼓楼区', 'street_id': 'a8253cc40068978d430245ab', 'detail': 1, 'uid': 'a8253cc40068978d430245ab', 'detail_info': {'tag': '汽车服务;汽车美容', 'type': 'life', 'detail_url': 'http://api.map.baidu.com/place/detail?uid=a8253cc40068978d430245ab&output=html&source=placeapi_v2', 'image_num': '1', 'children': [], 'lat': 32.04898505345299, 'lng': 118.72783193776569}}"
"{'name': '快修哥德尔福汽车养护(幼狮店)', 'location': {'lat': 32.05184963266069, 'lng': 118.72560241522194}, 'address': '湘江路32号', 'province': '江苏省', 'city': '南京市', 'area': '鼓楼区', 'street_id': '3662bf4be8f21f8c17948ef0', 'detail': 1, 'uid': '3662bf4be8f21f8c17948ef0', 'detail_info': {'tag': '汽车服务;汽车美容', 'type': 'life', 'detail_url': 'http://api.map.baidu.com/place/detail?uid=3662bf4be8f21f8c17948ef0&output=html&source=placeapi_v2', 'overall_rating': '3.0', 'image_num': '8', 'comment_num': '2', 'children': [], 'lat': 32.05184963266069, 'lng': 118.72560241522194}}"
"{'name': '宝马良车汽车生活馆', 'location': {'lat': 32.04900391238484, 'lng': 118.72747983410605}, 'address': '南京市鼓楼区清凉门大街296号', 'province': '江苏省', 'city': '南京市', 'area': '鼓楼区', 'street_id': 'fa01e93710550a53774ff115', 'telephone': '13739182228,(025)86902710', 'detail': 1, 'uid': 'fa01e93710550a53774ff115', 'detail_info': {'tag': '汽车服务;汽车美容', 'type': 'life', 'detail_url': 'http://api.map.baidu.com/place/detail?uid=fa01e93710550a53774ff115&output=html&source=placeapi_v2', 'overall_rating': '4.0', 'image_num': '17', 'comment_num': '13', 'children': [], 'lat': 32.04900391238484, 'lng': 118.72747983410605}}"
"{'name': '京东京车会(骐亚店)', 'location': {'lat': 32.04512145867532, 'lng': 118.72371000274785}, 'address': '江苏省南京市鼓楼区东宝路11号', 'province': '江苏省', 'city': '南京市', 'area': '鼓楼区', 'telephone': '18105185999,(025)58905008', 'detail': 1, 'uid': '34570a6bbf2daec8a20464c9', 'detail_info': {'tag': '汽车服务;汽车美容', 'detail_url': 'http://api.map.baidu.com/place/detail?uid=34570a6bbf2daec8a20464c9&output=html&source=placeapi_v2', 'children': [], 'lat': 32.04512145867532, 'lng': 118.72371000274785}}"
"{'name': '众点德系车服务商(龙江店)', 'location': {'lat': 32.04513468977071, 'lng': 118.72341907361272}, 'address': '江苏省南京市鼓楼区东宝路11号', 'province': '江苏省', 'city': '南京市', 'area': '鼓楼区', 'telephone': '(025)57012486', 'detail': 1, 'uid': 'da9a18025bf18736626858f8', 'detail_info': {'tag': '汽车服务;汽车维修', 'type': 'life', 'detail_url': 'http://api.map.baidu.com/place/detail?uid=da9a18025bf18736626858f8&output=html&source=placeapi_v2', 'overall_rating': '0.0', 'image_num': '1', 'comment_num': '1', 'children': [], 'lat': 32.04513468977071, 'lng': 118.72341907361272}}"
"{'name': '南京利柏祥汽修', 'location': {'lat': 32.05203249952754, 'lng': 118.72508990234388}, 'address': '江苏省南京市鼓楼区湘江路32号五楼附近', 'province': '江苏省', 'city': '南京市', 'area': '鼓楼区', 'street_id': '62bd01d44da7aac94107c14e', 'detail': 1, 'uid': '62bd01d44da7aac94107c14e', 'detail_info': {'tag': '汽车服务;汽车维修', 'type': 'life', 'detail_url': 'http://api.map.baidu.com/place/detail?uid=62bd01d44da7aac94107c14e&output=html&source=placeapi_v2', 'image_num': '5', 'children': [], 'lat': 32.05203249952754, 'lng': 118.72508990234388}}"
"{'name': '美孚1号车养护(鹏达汽修店)', 'location': {'lat': 32.04551577798022, 'lng': 118.72374543958843}, 'address': '东宝路82号', 'province': '江苏省', 'city': '南京市', 'area': '鼓楼区', 'detail': 1, 'uid': '154ba4bd73b078f54f6d46af', 'detail_info': {'tag': '汽车服务;汽车美容', 'type': 'life', 'detail_url': 'http://api.map.baidu.com/place/detail?uid=154ba4bd73b078f54f6d46af&output=html&source=placeapi_v2', 'image_num': '1', 'children': [], 'lat': 32.04551577798022, 'lng': 118.72374543958843}}"
"{'name': '嘉实多润滑油(湘江路店)', 'location': {'lat': 32.05185760857608, 'lng': 118.72547282205237}, 'address': '江苏省南京市鼓楼区湘江路28号附近', 'province': '江苏省', 'city': '南京市', 'area': '鼓楼区', 'street_id': '8dbeea69a1ae780115764319', 'detail': 1, 'uid': '8dbeea69a1ae780115764319', 'detail_info': {'tag': '汽车服务;汽车配件', 'type': 'life', 'detail_url': 'http://api.map.baidu.com/place/detail?uid=8dbeea69a1ae780115764319&output=html&source=placeapi_v2', 'image_num': '3', 'children': [], 'lat': 32.05185760857608, 'lng': 118.72547282205237}}"
"{'name': '德仕养车', 'location': {'lat': 32.05927208865059, 'lng': 118.72590101140636}, 'address': '草场门大街155号', 'province': '江苏省', 'city': '南京市', 'area': '鼓楼区', 'street_id': '784d70d158a3e7c8f4c59cc9', 'telephone': '15851806984', 'detail': 1, 'uid': '784d70d158a3e7c8f4c59cc9', 'detail_info': {'tag': '汽车服务;汽车美容', 'type': 'life', 'detail_url': 'http://api.map.baidu.com/place/detail?uid=784d70d158a3e7c8f4c59cc9&output=html&source=placeapi_v2', 'image_num': '5', 'children': [], 'lat': 32.05927208865059, 'lng': 118.72590101140636}}"
"{'name': '南京市出租汽车综合服务中心', 'location': {'lat': 32.06615469833657, 'lng': 118.7261641921934}, 'address': '南京扬子江隧道与定淮门大街交叉口西南100米', 'province': '江苏省', 'city': '南京市', 'area': '鼓楼区', 'detail': 1, 'uid': '74274bc6ea3ac9ca5fbe8687', 'detail_info': {'tag': '汽车服务;汽车维修', 'type': 'life', 'detail_url': 'http://api.map.baidu.com/place/detail?uid=74274bc6ea3ac9ca5fbe8687&output=html&source=placeapi_v2', 'image_num': '1', 'children': [], 'lat': 32.06615469833657, 'lng': 118.7261641921934}}"
"{'name': '德国福斯守候者汽车维修中心', 'location': {'lat': 32.05921335505391, 'lng': 118.72554816592168}, 'address': '江苏省南京市鼓楼区江东街道扬子江大道华保新寓北门', 'province': '江苏省', 'city': '南京市', 'area': '鼓楼区', 'street_id': '52944ce120631fc4c056ac98', 'telephone': '(025)83203720', 'detail': 1, 'uid': '52944ce120631fc4c056ac98', 'detail_info': {'tag': '汽车服务;汽车维修', 'type': 'life', 'detail_url': 'http://api.map.baidu.com/place/detail?uid=52944ce120631fc4c056ac98&output=html&source=placeapi_v2', 'overall_rating': '0.0', 'image_num': '4', 'children': [], 'lat': 32.05921335505391, 'lng': 118.72554816592168}}"
"{'name': '江苏广太汽车服务有限公司', 'location': {'lat': 32.01076617319814, 'lng': 118.73875536722372}, 'address': '南京市建邺区黄山路29-1', 'province': '江苏省', 'city': '南京市', 'area': '建邺区', 'street_id': 'ab63e5e20cc8d8614afd3fb5', 'telephone': '(025)52411115,(025)86662107', 'detail': 1, 'uid': 'ab63e5e20cc8d8614afd3fb5', 'detail_info': {'tag': '汽车服务;汽车销售', 'navi_location': {'lng': 118.75040482955, 'lat': 32.01443472558}, 'type': 'life', 'detail_url': 'http://api.map.baidu.com/place/detail?uid=ab63e5e20cc8d8614afd3fb5&output=html&source=placeapi_v2', 'overall_rating': '3.3', 'image_num': '4', 'comment_num': '6', 'children': [], 'lat': 32.01076617319814, 'lng': 118.73875536722372}}"
"{'name': '车享家汽车服务中心(怡康路店)', 'location': {'lat': 32.01683595994265, 'lng': 118.74113693897425}, 'address': '南京市建邺区怡康街78号', 'province': '江苏省', 'city': '南京市', 'area': '建邺区', 'street_id': 'e3ee1c3d28bcaf818936ee03', 'telephone': '(025)85809621', 'detail': 1, 'uid': 'e3ee1c3d28bcaf818936ee03', 'detail_info': {'tag': '汽车服务;汽车美容', 'navi_location': {'lng': 118.75277928817, 'lat': 32.020362375008}, 'type': 'life', 'detail_url': 'http://api.map.baidu.com/place/detail?uid=e3ee1c3d28bcaf818936ee03&output=html&source=placeapi_v2', 'overall_rating': '4.2', 'image_num': '27', 'comment_num': '36', 'children': [], 'lat': 32.01683595994265, 'lng': 118.74113693897425}}"
"{'name': '南京中升之星汽车销售服务有限公司建邺分公司(建邺店)', 'location': {'lat': 32.01226396775131, 'lng': 118.73179551574599}, 'address': '南京市建邺区庐山路92号附6号', 'province': '江苏省', 'city': '南京市', 'area': '建邺区', 'street_id': '9d65508cfea251f5d1f49eb3', 'telephone': '(025)85660000', 'detail': 1, 'uid': '9d65508cfea251f5d1f49eb3', 'detail_info': {'tag': '汽车服务;汽车销售', 'navi_location': {'lng': 118.74381572271, 'lat': 32.016002309708}, 'type': 'life', 'detail_url': 'http://api.map.baidu.com/place/detail?uid=9d65508cfea251f5d1f49eb3&output=html&source=placeapi_v2', 'overall_rating': '2.5', 'image_num': '15', 'comment_num': '8', 'children': [], 'lat': 32.01226396775131, 'lng': 118.73179551574599}}"
"{'name': '驰加汽车服务中心(黄山路店)', 'location': {'lat': 32.016102257316135, 'lng': 118.74265569190064}, 'address': '南京市建邺区虹苑新寓五村3-1幢101室', 'province': '江苏省', 'city': '南京市', 'area': '建邺区', 'street_id': 'c8042782c54004d743ab9ab7', 'telephone': '(025)87787726', 'detail': 1, 'uid': 'c8042782c54004d743ab9ab7', 'detail_info': {'tag': '汽车服务;汽车美容', 'navi_location': {'lng': 118.75437313996, 'lat': 32.019644288728}, 'type': 'life', 'detail_url': 'http://api.map.baidu.com/place/detail?uid=c8042782c54004d743ab9ab7&output=html&source=placeapi_v2', 'overall_rating': '3.5', 'image_num': '8', 'comment_num': '4', 'children': [], 'lat': 32.016102257316135, 'lng': 118.74265569190064}}"
"{'name': '南京广运祥机动车交易市场', 'location': {'lat': 32.01325187685519, 'lng': 118.74054097522175}, 'address': '江苏省南京市建邺区黄山路29号', 'province': '江苏省', 'city': '南京市', 'area': '建邺区', 'street_id': 'a8d9643f1b59018e2d47335f', 'telephone': '15895834567', 'detail': 1, 'uid': 'a8d9643f1b59018e2d47335f', 'detail_info': {'tag': '汽车服务;汽车销售', 'navi_location': {'lng': 118.7523454129, 'lat': 32.016940633276}, 'type': 'life', 'detail_url': 'http://api.map.baidu.com/place/detail?uid=a8d9643f1b59018e2d47335f&output=html&source=placeapi_v2', 'overall_rating': '5.0', 'image_num': '19', 'comment_num': '1', 'children': [], 'lat': 32.01325187685519, 'lng': 118.74054097522175}}"
"{'name': '南京欣辉昌发汽车服务有限公司', 'location': {'lat': 32.01005899951078, 'lng': 118.7385061860704}, 'address': '江苏省南京市建邺区黄山路29-2号', 'province': '江苏省', 'city': '南京市', 'area': '建邺区', 'street_id': '745e159113917093283a9f66', 'detail': 1, 'uid': '4883b7e7ef8c69457d29bd9d', 'detail_info': {'tag': '汽车服务;汽车销售', 'type': 'life', 'detail_url': 'http://api.map.baidu.com/place/detail?uid=4883b7e7ef8c69457d29bd9d&output=html&source=placeapi_v2', 'image_num': '3', 'children': [], 'lat': 32.01005899951078, 'lng': 118.7385061860704}}"
"{'name': '途虎养车工场店(南京嵩山路店)', 'location': {'lat': 32.01453516848464, 'lng': 118.74397681363754}, 'address': '南京市建邺区嵩山路29号', 'province': '江苏省', 'city': '南京市', 'area': '建邺区', 'street_id': '74894faca67b1ccca8175ad1', 'telephone': '(025)58815808', 'detail': 1, 'uid': '74894faca67b1ccca8175ad1', 'detail_info': {'tag': '汽车服务;汽车美容', 'navi_location': {'lng': 118.75583876672, 'lat': 32.017981770773}, 'type': 'life', 'detail_url': 'http://api.map.baidu.com/place/detail?uid=74894faca67b1ccca8175ad1&output=html&source=placeapi_v2', 'overall_rating': '4.9', 'image_num': '7', 'comment_num': '15', 'children': [], 'lat': 32.01453516848464, 'lng': 118.74397681363754}}"
"{'name': '南京嘉喆汽车服务有限公司', 'location': {'lat': 32.01092707740964, 'lng': 118.7390205717205}, 'address': '江苏省南京市建邺区黄山路29-1号', 'province': '江苏省', 'city': '南京市', 'area': '建邺区', 'street_id': 'd82d669771e065a6d418b7b1', 'telephone': '15051888958,(025)86433241,(025)86433240', 'detail': 1, 'uid': 'd82d669771e065a6d418b7b1', 'detail_info': {'tag': '汽车服务;汽车销售', 'navi_location': {'lng': 118.75058764403, 'lat': 32.014401421601}, 'type': 'life', 'detail_url': 'http://api.map.baidu.com/place/detail?uid=d82d669771e065a6d418b7b1&output=html&source=placeapi_v2', 'overall_rating': '5.0', 'image_num': '10', 'comment_num': '3', 'children': [], 'lat': 32.01092707740964, 'lng': 118.7390205717205}}"
"{'name': '苏友快修连锁(黄山路店)', 'location': {'lat': 32.01441305207883, 'lng': 118.74151815564585}, 'address': '南京市建邺区黄山路21号', 'province': '江苏省', 'city': '南京市', 'area': '建邺区', 'street_id': '612d642641767ae997ec849a', 'telephone': '4007796069', 'detail': 1, 'uid': '612d642641767ae997ec849a', 'detail_info': {'tag': '汽车服务;汽车维修', 'navi_location': {'lng': 118.75309432391, 'lat': 32.018003184194}, 'type': 'life', 'detail_url': 'http://api.map.baidu.com/place/detail?uid=612d642641767ae997ec849a&output=html&source=placeapi_v2', 'overall_rating': '3.7', 'image_num': '22', 'comment_num': '24', 'children': [], 'lat': 32.01441305207883, 'lng': 118.74151815564585}}"
"{'name': '福明汽车维修服务中心', 'location': {'lat': 32.0075126083117, 'lng': 118.74205918813979}, 'address': '江苏省南京市建邺区新城科技园梦都大街10号', 'province': '江苏省', 'city': '南京市', 'area': '建邺区', 'street_id': '6abae5151123be6086330454', 'telephone': '(025)86615795', 'detail': 1, 'uid': '6abae5151123be6086330454', 'detail_info': {'tag': '汽车服务;汽车维修', 'navi_location': {'lng': 118.75395816683, 'lat': 32.01106703902}, 'type': 'life', 'detail_url': 'http://api.map.baidu.com/place/detail?uid=6abae5151123be6086330454&output=html&source=placeapi_v2', 'overall_rating': '4.0', 'image_num': '8', 'comment_num': '1', 'children': [], 'lat': 32.0075126083117, 'lng': 118.74205918813979}}"
"{'name': '南京长航汽车服务有限公司', 'location': {'lat': 32.01410614202937, 'lng': 118.74118671607647}, 'address': '江苏省南京市建邺区黄山路21号', 'province': '江苏省', 'city': '南京市', 'area': '建邺区', 'street_id': '0d84c326146323cd2fb9087c', 'telephone': '(025)83300345', 'detail': 1, 'uid': '0d84c326146323cd2fb9087c', 'detail_info': {'tag': '汽车服务;汽车销售', 'navi_location': {'lng': 118.75303800016, 'lat': 32.017551013701}, 'type': 'life', 'detail_url': 'http://api.map.baidu.com/place/detail?uid=0d84c326146323cd2fb9087c&output=html&source=placeapi_v2', 'overall_rating': '1.0', 'image_num': '9', 'comment_num': '1', 'children': [], 'lat': 32.01410614202937, 'lng': 118.74118671607647}}"
"{'name': '苏舜汽车生活馆(怡康街店)', 'location': {'lat': 32.01394580390136, 'lng': 118.7473791264205}, 'address': '江苏省南京市建邺区怡康街32', 'province': '江苏省', 'city': '南京市', 'area': '建邺区', 'street_id': 'ef6d7b0ee47ab33b220220fc', 'telephone': '(025)86302828', 'detail': 1, 'uid': 'ef6d7b0ee47ab33b220220fc', 'detail_info': {'tag': '汽车服务;汽车美容', 'navi_location': {'lng': 118.75906693177, 'lat': 32.017489306018}, 'type': 'life', 'detail_url': 'http://api.map.baidu.com/place/detail?uid=ef6d7b0ee47ab33b220220fc&output=html&source=placeapi_v2', 'overall_rating': '4.0', 'image_num': '16', 'comment_num': '25', 'children': [], 'lat': 32.01394580390136, 'lng': 118.7473791264205}}"
"{'name': '精武汽车服务中心', 'location': {'lat': 32.01753382476015, 'lng': 118.73936960399783}, 'address': '怡康街华隆新寓一栋', 'province': '江苏省', 'city': '南京市', 'area': '建邺区', 'street_id': '44d8bb3292c159bcbbbd6346', 'telephone': '(025)52620746', 'detail': 1, 'uid': '44d8bb3292c159bcbbbd6346', 'detail_info': {'tag': '汽车服务;汽车美容', 'type': 'life', 'detail_url': 'http://api.map.baidu.com/place/detail?uid=44d8bb3292c159bcbbbd6346&output=html&source=placeapi_v2', 'image_num': '9', 'children': [], 'lat': 32.01753382476015, 'lng': 118.73936960399783}}"
"{'name': '瑞狮龙标致雪铁龙汽车专业维(标致雪铁龙专修养护)', 'location': {'lat': 32.01657668989904, 'lng': 118.74163177245764}, 'address': '建邺区怡康街66号(靠近黄山路应天大街)', 'province': '江苏省', 'city': '南京市', 'area': '建邺区', 'street_id': 'f6484a6d567d8e9635b06c79', 'telephone': '4008083078', 'detail': 1, 'uid': 'f6484a6d567d8e9635b06c79', 'detail_info': {'tag': '汽车服务;汽车维修', 'navi_location': {'lng': 118.75336823253, 'lat': 32.020096030438}, 'type': 'life', 'detail_url': 'http://api.map.baidu.com/place/detail?uid=f6484a6d567d8e9635b06c79&output=html&source=placeapi_v2', 'overall_rating': '3.0', 'image_num': '16', 'comment_num': '6', 'children': [], 'lat': 32.01657668989904, 'lng': 118.74163177245764}}"
"{'name': '德美特汽修', 'location': {'lat': 32.01848114537792, 'lng': 118.73073657986167}, 'address': '江东中路158-1号', 'province': '江苏省', 'city': '南京市', 'area': '建邺区', 'street_id': '34059f976248145771455b10', 'detail': 1, 'uid': '34059f976248145771455b10', 'detail_info': {'tag': '汽车服务;汽车维修', 'navi_location': {'lng': 118.74277095297, 'lat': 32.022050257724}, 'type': 'life', 'detail_url': 'http://api.map.baidu.com/place/detail?uid=34059f976248145771455b10&output=html&source=placeapi_v2', 'overall_rating': '5.0', 'image_num': '23', 'comment_num': '8', 'children': [], 'lat': 32.01848114537792, 'lng': 118.73073657986167}}"
"{'name': '普得利快修连锁', 'location': {'lat': 32.01561516348329, 'lng': 118.74153590133741}, 'address': '新城科技园黄山路22号', 'province': '江苏省', 'city': '南京市', 'area': '建邺区', 'street_id': 'a979eae68017fcdd46e27486', 'telephone': '16639202123', 'detail': 1, 'uid': 'a979eae68017fcdd46e27486', 'detail_info': {'tag': '汽车服务;汽车维修', 'navi_location': {'lng': 118.75354710492, 'lat': 32.019100354925}, 'type': 'life', 'detail_url': 'http://api.map.baidu.com/place/detail?uid=a979eae68017fcdd46e27486&output=html&source=placeapi_v2', 'overall_rating': '5.0', 'image_num': '7', 'comment_num': '1', 'children': [], 'lat': 32.01561516348329, 'lng': 118.74153590133741}}"
"{'name': '南京河西保时捷中心', 'location': {'lat': 32.01896252199531, 'lng': 118.7305337265028}, 'address': '江苏省南京市建邺区江东中路156-2~156-6号', 'province': '江苏省', 'city': '南京市', 'area': '建邺区', 'street_id': '872946963b216b00aeb22a53', 'telephone': '(025)85208911', 'detail': 1, 'uid': '872946963b216b00aeb22a53', 'detail_info': {'tag': '汽车服务;汽车销售', 'navi_location': {'lng': 118.74269405892, 'lat': 32.022405654609}, 'type': 'life', 'detail_url': 'http://api.map.baidu.com/place/detail?uid=872946963b216b00aeb22a53&output=html&source=placeapi_v2', 'overall_rating': '5.0', 'image_num': '1', 'comment_num': '5', 'children': [], 'lat': 32.01896252199531, 'lng': 118.7305337265028}}"
"{'name': '海鹏汽修连锁(怡康街店)', 'location': {'lat': 32.01799124724421, 'lng': 118.73834764519125}, 'address': '江苏省南京市建邺区怡康街华隆新寓(兴达新寓东南100米)', 'province': '江苏省', 'city': '南京市', 'area': '建邺区', 'street_id': '607704256372da9cc336447e', 'detail': 1, 'uid': '607704256372da9cc336447e', 'detail_info': {'tag': '汽车服务;汽车维修', 'navi_location': {'lng': 118.75011401842, 'lat': 32.021580921593}, 'type': 'life', 'detail_url': 'http://api.map.baidu.com/place/detail?uid=607704256372da9cc336447e&output=html&source=placeapi_v2', 'overall_rating': '4.5', 'image_num': '11', 'comment_num': '2', 'children': [], 'lat': 32.01799124724421, 'lng': 118.73834764519125}}"
"{'name': 'NPC AUTO CLUB', 'location': {'lat': 32.01433016173682, 'lng': 118.74385758942769}, 'address': '江苏省南京市建邺区嵩山路29号', 'province': '江苏省', 'city': '南京市', 'area': '建邺区', 'street_id': 'f486b722912fef6b1f389415', 'telephone': '15651025886', 'detail': 1, 'uid': 'f486b722912fef6b1f389415', 'detail_info': {'tag': '汽车服务;汽车美容', 'navi_location': {'lng': 118.75577600391, 'lat': 32.017897922364}, 'type': 'life', 'detail_url': 'http://api.map.baidu.com/place/detail?uid=f486b722912fef6b1f389415&output=html&source=placeapi_v2', 'overall_rating': '4.6', 'image_num': '2', 'comment_num': '15', 'children': [], 'lat': 32.01433016173682, 'lng': 118.74385758942769}}"
"{'name': '黄山路29-1 满加汽修', 'location': {'lat': 32.01092794493239, 'lng': 118.73905059644459}, 'address': '江苏省南京市建邺区黄山路29号-1', 'province': '江苏省', 'city': '南京市', 'area': '建邺区', 'street_id': '82506bb449d485bac7f50d96', 'detail': 1, 'uid': '82506bb449d485bac7f50d96', 'detail_info': {'tag': '汽车服务;汽车维修', 'type': 'life', 'detail_url': 'http://api.map.baidu.com/place/detail?uid=82506bb449d485bac7f50d96&output=html&source=placeapi_v2', 'image_num': '2', 'children': [], 'lat': 32.01092794493239, 'lng': 118.73905059644459}}"
"{'name': '小桔养车(怡康街店)', 'location': {'lat': 32.01790316383751, 'lng': 118.7386208587966}, 'address': '江苏省南京市建邺区怡康街华隆新寓一村4幢1~2号门面', 'province': '江苏省', 'city': '南京市', 'area': '建邺区', 'street_id': '066c1806a26c69232ad7ab5c', 'telephone': '(025)84446062', 'detail': 1, 'uid': '066c1806a26c69232ad7ab5c', 'detail_info': {'tag': '汽车服务;其他', 'navi_location': {'lng': 118.75037772139, 'lat': 32.02143984955}, 'type': 'life', 'detail_url': 'http://api.map.baidu.com/place/detail?uid=066c1806a26c69232ad7ab5c&output=html&source=placeapi_v2', 'overall_rating': '4.8', 'image_num': '9', 'comment_num': '6', 'children': [], 'lat': 32.01790316383751, 'lng': 118.7386208587966}}"
"{'name': '南京齐天汽车维修服务有限公司(黄山路店)', 'location': {'lat': 32.017651540247364, 'lng': 118.74291066684664}, 'address': '黄山路29号', 'province': '江苏省', 'city': '南京市', 'area': '建邺区', 'street_id': 'f4e2afac903df20eb42655ef', 'telephone': '(025)86666556', 'detail': 1, 'uid': 'f4e2afac903df20eb42655ef', 'detail_info': {'tag': '汽车服务;汽车维修', 'navi_location': {'lng': 118.75491967442, 'lat': 32.021063218651}, 'type': 'life', 'detail_url': 'http://api.map.baidu.com/place/detail?uid=f4e2afac903df20eb42655ef&output=html&source=placeapi_v2', 'image_num': '6', 'children': [], 'lat': 32.017651540247364, 'lng': 118.74291066684664}}"
"{'name': '凯迪拉克精品店', 'location': {'lat': 32.01324204487116, 'lng': 118.72965006355854}, 'address': '南京市建邺区河西中央商务区江东中路225-2号', 'province': '江苏省', 'city': '南京市', 'area': '建邺区', 'street_id': 'cf84cff6fc02e961c356ac59', 'telephone': '(025)52795611', 'detail': 1, 'uid': 'cf84cff6fc02e961c356ac59', 'detail_info': {'tag': '汽车服务;汽车销售', 'type': 'life', 'detail_url': 'http://api.map.baidu.com/place/detail?uid=cf84cff6fc02e961c356ac59&output=html&source=placeapi_v2', 'overall_rating': '5.0', 'image_num': '7', 'comment_num': '2', 'children': [], 'lat': 32.01324204487116, 'lng': 118.72965006355854}}"
"{'name': '瓦尔塔蓄电池服务中心南京(优特福怡康街店)', 'location': {'lat': 32.017617592041475, 'lng': 118.73920742755885}, 'address': '南京市建邺区怡康街与恒山路交叉路口西北侧(华隆新寓)', 'province': '江苏省', 'city': '南京市', 'area': '建邺区', 'telephone': '(025)86306489', 'detail': 1, 'uid': '2e0e626a2cb3b6342902e11d', 'detail_info': {'tag': '汽车服务;汽车维修', 'type': 'life', 'detail_url': 'http://api.map.baidu.com/place/detail?uid=2e0e626a2cb3b6342902e11d&output=html&source=placeapi_v2', 'overall_rating': '5.0', 'image_num': '3', 'comment_num': '1', 'children': [], 'lat': 32.017617592041475, 'lng': 118.73920742755885}}"
"{'name': 'cacazy疯狂汽车美容中心', 'location': {'lat': 32.01063665501664, 'lng': 118.73887045523684}, 'address': '新城科技园黄山路29-1', 'province': '江苏省', 'city': '南京市', 'area': '建邺区', 'detail': 1, 'uid': '468ee818fb87d7019de32160', 'detail_info': {'tag': '汽车服务;汽车美容', 'type': 'life', 'detail_url': 'http://api.map.baidu.com/place/detail?uid=468ee818fb87d7019de32160&output=html&source=placeapi_v2', 'overall_rating': '5.0', 'image_num': '1', 'comment_num': '31', 'children': [], 'lat': 32.01063665501664, 'lng': 118.73887045523684}}"
"{'name': '海拉汽车服务中心', 'location': {'lat': 32.007955559310126, 'lng': 118.74194305632105}, 'address': '建邺区新城科技园泰山路10号', 'province': '江苏省', 'city': '南京市', 'area': '建邺区', 'street_id': '8cf58cfba2e706afad04572c', 'detail': 1, 'uid': '8cf58cfba2e706afad04572c', 'detail_info': {'tag': '汽车服务;汽车美容', 'type': 'life', 'detail_url': 'http://api.map.baidu.com/place/detail?uid=8cf58cfba2e706afad04572c&output=html&source=placeapi_v2', 'image_num': '7', 'children': [], 'lat': 32.007955559310126, 'lng': 118.74194305632105}}"
"{'name': '韩昌胜汽修', 'location': {'lat': 32.017431647466765, 'lng': 118.7396098712837}, 'address': '南京市建邺区怡康街与恒山路交叉路口西北侧(华隆新寓南侧)', 'province': '江苏省', 'city': '南京市', 'area': '建邺区', 'street_id': '1f5fdba8d7c49af5fda7784e', 'detail': 1, 'uid': '1f5fdba8d7c49af5fda7784e', 'detail_info': {'tag': '汽车服务;汽车维修', 'type': 'life', 'detail_url': 'http://api.map.baidu.com/place/detail?uid=1f5fdba8d7c49af5fda7784e&output=html&source=placeapi_v2', 'overall_rating': '5.0', 'image_num': '8', 'comment_num': '2', 'children': [], 'lat': 32.017431647466765, 'lng': 118.7396098712837}}"
"{'name': '南京苏锦汽车维修有限公司', 'location': {'lat': 32.01789160482666, 'lng': 118.74636796091426}, 'address': '应天大街100号', 'province': '江苏省', 'city': '南京市', 'area': '建邺区', 'street_id': '862fa98e32a6462d2bfc486f', 'telephone': '13801582518', 'detail': 1, 'uid': '862fa98e32a6462d2bfc486f', 'detail_info': {'tag': '汽车服务;汽车维修', 'navi_location': {'lng': 118.75830713779, 'lat': 32.021510033955}, 'type': 'life', 'detail_url': 'http://api.map.baidu.com/place/detail?uid=862fa98e32a6462d2bfc486f&output=html&source=placeapi_v2', 'image_num': '14', 'children': [], 'lat': 32.01789160482666, 'lng': 118.74636796091426}}"
"{'name': '晶汽轨汽车服务有限公司', 'location': {'lat': 32.01810931938821, 'lng': 118.73805943392318}, 'address': '南京市建邺区怡康街与庐山路交叉路口东侧(华隆新寓)', 'province': '江苏省', 'city': '南京市', 'area': '建邺区', 'detail': 1, 'uid': '301339e93ca46f5349fd3fb8', 'detail_info': {'tag': '汽车服务;汽车销售', 'type': 'life', 'detail_url': 'http://api.map.baidu.com/place/detail?uid=301339e93ca46f5349fd3fb8&output=html&source=placeapi_v2', 'image_num': '1', 'children': [], 'lat': 32.01810931938821, 'lng': 118.73805943392318}}"
"{'name': '老王专修保险杠', 'location': {'lat': 32.01566957680702, 'lng': 118.74348446788711}, 'address': '南苑街道虹苑五村1栋5单元门面店', 'province': '江苏省', 'city': '南京市', 'area': '建邺区', 'street_id': '5add245045b966950f0a7035', 'detail': 1, 'uid': '5add245045b966950f0a7035', 'detail_info': {'tag': '汽车服务;汽车维修', 'type': 'life', 'detail_url': 'http://api.map.baidu.com/place/detail?uid=5add245045b966950f0a7035&output=html&source=placeapi_v2', 'overall_rating': '4.5', 'image_num': '6', 'comment_num': '4', 'children': [], 'lat': 32.01566957680702, 'lng': 118.74348446788711}}"
"{'name': 'CarCrazy-疯狂汽车', 'location': {'lat': 32.01064622566191, 'lng': 118.73897053422225}, 'address': '黄山路29-1号', 'province': '江苏省', 'city': '南京市', 'area': '建邺区', 'telephone': '13770758168', 'detail': 1, 'uid': 'dbf009d297f170c7d03ce315', 'detail_info': {'tag': '汽车服务;其他', 'type': 'life', 'detail_url': 'http://api.map.baidu.com/place/detail?uid=dbf009d297f170c7d03ce315&output=html&source=placeapi_v2', 'overall_rating': '5.0', 'image_num': '1', 'comment_num': '2', 'children': [], 'lat': 32.01064622566191, 'lng': 118.73897053422225}}"
"{'name': '南京三信汽车服务有限公司', 'location': {'lat': 32.01331641113324, 'lng': 118.74079229444749}, 'address': '江苏省南京市建邺区黄山路29号', 'province': '江苏省', 'city': '南京市', 'area': '建邺区', 'detail': 1, 'uid': 'a2a356576ef8cd5b2a201ab0', 'detail_info': {'tag': '汽车服务;汽车销售', 'type': 'life', 'detail_url': 'http://api.map.baidu.com/place/detail?uid=a2a356576ef8cd5b2a201ab0&output=html&source=placeapi_v2', 'overall_rating': '0.0', 'image_num': '1', 'comment_num': '1', 'children': [], 'lat': 32.01331641113324, 'lng': 118.74079229444749}}"
"{'name': '苏锦汽修', 'location': {'lat': 32.007710080477544, 'lng': 118.74214136009466}, 'address': '江苏省南京市建邺区梦都大街10号附近', 'province': '江苏省', 'city': '南京市', 'area': '建邺区', 'street_id': '095de6513cb78ae0e956fa93', 'detail': 1, 'uid': '095de6513cb78ae0e956fa93', 'detail_info': {'tag': '汽车服务;汽车维修', 'navi_location': {'lng': 118.75407517202, 'lat': 32.011276672959}, 'type': 'life', 'detail_url': 'http://api.map.baidu.com/place/detail?uid=095de6513cb78ae0e956fa93&output=html&source=placeapi_v2', 'image_num': '4', 'children': [], 'lat': 32.007710080477544, 'lng': 118.74214136009466}}"
"{'name': '瓦尔塔力道', 'location': {'lat': 32.01759635850951, 'lng': 118.73925747951537}, 'address': '南京市建邺区怡康街与恒山路交叉路口西北侧(华隆新寓)', 'province': '江苏省', 'city': '南京市', 'area': '建邺区', 'detail': 1, 'uid': 'a01fbd5a514abb8d0482c2da', 'detail_info': {'tag': '汽车服务', 'type': 'life', 'detail_url': 'http://api.map.baidu.com/place/detail?uid=a01fbd5a514abb8d0482c2da&output=html&source=placeapi_v2', 'image_num': '1', 'children': [], 'lat': 32.01759635850951, 'lng': 118.73925747951537}}"
"{'name': '南京进化汽车性能中心', 'location': {'lat': 32.00804777499016, 'lng': 118.74147431321599}, 'address': '南京市建邺区泰山路10号', 'province': '江苏省', 'city': '南京市', 'area': '建邺区', 'street_id': 'aa4a833695b1a70d4bfc8dab', 'telephone': '18651656460', 'detail': 1, 'uid': 'aa4a833695b1a70d4bfc8dab', 'detail_info': {'tag': '汽车服务;汽车销售', 'type': 'life', 'detail_url': 'http://api.map.baidu.com/place/detail?uid=aa4a833695b1a70d4bfc8dab&output=html&source=placeapi_v2', 'image_num': '7', 'children': [], 'lat': 32.00804777499016, 'lng': 118.74147431321599}}"
"{'name': '瑞祥汽修服务', 'location': {'lat': 32.01752080462699, 'lng': 118.73958081027655}, 'address': '江苏省南京市建邺区华隆新寓一村02幢(怡康街北)', 'province': '江苏省', 'city': '南京市', 'area': '建邺区', 'street_id': '22df2296a4fc08f7f8f0cb45', 'telephone': '15150513161', 'detail': 1, 'uid': '22df2296a4fc08f7f8f0cb45', 'detail_info': {'tag': '汽车服务;汽车维修', 'type': 'life', 'detail_url': 'http://api.map.baidu.com/place/detail?uid=22df2296a4fc08f7f8f0cb45&output=html&source=placeapi_v2', 'overall_rating': '5.0', 'image_num': '6', 'comment_num': '3', 'children': [], 'lat': 32.01752080462699, 'lng': 118.73958081027655}}"
"{'name': '铂利行名车汇', 'location': {'lat': 32.012966885878804, 'lng': 118.74102966918873}, 'address': '黄山路29号广运祥机动车交易市场A7区', 'province': '江苏省', 'city': '南京市', 'area': '建邺区', 'telephone': '18652055030', 'detail': 1, 'uid': '90d1ad3c1652867feb1e973d', 'detail_info': {'tag': '汽车服务;汽车销售', 'type': 'life', 'detail_url': 'http://api.map.baidu.com/place/detail?uid=90d1ad3c1652867feb1e973d&output=html&source=placeapi_v2', 'image_num': '1', 'children': [], 'lat': 32.012966885878804, 'lng': 118.74102966918873}}"
"{'name': '康众汽车配件(怡康店)', 'location': {'lat': 32.01668839454691, 'lng': 118.7413773424258}, 'address': '南京市建邺区怡康街70号', 'province': '江苏省', 'city': '南京市', 'area': '建邺区', 'street_id': '0e47787bcd079a4082288a32', 'telephone': '(025)83218489', 'detail': 1, 'uid': '0e47787bcd079a4082288a32', 'detail_info': {'tag': '汽车服务;汽车配件', 'type': 'life', 'detail_url': 'http://api.map.baidu.com/place/detail?uid=0e47787bcd079a4082288a32&output=html&source=placeapi_v2', 'overall_rating': '5.0', 'image_num': '11', 'comment_num': '1', 'children': [], 'lat': 32.01668839454691, 'lng': 118.7413773424258}}"
"{'name': '浩芯宇汽修', 'location': {'lat': 32.01756538603235, 'lng': 118.73925048466508}, 'address': '怡康街华隆新寓3栋门面', 'province': '江苏省', 'city': '南京市', 'area': '建邺区', 'street_id': '56ac7f44e3acc8be095cb306', 'detail': 1, 'uid': '56ac7f44e3acc8be095cb306', 'detail_info': {'tag': '汽车服务;汽车维修', 'type': 'life', 'detail_url': 'http://api.map.baidu.com/place/detail?uid=56ac7f44e3acc8be095cb306&output=html&source=placeapi_v2', 'image_num': '10', 'children': [], 'lat': 32.01756538603235, 'lng': 118.73925048466508}}"
"{'name': '南京汽车过户服务', 'location': {'lat': 32.01820072759343, 'lng': 118.74223420012277}, 'address': '江苏省南京市建邺区黄山路2号', 'province': '江苏省', 'city': '南京市', 'area': '建邺区', 'detail': 1, 'uid': '98c1888c17440de69f09f783', 'detail_info': {'tag': '汽车服务;其他', 'type': 'life', 'detail_url': 'http://api.map.baidu.com/place/detail?uid=98c1888c17440de69f09f783&output=html&source=placeapi_v2', 'overall_rating': '5.0', 'comment_num': '2', 'children': [], 'lat': 32.01820072759343, 'lng': 118.74223420012277}}"
"{'name': '平佳汽车维修', 'location': {'lat': 32.01648556278356, 'lng': 118.74179506401819}, 'address': '江苏省南京市建邺区怡康街62附近', 'province': '江苏省', 'city': '南京市', 'area': '建邺区', 'street_id': 'e4bffeb18e72a7b4a8175ab8', 'telephone': '13222075222', 'detail': 1, 'uid': 'e4bffeb18e72a7b4a8175ab8', 'detail_info': {'tag': '汽车服务;汽车维修', 'type': 'life', 'detail_url': 'http://api.map.baidu.com/place/detail?uid=e4bffeb18e72a7b4a8175ab8&output=html&source=placeapi_v2', 'image_num': '3', 'children': [], 'lat': 32.01648556278356, 'lng': 118.74179506401819}}"
"{'name': '完美服务中心', 'location': {'lat': 32.01562431765627, 'lng': 118.7436337985845}, 'address': '南京市建邺区怡康街与嵩山路交叉路口往西北约50米(虹苑新寓五村)', 'province': '江苏省', 'city': '南京市', 'area': '建邺区', 'street_id': '67b60bcd2c171d8b6b49f32f', 'detail': 1, 'uid': '67b60bcd2c171d8b6b49f32f', 'detail_info': {'tag': '汽车服务;汽车美容', 'type': 'life', 'detail_url': 'http://api.map.baidu.com/place/detail?uid=67b60bcd2c171d8b6b49f32f&output=html&source=placeapi_v2', 'overall_rating': '0.0', 'image_num': '5', 'comment_num': '1', 'children': [], 'lat': 32.01562431765627, 'lng': 118.7436337985845}}"
"{'name': '街电(南京中升之星汽车销售服务有限公司建邺分公司)', 'location': {'lat': 32.012320195960086, 'lng': 118.73188938224013}, 'address': '南京市建邺区庐山路92号-6号', 'province': '江苏省', 'city': '南京市', 'area': '建邺区', 'detail': 1, 'uid': '1acd9a05f2132a97ce04efd7', 'detail_info': {'tag': '汽车服务;汽车销售', 'type': 'life', 'detail_url': 'http://api.map.baidu.com/place/detail?uid=1acd9a05f2132a97ce04efd7&output=html&source=placeapi_v2', 'image_num': '1', 'children': [], 'lat': 32.012320195960086, 'lng': 118.73188938224013}}"
"{'name': '南京中升·河西展厅', 'location': {'lat': 32.012205921508055, 'lng': 118.73178154016922}, 'address': '南京市建邺区庐山路92-6号', 'province': '江苏省', 'city': '南京市', 'area': '建邺区', 'detail': 1, 'uid': '370e6d5ede3c7a8ff503b820', 'detail_info': {'tag': '汽车服务;汽车销售', 'type': 'life', 'detail_url': 'http://api.map.baidu.com/place/detail?uid=370e6d5ede3c7a8ff503b820&output=html&source=placeapi_v2', 'image_num': '1', 'children': [], 'lat': 32.012205921508055, 'lng': 118.73178154016922}}"
"{'name': '肖汽修汽配', 'location': {'lat': 32.01569273920846, 'lng': 118.74346542145058}, 'address': '江苏省南京市建邺区应天西路黄山路9号(近虹苑新寓五村黄山路)', 'province': '江苏省', 'city': '南京市', 'area': '建邺区', 'street_id': '24270870fdf2ec698f1a891f', 'detail': 1, 'uid': '24270870fdf2ec698f1a891f', 'detail_info': {'tag': '汽车服务;汽车维修', 'type': 'life', 'detail_url': 'http://api.map.baidu.com/place/detail?uid=24270870fdf2ec698f1a891f&output=html&source=placeapi_v2', 'overall_rating': '0.0', 'image_num': '13', 'children': [], 'lat': 32.01569273920846, 'lng': 118.74346542145058}}"
"{'name': '途虎养车认证店(南京市建邺区黄山路店)', 'location': {'lat': 32.01060618656805, 'lng': 118.73874235855371}, 'address': '江苏省南京市建邺区黄山路29-1号', 'province': '江苏省', 'city': '南京市', 'area': '建邺区', 'street_id': 'e0e969e0a31f1b2b990050d6', 'telephone': '4001118868', 'detail': 1, 'uid': 'e0e969e0a31f1b2b990050d6', 'detail_info': {'tag': '汽车服务;其他', 'type': 'life', 'detail_url': 'http://api.map.baidu.com/place/detail?uid=e0e969e0a31f1b2b990050d6&output=html&source=placeapi_v2', 'image_num': '1', 'children': [], 'lat': 32.01060618656805, 'lng': 118.73874235855371}}"
"{'name': '大师钣喷', 'location': {'lat': 32.01777483042479, 'lng': 118.74261605805316}, 'address': '新城科技园黄山路2号', 'province': '江苏省', 'city': '南京市', 'area': '建邺区', 'detail': 1, 'uid': '998b8eb9f5c13dafaecb6638', 'detail_info': {'tag': '汽车服务;汽车维修', 'type': 'life', 'detail_url': 'http://api.map.baidu.com/place/detail?uid=998b8eb9f5c13dafaecb6638&output=html&source=placeapi_v2', 'image_num': '2', 'children': [], 'lat': 32.01777483042479, 'lng': 118.74261605805316}}"
"{'name': '德国喜力魔杰世汽车会所', 'location': {'lat': 32.010644338328014, 'lng': 118.73894451339527}, 'address': '新城科技园黄山路29号一1', 'province': '江苏省', 'city': '南京市', 'area': '建邺区', 'street_id': '971f6d3cd426452714c8f635', 'detail': 1, 'uid': '971f6d3cd426452714c8f635', 'detail_info': {'tag': '汽车服务;汽车美容', 'type': 'life', 'detail_url': 'http://api.map.baidu.com/place/detail?uid=971f6d3cd426452714c8f635&output=html&source=placeapi_v2', 'image_num': '2', 'children': [], 'lat': 32.010644338328014, 'lng': 118.73894451339527}}"
"{'name': '江苏华海卡迪汽车销售有限公司', 'location': {'lat': 32.01324625147074, 'lng': 118.72969796618177}, 'address': '江东中路225号-2', 'province': '江苏省', 'city': '南京市', 'area': '建邺区', 'telephone': '(025)52803162', 'detail': 1, 'uid': 'df2b8b7aa52b9e452afc4872', 'detail_info': {'tag': '汽车服务;汽车销售', 'type': 'life', 'detail_url': 'http://api.map.baidu.com/place/detail?uid=df2b8b7aa52b9e452afc4872&output=html&source=placeapi_v2', 'image_num': '1', 'children': [], 'lat': 32.01324625147074, 'lng': 118.72969796618177}}"
"{'name': 'Mobil1车养护', 'location': {'lat': 32.017528076219236, 'lng': 118.74283957425651}, 'address': '江苏省南京市建邺区黄山路14号西60米', 'province': '江苏省', 'city': '南京市', 'area': '建邺区', 'street_id': '2349d68ae7d281abc17da273', 'detail': 1, 'uid': '2349d68ae7d281abc17da273', 'detail_info': {'tag': '汽车服务;汽车美容', 'type': 'life', 'detail_url': 'http://api.map.baidu.com/place/detail?uid=2349d68ae7d281abc17da273&output=html&source=placeapi_v2', 'image_num': '3', 'children': [], 'lat': 32.017528076219236, 'lng': 118.74283957425651}}"
"{'name': '上海利真汽车服务咨询有限公司(南京分公司)', 'location': {'lat': 32.016965584747574, 'lng': 118.73166270099243}, 'address': '江苏省南京市建邺区江东中路凤凰文化广场B座1406~1407室', 'province': '江苏省', 'city': '南京市', 'area': '建邺区', 'detail': 1, 'uid': '98df92eae2943743aecb6600', 'detail_info': {'tag': '公司企业;公司', 'type': 'life', 'detail_url': 'http://api.map.baidu.com/place/detail?uid=98df92eae2943743aecb6600&output=html&source=placeapi_v2', 'image_num': '1', 'children': [], 'lat': 32.016965584747574, 'lng': 118.73166270099243}}"
"{'name': '南京培宇汽配', 'location': {'lat': 32.01318475413298, 'lng': 118.74290579931419}, 'address': '新城科技园黄山路19号苏建艳阳居南门', 'province': '江苏省', 'city': '南京市', 'area': '建邺区', 'street_id': 'b3bdb838f9e75d4c0bf5eb65', 'telephone': '15295513580', 'detail': 1, 'uid': 'b3bdb838f9e75d4c0bf5eb65', 'detail_info': {'tag': '汽车服务;汽车配件', 'type': 'life', 'detail_url': 'http://api.map.baidu.com/place/detail?uid=b3bdb838f9e75d4c0bf5eb65&output=html&source=placeapi_v2', 'image_num': '11', 'children': [], 'lat': 32.01318475413298, 'lng': 118.74290579931419}}"
"{'name': '韩泰轮胎(金沙江东街店)', 'location': {'lat': 32.018692704589675, 'lng': 118.7434062544942}, 'address': '金沙江东街26号-126号-1', 'province': '江苏省', 'city': '南京市', 'area': '建邺区', 'detail': 1, 'uid': 'beb0950a289efb3eb9df8f0a', 'detail_info': {'tag': '汽车服务;汽车配件', 'type': 'life', 'detail_url': 'http://api.map.baidu.com/place/detail?uid=beb0950a289efb3eb9df8f0a&output=html&source=placeapi_v2', 'image_num': '1', 'children': [], 'lat': 32.018692704589675, 'lng': 118.7434062544942}}"
"{'name': '嘉实多', 'location': {'lat': 32.0142979052561, 'lng': 118.74138497417933}, 'address': '江苏省南京市建邺区黄山路21号附近', 'province': '江苏省', 'city': '南京市', 'area': '建邺区', 'street_id': '7c78e0d80e23e391d0ff2346', 'detail': 1, 'uid': '7c78e0d80e23e391d0ff2346', 'detail_info': {'tag': '汽车服务;汽车配件', 'type': 'life', 'detail_url': 'http://api.map.baidu.com/place/detail?uid=7c78e0d80e23e391d0ff2346&output=html&source=placeapi_v2', 'image_num': '3', 'children': [], 'lat': 32.0142979052561, 'lng': 118.74138497417933}}"
"{'name': '南京沃维德贸易有限公司', 'location': {'lat': 32.01608669510188, 'lng': 118.74272883468396}, 'address': '黄山路15号', 'province': '江苏省', 'city': '南京市', 'area': '建邺区', 'street_id': '6969374830c1be4b35b06c0f', 'telephone': '(025)87787726', 'detail': 1, 'uid': '6969374830c1be4b35b06c0f', 'detail_info': {'tag': '公司企业;公司', 'type': 'enterprise', 'detail_url': 'http://api.map.baidu.com/place/detail?uid=6969374830c1be4b35b06c0f&output=html&source=placeapi_v2', 'overall_rating': '1.0', 'comment_num': '1', 'children': [], 'lat': 32.01608669510188, 'lng': 118.74272883468396}}"
"{'name': '华隆新寓速递易', 'location': {'lat': 32.018216311346336, 'lng': 118.73883789501771}, 'address': '新城科技园应天西路华隆新寓17栋', 'province': '江苏省', 'city': '南京市', 'area': '建邺区', 'detail': 1, 'uid': '42162fb9d5581532a5da3920', 'detail_info': {'detail_url': 'http://api.map.baidu.com/place/detail?uid=42162fb9d5581532a5da3920&output=html&source=placeapi_v2', 'children': [], 'lat': 32.018216311346336, 'lng': 118.73883789501771}}"
"{'name': '洗车点', 'location': {'lat': 32.02153420133377, 'lng': 118.73589935990869}, 'address': '江苏省南京市建邺区云锦路155号', 'province': '江苏省', 'city': '南京市', 'area': '建邺区', 'street_id': 'c5c4834a2b831eb67f29bd74', 'detail': 1, 'uid': 'c5c4834a2b831eb67f29bd74', 'detail_info': {'tag': '汽车服务;汽车美容', 'navi_location': {'lng': 118.74720397389, 'lat': 32.025010390972}, 'type': 'life', 'detail_url': 'http://api.map.baidu.com/place/detail?uid=c5c4834a2b831eb67f29bd74&output=html&source=placeapi_v2', 'overall_rating': '4.5', 'image_num': '1', 'comment_num': '3', 'children': [], 'lat': 32.02153420133377, 'lng': 118.73589935990869}}"
"{'name': '福德汽车美容装饰生活馆', 'location': {'lat': 32.02584197705406, 'lng': 118.7279301907135}, 'address': '燕山路128-5号', 'province': '江苏省', 'city': '南京市', 'area': '建邺区', 'street_id': 'ed8e622a28ea4a8f1f3894dd', 'telephone': '13655164723,(025)86465765', 'detail': 1, 'uid': 'ed8e622a28ea4a8f1f3894dd', 'detail_info': {'tag': '汽车服务;汽车美容', 'navi_location': {'lng': 118.73976279013, 'lat': 32.029390119364}, 'type': 'life', 'detail_url': 'http://api.map.baidu.com/place/detail?uid=ed8e622a28ea4a8f1f3894dd&output=html&source=placeapi_v2', 'overall_rating': '3.6', 'image_num': '17', 'comment_num': '10', 'children': [], 'lat': 32.02584197705406, 'lng': 118.7279301907135}}"
"{'name': '瑞晟鑫汽车服务有限公司', 'location': {'lat': 32.022766070628, 'lng': 118.74498777392999}, 'address': '江苏省南京市建邺区所街74号附近', 'province': '江苏省', 'city': '南京市', 'area': '建邺区', 'street_id': '7e0bad0c509c8b24c909f0a3', 'detail': 1, 'uid': '7e0bad0c509c8b24c909f0a3', 'detail_info': {'tag': '汽车服务;汽车销售', 'type': 'life', 'detail_url': 'http://api.map.baidu.com/place/detail?uid=7e0bad0c509c8b24c909f0a3&output=html&source=placeapi_v2', 'overall_rating': '5.0', 'image_num': '2', 'comment_num': '1', 'children': [], 'lat': 32.022766070628, 'lng': 118.74498777392999}}"
"{'name': '文铭汽车服务', 'location': {'lat': 32.0264135504838, 'lng': 118.7280235196721}, 'address': '燕山路128号停车场', 'province': '江苏省', 'city': '南京市', 'area': '建邺区', 'street_id': '071c075197669461725e8020', 'detail': 1, 'uid': '071c075197669461725e8020', 'detail_info': {'tag': '汽车服务;汽车销售', 'navi_location': {'lng': 118.73990516796, 'lat': 32.030022521195}, 'type': 'life', 'detail_url': 'http://api.map.baidu.com/place/detail?uid=071c075197669461725e8020&output=html&source=placeapi_v2', 'image_num': '6', 'children': [], 'lat': 32.0264135504838, 'lng': 118.7280235196721}}"
"{'name': '南京中北股份有限公司汽车销售分公司', 'location': {'lat': 32.023757400301264, 'lng': 118.72820298854865}, 'address': '南京市建邺区应天大街927号', 'province': '江苏省', 'city': '南京市', 'area': '建邺区', 'street_id': '2b3699254acfc01b2cb17ea0', 'telephone': '(025)86383663', 'detail': 1, 'uid': '2b3699254acfc01b2cb17ea0', 'detail_info': {'tag': '汽车服务;汽车销售', 'navi_location': {'lng': 118.73978529897, 'lat': 32.027427834059}, 'type': 'life', 'detail_url': 'http://api.map.baidu.com/place/detail?uid=2b3699254acfc01b2cb17ea0&output=html&source=placeapi_v2', 'overall_rating': '4.0', 'image_num': '11', 'comment_num': '3', 'children': [], 'lat': 32.023757400301264, 'lng': 118.72820298854865}}"
"{'name': '3X汽车服务俱乐部', 'location': {'lat': 32.02389562620212, 'lng': 118.73135863468262}, 'address': '南京市建邺区应天大街与江东中路交叉路口往西北约50米(泰达新寓)', 'province': '江苏省', 'city': '南京市', 'area': '建邺区', 'street_id': '0fac8ab52c7c3f18abf72985', 'detail': 1, 'uid': '0fac8ab52c7c3f18abf72985', 'detail_info': {'tag': '汽车服务;汽车美容', 'type': 'life', 'detail_url': 'http://api.map.baidu.com/place/detail?uid=0fac8ab52c7c3f18abf72985&output=html&source=placeapi_v2', 'overall_rating': '4.8', 'image_num': '6', 'comment_num': '5', 'children': [], 'lat': 32.02389562620212, 'lng': 118.73135863468262}}"
"{'name': '车享家汽车服务中心(南京南湖路店)', 'location': {'lat': 32.02385495149545, 'lng': 118.7474821758911}, 'address': '南京市建邺区南湖路26号1楼', 'province': '江苏省', 'city': '南京市', 'area': '建邺区', 'street_id': '986ea6a6c99f59b04c3a59ba', 'detail': 1, 'uid': '986ea6a6c99f59b04c3a59ba', 'detail_info': {'tag': '汽车服务;汽车美容', 'navi_location': {'lng': 118.7593096126, 'lat': 32.027363971477}, 'type': 'life', 'detail_url': 'http://api.map.baidu.com/place/detail?uid=986ea6a6c99f59b04c3a59ba&output=html&source=placeapi_v2', 'price': '500.0', 'overall_rating': '4.6', 'image_num': '8', 'comment_num': '38', 'children': [], 'lat': 32.02385495149545, 'lng': 118.7474821758911}}"
"{'name': '车亿汽车服务中心', 'location': {'lat': 32.026484028784914, 'lng': 118.74414715251223}, 'address': '南京市建邺区厂圩街与康泰街交叉路口东南侧(安如村)', 'province': '江苏省', 'city': '南京市', 'area': '建邺区', 'detail': 1, 'uid': '441f0285b28f3c829d9d68c6', 'detail_info': {'tag': '汽车服务;汽车美容', 'type': 'life', 'detail_url': 'http://api.map.baidu.com/place/detail?uid=441f0285b28f3c829d9d68c6&output=html&source=placeapi_v2', 'image_num': '1', 'children': [], 'lat': 32.026484028784914, 'lng': 118.74414715251223}}"
"{'name': '龙卡洗车(所街店)', 'location': {'lat': 32.022826741454665, 'lng': 118.74470503422516}, 'address': '江苏省南京市建邺区所街76号附近', 'province': '江苏省', 'city': '南京市', 'area': '建邺区', 'street_id': '964c55d618020bd3118824d7', 'detail': 1, 'uid': '964c55d618020bd3118824d7', 'detail_info': {'tag': '汽车服务;汽车美容', 'navi_location': {'lng': 118.75654084727, 'lat': 32.026290826747}, 'type': 'life', 'detail_url': 'http://api.map.baidu.com/place/detail?uid=964c55d618020bd3118824d7&output=html&source=placeapi_v2', 'overall_rating': '1.0', 'image_num': '1', 'comment_num': '3', 'children': [], 'lat': 32.022826741454665, 'lng': 118.74470503422516}}"
"{'name': '宝驰汽车服务养护中心(途虎所街店)', 'location': {'lat': 32.02300804806184, 'lng': 118.74445632110645}, 'address': '南苑街道所街八十四号', 'province': '江苏省', 'city': '南京市', 'area': '建邺区', 'street_id': 'ade5e4c14a0daf8c0e3ddae7', 'telephone': '13952051770', 'detail': 1, 'uid': 'ade5e4c14a0daf8c0e3ddae7', 'detail_info': {'tag': '汽车服务;汽车美容', 'type': 'life', 'detail_url': 'http://api.map.baidu.com/place/detail?uid=ade5e4c14a0daf8c0e3ddae7&output=html&source=placeapi_v2', 'overall_rating': '3.2', 'image_num': '19', 'comment_num': '4', 'children': [], 'lat': 32.02300804806184, 'lng': 118.74445632110645}}"
"{'name': '南京瑞可为汽车服务中心(途虎养车店)', 'location': {'lat': 32.02237780265751, 'lng': 118.74582220696604}, 'address': '江苏省南京市建邺区所街70号', 'province': '江苏省', 'city': '南京市', 'area': '建邺区', 'street_id': '3abc580f11f1f1eb4354d76f', 'telephone': '15261881818', 'detail': 1, 'uid': '3abc580f11f1f1eb4354d76f', 'detail_info': {'tag': '汽车服务;汽车美容', 'navi_location': {'lng': 118.75735454229, 'lat': 32.025943627208}, 'type': 'life', 'detail_url': 'http://api.map.baidu.com/place/detail?uid=3abc580f11f1f1eb4354d76f&output=html&source=placeapi_v2', 'overall_rating': '4.5', 'image_num': '13', 'comment_num': '2', 'children': [], 'lat': 32.02237780265751, 'lng': 118.74582220696604}}"
"{'name': '神州租车(兴隆大街月安店)', 'location': {'lat': 32.0205554100734, 'lng': 118.73104909945032}, 'address': '南京市建邺区江东中路月安街1号', 'province': '江苏省', 'city': '南京市', 'area': '建邺区', 'street_id': 'd51d1f37a039f71aa3acc482', 'telephone': '(025)85319916', 'detail': 1, 'uid': 'd51d1f37a039f71aa3acc482', 'detail_info': {'tag': '汽车服务;汽车租赁', 'navi_location': {'lng': 118.74293690773, 'lat': 32.024194561599}, 'type': 'life', 'detail_url': 'http://api.map.baidu.com/place/detail?uid=d51d1f37a039f71aa3acc482&output=html&source=placeapi_v2', 'overall_rating': '4.7', 'image_num': '10', 'comment_num': '6', 'children': [], 'lat': 32.0205554100734, 'lng': 118.73104909945032}}"
"{'name': '海鹏汽车养护(社区店)', 'location': {'lat': 32.0309307634804, 'lng': 118.73844289389602}, 'address': '集庆门大街188', 'province': '江苏省', 'city': '南京市', 'area': '建邺区', 'street_id': '87697de68defb8f228d7ab52', 'telephone': '(025)52888881', 'detail': 1, 'uid': '87697de68defb8f228d7ab52', 'detail_info': {'tag': '汽车服务;汽车美容', 'navi_location': {'lng': 118.75026414773, 'lat': 32.034597031288}, 'type': 'life', 'detail_url': 'http://api.map.baidu.com/place/detail?uid=87697de68defb8f228d7ab52&output=html&source=placeapi_v2', 'overall_rating': '4.0', 'image_num': '11', 'comment_num': '3', 'children': [], 'lat': 32.0309307634804, 'lng': 118.73844289389602}}"
"{'name': '鑫源汽车养护中心(所街店)', 'location': {'lat': 32.02291560065608, 'lng': 118.74450449394223}, 'address': '所街76号', 'province': '江苏省', 'city': '南京市', 'area': '建邺区', 'street_id': 'a3f41ef3f8d14d63f7e73b46', 'detail': 1, 'uid': 'a3f41ef3f8d14d63f7e73b46', 'detail_info': {'tag': '汽车服务;汽车美容', 'navi_location': {'lng': 118.75641617235, 'lat': 32.026352690462}, 'type': 'life', 'detail_url': 'http://api.map.baidu.com/place/detail?uid=a3f41ef3f8d14d63f7e73b46&output=html&source=placeapi_v2', 'overall_rating': '5.0', 'image_num': '10', 'comment_num': '2', 'children': [], 'lat': 32.02291560065608, 'lng': 118.74450449394223}}"
"{'name': '南京鸿硕汽车维修', 'location': {'lat': 32.02246333713671, 'lng': 118.74634863499746}, 'address': '南湖路28号', 'province': '江苏省', 'city': '南京市', 'area': '建邺区', 'street_id': 'abaf31b9fb00be9f2efaa73a', 'telephone': '(025)86433563', 'detail': 1, 'uid': 'abaf31b9fb00be9f2efaa73a', 'detail_info': {'tag': '汽车服务;汽车维修', 'type': 'life', 'detail_url': 'http://api.map.baidu.com/place/detail?uid=abaf31b9fb00be9f2efaa73a&output=html&source=placeapi_v2', 'overall_rating': '4.0', 'image_num': '9', 'comment_num': '3', 'children': [], 'lat': 32.02246333713671, 'lng': 118.74634863499746}}"
"{'name': '宝路驰德系汽车原厂升级', 'location': {'lat': 32.01968054791364, 'lng': 118.73080892626758}, 'address': '南京市建邺区江东中路152-1门', 'province': '江苏省', 'city': '南京市', 'area': '建邺区', 'street_id': 'eb6518e65dd8bff9a0d230e0', 'detail': 1, 'uid': 'eb6518e65dd8bff9a0d230e0', 'detail_info': {'tag': '汽车服务;其他', 'type': 'life', 'detail_url': 'http://api.map.baidu.com/place/detail?uid=eb6518e65dd8bff9a0d230e0&output=html&source=placeapi_v2', 'overall_rating': '5.0', 'image_num': '8', 'comment_num': '1', 'children': [], 'lat': 32.01968054791364, 'lng': 118.73080892626758}}"
"{'name': '欧鑫奇汽车维修', 'location': {'lat': 32.03017499221381, 'lng': 118.7401140836016}, 'address': '南京市建邺区集庆门大街184-1', 'province': '江苏省', 'city': '南京市', 'area': '建邺区', 'street_id': 'c94e016c82d602914307c18c', 'detail': 1, 'uid': 'c94e016c82d602914307c18c', 'detail_info': {'tag': '汽车服务;汽车维修', 'type': 'life', 'detail_url': 'http://api.map.baidu.com/place/detail?uid=c94e016c82d602914307c18c&output=html&source=placeapi_v2', 'overall_rating': '2.0', 'image_num': '13', 'comment_num': '1', 'children': [], 'lat': 32.03017499221381, 'lng': 118.7401140836016}}"
"{'name': '荣宁汽修', 'location': {'lat': 32.02382454805942, 'lng': 118.74734175417115}, 'address': '江苏省南京市建邺区南湖路26-2号', 'province': '江苏省', 'city': '南京市', 'area': '建邺区', 'telephone': '13851507771', 'detail': 1, 'uid': '0d12c0a8307b8d212ce67bd3', 'detail_info': {'tag': '汽车服务;汽车维修', 'type': 'life', 'detail_url': 'http://api.map.baidu.com/place/detail?uid=0d12c0a8307b8d212ce67bd3&output=html&source=placeapi_v2', 'overall_rating': '0.0', 'image_num': '2', 'comment_num': '1', 'children': [], 'lat': 32.02382454805942, 'lng': 118.74734175417115}}"
"{'name': '南京品胜汽车维修有限公司', 'location': {'lat': 32.031578285341034, 'lng': 118.74684389595048}, 'address': '南京市建邺区南湖东路88号', 'province': '江苏省', 'city': '南京市', 'area': '建邺区', 'detail': 1, 'uid': '258c431f2d3d5784f603b819', 'detail_info': {'tag': '汽车服务;汽车维修', 'type': 'life', 'detail_url': 'http://api.map.baidu.com/place/detail?uid=258c431f2d3d5784f603b819&output=html&source=placeapi_v2', 'overall_rating': '0.0', 'image_num': '6', 'children': [], 'lat': 32.031578285341034, 'lng': 118.74684389595048}}"
"{'name': '南京超驰汽车销售有限公司', 'location': {'lat': 32.02450366891993, 'lng': 118.735749515255}, 'address': '南京市建邺区应天大街888号', 'province': '江苏省', 'city': '南京市', 'area': '建邺区', 'detail': 1, 'uid': 'a94759ced202666fd1f49eed', 'detail_info': {'tag': '汽车服务;汽车销售', 'type': 'life', 'detail_url': 'http://api.map.baidu.com/place/detail?uid=a94759ced202666fd1f49eed&output=html&source=placeapi_v2', 'overall_rating': '5.0', 'image_num': '1', 'comment_num': '1', 'children': [], 'lat': 32.02450366891993, 'lng': 118.735749515255}}"
"{'name': '京东京车会(瑞晟鑫店)', 'location': {'lat': 32.02297765182747, 'lng': 118.74492849309665}, 'address': '所街74号', 'province': '江苏省', 'city': '南京市', 'area': '建邺区', 'street_id': '24a2d769243111413be4a6ee', 'detail': 1, 'uid': '24a2d769243111413be4a6ee', 'detail_info': {'tag': '汽车服务;其他', 'navi_location': {'lng': 118.75659958567, 'lat': 32.026265472362}, 'type': 'life', 'detail_url': 'http://api.map.baidu.com/place/detail?uid=24a2d769243111413be4a6ee&output=html&source=placeapi_v2', 'image_num': '7', 'children': [], 'lat': 32.02297765182747, 'lng': 118.74492849309665}}"
"{'name': '车港湾', 'location': {'lat': 32.02060752726178, 'lng': 118.74128655843505}, 'address': '南京市应天大街839', 'province': '江苏省', 'city': '南京市', 'area': '建邺区', 'street_id': '4a260dca097063c3725e809a', 'detail': 1, 'uid': '4a260dca097063c3725e809a', 'detail_info': {'tag': '汽车服务;汽车美容', 'navi_location': {'lng': 118.75314808219, 'lat': 32.02436900327}, 'type': 'life', 'detail_url': 'http://api.map.baidu.com/place/detail?uid=4a260dca097063c3725e809a&output=html&source=placeapi_v2', 'overall_rating': '4.0', 'image_num': '9', 'comment_num': '1', 'children': [], 'lat': 32.02060752726178, 'lng': 118.74128655843505}}"
"{'name': '普得利快修连锁', 'location': {'lat': 32.02403413966485, 'lng': 118.7281529261709}, 'address': '南京市建邺区燕山路与应天大街交叉路口往东南约200米(中北大厦)', 'province': '江苏省', 'city': '南京市', 'area': '建邺区', 'street_id': 'f6725d236050a9809fec2bce', 'detail': 1, 'uid': 'f6725d236050a9809fec2bce', 'detail_info': {'tag': '汽车服务;汽车维修', 'type': 'life', 'detail_url': 'http://api.map.baidu.com/place/detail?uid=f6725d236050a9809fec2bce&output=html&source=placeapi_v2', 'image_num': '5', 'children': [], 'lat': 32.02403413966485, 'lng': 118.7281529261709}}"
"{'name': '米其林轮胎(应天大街店)', 'location': {'lat': 32.023808042709796, 'lng': 118.73151745671082}, 'address': '南京市建邺区应天大街915到1号', 'province': '江苏省', 'city': '南京市', 'area': '建邺区', 'street_id': '37311ec89cde84df715e804a', 'detail': 1, 'uid': '37311ec89cde84df715e804a', 'detail_info': {'tag': '汽车服务;汽车配件', 'type': 'life', 'detail_url': 'http://api.map.baidu.com/place/detail?uid=37311ec89cde84df715e804a&output=html&source=placeapi_v2', 'overall_rating': '3.7', 'image_num': '1', 'comment_num': '3', 'children': [], 'lat': 32.023808042709796, 'lng': 118.73151745671082}}"
"{'name': '腾胜汽车生活馆', 'location': {'lat': 32.0229382913377, 'lng': 118.74464682278618}, 'address': '江苏省南京市建邺区所街76号', 'province': '江苏省', 'city': '南京市', 'area': '建邺区', 'street_id': 'eb0f1c9b68fd9942ed74f836', 'telephone': '(025)86462176', 'detail': 1, 'uid': 'eb0f1c9b68fd9942ed74f836', 'detail_info': {'tag': '汽车服务;汽车美容', 'navi_location': {'lng': 118.75633371958, 'lat': 32.026392727975}, 'type': 'life', 'detail_url': 'http://api.map.baidu.com/place/detail?uid=eb0f1c9b68fd9942ed74f836&output=html&source=placeapi_v2', 'overall_rating': '5.0', 'image_num': '13', 'comment_num': '2', 'children': [], 'lat': 32.0229382913377, 'lng': 118.74464682278618}}"
"{'name': '南京泰杰汽修', 'location': {'lat': 32.022816591051324, 'lng': 118.7447210797959}, 'address': '南京市建邺区所街78号', 'province': '江苏省', 'city': '南京市', 'area': '建邺区', 'street_id': 'aa98eb9d8f825fb9b04c4928', 'detail': 1, 'uid': 'aa98eb9d8f825fb9b04c4928', 'detail_info': {'tag': '汽车服务;汽车维修', 'navi_location': {'lng': 118.7562631469, 'lat': 32.026420915222}, 'type': 'life', 'detail_url': 'http://api.map.baidu.com/place/detail?uid=aa98eb9d8f825fb9b04c4928&output=html&source=placeapi_v2', 'overall_rating': '0.0', 'image_num': '14', 'comment_num': '2', 'children': [], 'lat': 32.022816591051324, 'lng': 118.7447210797959}}"
"{'name': '浩浩汽车服务', 'location': {'lat': 32.0263720411262, 'lng': 118.74425749376216}, 'address': '江苏省南京市建邺区厂圩街28号西南70米', 'province': '江苏省', 'city': '南京市', 'area': '建邺区', 'street_id': '0adafc26bad07ce3f42310e0', 'detail': 1, 'uid': '0adafc26bad07ce3f42310e0', 'detail_info': {'tag': '汽车服务;汽车销售', 'type': 'life', 'detail_url': 'http://api.map.baidu.com/place/detail?uid=0adafc26bad07ce3f42310e0&output=html&source=placeapi_v2', 'image_num': '10', 'children': [], 'lat': 32.0263720411262, 'lng': 118.74425749376216}}"
"{'name': '固特异轮胎店', 'location': {'lat': 32.0199690146909, 'lng': 118.74236364719921}, 'address': '新城科技园应天大街弘瑞广场1幢', 'province': '江苏省', 'city': '南京市', 'area': '建邺区', 'street_id': '995ad5b3904765f5aeb22a0f', 'detail': 1, 'uid': '995ad5b3904765f5aeb22a0f', 'detail_info': {'tag': '汽车服务;汽车配件', 'type': 'life', 'detail_url': 'http://api.map.baidu.com/place/detail?uid=995ad5b3904765f5aeb22a0f&output=html&source=placeapi_v2', 'image_num': '3', 'children': [], 'lat': 32.0199690146909, 'lng': 118.74236364719921}}"
"{'name': '奔德乐汽车配件销售中心(旗舰店)', 'location': {'lat': 32.01996145007393, 'lng': 118.74243978845894}, 'address': '江苏省南京市建邺区应天大街835-7', 'province': '江苏省', 'city': '南京市', 'area': '建邺区', 'street_id': 'c351225dd5becfb484154127', 'telephone': '18114807550', 'detail': 1, 'uid': 'c351225dd5becfb484154127', 'detail_info': {'tag': '汽车服务;汽车配件', 'navi_location': {'lng': 118.75430891201, 'lat': 32.023851078788}, 'type': 'life', 'detail_url': 'http://api.map.baidu.com/place/detail?uid=c351225dd5becfb484154127&output=html&source=placeapi_v2', 'overall_rating': '5.0', 'image_num': '11', 'comment_num': '2', 'children': [], 'lat': 32.01996145007393, 'lng': 118.74243978845894}}"
"{'name': '南京龙膜旗舰店', 'location': {'lat': 32.024134255332186, 'lng': 118.73520490823843}, 'address': '江苏省南京市建邺区应天大街888号', 'province': '江苏省', 'city': '南京市', 'area': '建邺区', 'telephone': '13913373597', 'detail': 1, 'uid': '4acc805dfad23b37a2d23077', 'detail_info': {'tag': '汽车服务;汽车美容', 'type': 'life', 'detail_url': 'http://api.map.baidu.com/place/detail?uid=4acc805dfad23b37a2d23077&output=html&source=placeapi_v2', 'overall_rating': '0.0', 'image_num': '1', 'comment_num': '1', 'children': [], 'lat': 32.024134255332186, 'lng': 118.73520490823843}}"
"{'name': '小魏轮胎店(集庆门大街店)', 'location': {'lat': 32.02998170091592, 'lng': 118.7381936103941}, 'address': '南京市建邺区集庆门大街189号', 'province': '江苏省', 'city': '南京市', 'area': '建邺区', 'street_id': 'fab403d44a5fcb4cf62310db', 'telephone': '13913904419', 'detail': 1, 'uid': 'fab403d44a5fcb4cf62310db', 'detail_info': {'tag': '汽车服务;汽车配件', 'type': 'life', 'detail_url': 'http://api.map.baidu.com/place/detail?uid=fab403d44a5fcb4cf62310db&output=html&source=placeapi_v2', 'overall_rating': '1.0', 'image_num': '7', 'comment_num': '1', 'children': [], 'lat': 32.02998170091592, 'lng': 118.7381936103941}}"
"{'name': '西卡汽车小镇(金鹰世界店)', 'location': {'lat': 32.02531445288843, 'lng': 118.73505213309319}, 'address': '应天大街888号金鹰世界3层', 'province': '江苏省', 'city': '南京市', 'area': '建邺区', 'street_id': '2ddbdba368a38146e215f92c', 'telephone': '13813808686', 'detail': 1, 'uid': '2ddbdba368a38146e215f92c', 'detail_info': {'tag': '汽车服务;汽车美容', 'navi_location': {'lng': 118.747273, 'lat': 32.027020015431}, 'type': 'life', 'detail_url': 'http://api.map.baidu.com/place/detail?uid=2ddbdba368a38146e215f92c&output=html&source=placeapi_v2', 'overall_rating': '4.3', 'image_num': '1', 'comment_num': '14', 'children': [], 'lat': 32.02531445288843, 'lng': 118.73505213309319}}"
"{'name': '金鹰汽车上牌交税点(金鹰世界店)', 'location': {'lat': 32.025363462206585, 'lng': 118.7350431008383}, 'address': '应天大街888号金鹰世界6层', 'province': '江苏省', 'city': '南京市', 'area': '建邺区', 'street_id': 'b220b2e083ed3d59c929154f', 'detail': 1, 'uid': 'b220b2e083ed3d59c929154f', 'detail_info': {'tag': '汽车服务;汽车美容', 'navi_location': {'lng': 118.747273, 'lat': 32.027020015431}, 'type': 'life', 'detail_url': 'http://api.map.baidu.com/place/detail?uid=b220b2e083ed3d59c929154f&output=html&source=placeapi_v2', 'overall_rating': '4.6', 'image_num': '1', 'comment_num': '5', 'children': [], 'lat': 32.025363462206585, 'lng': 118.7350431008383}}"
"{'name': '南京瑞盛汽车销售有限公司', 'location': {'lat': 32.026564936230535, 'lng': 118.736269947551}, 'address': '江苏省南京市建邺区所街116号乐基广场2号楼206室', 'province': '江苏省', 'city': '南京市', 'area': '建邺区', 'detail': 1, 'uid': '0f0f9d2a255c2f0a8ab988d6', 'detail_info': {'tag': '汽车服务;汽车销售', 'type': 'life', 'detail_url': 'http://api.map.baidu.com/place/detail?uid=0f0f9d2a255c2f0a8ab988d6&output=html&source=placeapi_v2', 'image_num': '1', 'children': [], 'lat': 32.026564936230535, 'lng': 118.736269947551}}"
"{'name': '南京丰旅汽配有限公司', 'location': {'lat': 32.02384796506917, 'lng': 118.73148647563711}, 'address': '应天大街915-1号', 'province': '江苏省', 'city': '南京市', 'area': '建邺区', 'street_id': 'c611fa09dd368fd338e4a6c1', 'telephone': '18012942236', 'detail': 1, 'uid': 'c611fa09dd368fd338e4a6c1', 'detail_info': {'tag': '汽车服务;汽车配件', 'navi_location': {'lng': 118.74320599964, 'lat': 32.027488015541}, 'type': 'life', 'detail_url': 'http://api.map.baidu.com/place/detail?uid=c611fa09dd368fd338e4a6c1&output=html&source=placeapi_v2', 'overall_rating': '3.7', 'image_num': '13', 'comment_num': '3', 'children': [], 'lat': 32.02384796506917, 'lng': 118.73148647563711}}"
"{'name': '上汽大众南京中北销售', 'location': {'lat': 32.02387198623377, 'lng': 118.72812809650488}, 'address': '江苏省南京市建邺区燕山路38号附近', 'province': '江苏省', 'city': '南京市', 'area': '建邺区', 'street_id': 'b5fe11fde5ad22badbd8911c', 'detail': 1, 'uid': 'b5fe11fde5ad22badbd8911c', 'detail_info': {'tag': '汽车服务;汽车销售', 'type': 'life', 'detail_url': 'http://api.map.baidu.com/place/detail?uid=b5fe11fde5ad22badbd8911c&output=html&source=placeapi_v2', 'image_num': '2', 'children': [], 'lat': 32.02387198623377, 'lng': 118.72812809650488}}"
"{'name': '途虎养车(南京建邺店)', 'location': {'lat': 32.02387460546675, 'lng': 118.73135165929264}, 'address': '南京市建邺区应天大街915号', 'province': '江苏省', 'city': '南京市', 'area': '建邺区', 'street_id': 'f679f47be1b1ae109cf77907', 'detail': 1, 'uid': 'f679f47be1b1ae109cf77907', 'detail_info': {'tag': '汽车服务;其他', 'type': 'life', 'detail_url': 'http://api.map.baidu.com/place/detail?uid=f679f47be1b1ae109cf77907&output=html&source=placeapi_v2', 'image_num': '1', 'children': [], 'lat': 32.02387460546675, 'lng': 118.73135165929264}}"
"{'name': '南京市建邺区老于汽车配件销售中心', 'location': {'lat': 32.02331325153189, 'lng': 118.74375652992333}, 'address': '江苏省南京市建邺区所街84号附近', 'province': '江苏省', 'city': '南京市', 'area': '建邺区', 'street_id': '14897565a5f9492cc91b9590', 'detail': 1, 'uid': '14897565a5f9492cc91b9590', 'detail_info': {'tag': '汽车服务;汽车配件', 'type': 'life', 'detail_url': 'http://api.map.baidu.com/place/detail?uid=14897565a5f9492cc91b9590&output=html&source=placeapi_v2', 'overall_rating': '5.0', 'image_num': '9', 'comment_num': '1', 'children': [], 'lat': 32.02331325153189, 'lng': 118.74375652992333}}"
"{'name': '南京汇添富汽车服务会所', 'location': {'lat': 32.032255814403065, 'lng': 118.72898412275549}, 'address': '南京市建邺区燕山路83号--1', 'province': '江苏省', 'city': '南京市', 'area': '建邺区', 'street_id': '9bf428b7e1360d610bf5eb68', 'telephone': '(025)58816031,13851641745', 'detail': 1, 'uid': '9bf428b7e1360d610bf5eb68', 'detail_info': {'tag': '汽车服务;汽车美容', 'navi_location': {'lng': 118.74064602027, 'lat': 32.035873328011}, 'type': 'life', 'detail_url': 'http://api.map.baidu.com/place/detail?uid=9bf428b7e1360d610bf5eb68&output=html&source=placeapi_v2', 'overall_rating': '3.0', 'image_num': '17', 'comment_num': '8', 'children': [], 'lat': 32.032255814403065, 'lng': 118.72898412275549}}"
"{'name': '江苏宁隆汉中汽车销售服务有限公司', 'location': {'lat': 32.041046915673554, 'lng': 118.74280202076473}, 'address': '南京市鼓楼区汉中门大街108号', 'province': '江苏省', 'city': '南京市', 'area': '鼓楼区', 'street_id': 'b2d70ba92b0107fcca1b95be', 'telephone': '(025)86598188', 'detail': 1, 'uid': 'b2d70ba92b0107fcca1b95be', 'detail_info': {'tag': '汽车服务;汽车销售', 'navi_location': {'lng': 118.75472055153, 'lat': 32.044706333499}, 'type': 'life', 'detail_url': 'http://api.map.baidu.com/place/detail?uid=b2d70ba92b0107fcca1b95be&output=html&source=placeapi_v2', 'overall_rating': '4.8', 'image_num': '19', 'comment_num': '4', 'children': [], 'lat': 32.041046915673554, 'lng': 118.74280202076473}}"
"{'name': '苏瑞特汽车服务公司', 'location': {'lat': 32.03275877456756, 'lng': 118.73868631398003}, 'address': '南京市建邺区云锦路75-5', 'province': '江苏省', 'city': '南京市', 'area': '建邺区', 'street_id': '23fd1525713a324dd23ce32e', 'detail': 1, 'uid': '867281e7d57e3e4cc2f1cf9b', 'detail_info': {'tag': '汽车服务;汽车维修', 'navi_location': {'lng': 118.75021379321, 'lat': 32.036439705384}, 'type': 'life', 'detail_url': 'http://api.map.baidu.com/place/detail?uid=867281e7d57e3e4cc2f1cf9b&output=html&source=placeapi_v2', 'overall_rating': '0.0', 'image_num': '15', 'comment_num': '2', 'children': [], 'lat': 32.03275877456756, 'lng': 118.73868631398003}}"
"{'name': '易自助24小时自助洗车', 'location': {'lat': 32.03189676577672, 'lng': 118.74689073378514}, 'address': '南湖东路与玉塘街交叉口东北50米', 'province': '江苏省', 'city': '南京市', 'area': '建邺区', 'street_id': '5737351ccbd916d0e50738ed', 'detail': 1, 'uid': '5737351ccbd916d0e50738ed', 'detail_info': {'tag': '汽车服务;汽车美容', 'navi_location': {'lng': 118.75862999957, 'lat': 32.035459016972}, 'type': 'life', 'detail_url': 'http://api.map.baidu.com/place/detail?uid=5737351ccbd916d0e50738ed&output=html&source=placeapi_v2', 'overall_rating': '3.0', 'image_num': '3', 'comment_num': '1', 'children': [], 'lat': 32.03189676577672, 'lng': 118.74689073378514}}"
"{'name': '永泽汽车服务部', 'location': {'lat': 32.04192273265025, 'lng': 118.73560480270285}, 'address': '江苏省南京市鼓楼区汉中门大街298号', 'province': '江苏省', 'city': '南京市', 'area': '鼓楼区', 'street_id': 'edab895d4b88207dc42ba1ba', 'telephone': '13813996554,13776624720', 'detail': 1, 'uid': 'edab895d4b88207dc42ba1ba', 'detail_info': {'tag': '汽车服务;汽车美容', 'type': 'life', 'detail_url': 'http://api.map.baidu.com/place/detail?uid=edab895d4b88207dc42ba1ba&output=html&source=placeapi_v2', 'overall_rating': '0.0', 'image_num': '7', 'children': [], 'lat': 32.04192273265025, 'lng': 118.73560480270285}}"
"{'name': '新万国汽修', 'location': {'lat': 32.03953892997497, 'lng': 118.73143896947828}, 'address': '江东中路42号17室', 'province': '江苏省', 'city': '南京市', 'area': '建邺区', 'telephone': '(025)84805859,13382002577', 'detail': 1, 'uid': 'f437c414d8b7ead06168581d', 'detail_info': {'tag': '汽车服务;汽车维修', 'navi_location': {'lng': 118.74332229157, 'lat': 32.043017407226}, 'type': 'life', 'detail_url': 'http://api.map.baidu.com/place/detail?uid=f437c414d8b7ead06168581d&output=html&source=placeapi_v2', 'overall_rating': '4.6', 'image_num': '11', 'comment_num': '14', 'children': [], 'lat': 32.03953892997497, 'lng': 118.73143896947828}}"
"{'name': '车享家汽车养护中心(凤凰路店)', 'location': {'lat': 32.043027324475986, 'lng': 118.73586153632128}, 'address': '凤凰西街222号-1-2号', 'province': '江苏省', 'city': '南京市', 'area': '鼓楼区', 'street_id': '01a4a0aba9eeb352acee7a60', 'telephone': '(025)83227735', 'detail': 1, 'uid': '01a4a0aba9eeb352acee7a60', 'detail_info': {'tag': '汽车服务;汽车美容', 'navi_location': {'lng': 118.74769680046, 'lat': 32.04647361239}, 'type': 'life', 'detail_url': 'http://api.map.baidu.com/place/detail?uid=01a4a0aba9eeb352acee7a60&output=html&source=placeapi_v2', 'price': '500.0', 'overall_rating': '4.3', 'image_num': '10', 'comment_num': '60', 'children': [], 'lat': 32.043027324475986, 'lng': 118.73586153632128}}"
"{'name': '汽车服务中心', 'location': {'lat': 32.04238117904936, 'lng': 118.73873912235976}, 'address': '南京市鼓楼区牡丹里21号202海棠里东门', 'province': '江苏省', 'city': '南京市', 'area': '鼓楼区', 'street_id': '33f5b474e0ab1482a20464c0', 'telephone': '13305175380,(025)86532930', 'detail': 1, 'uid': '33f5b474e0ab1482a20464c0', 'detail_info': {'tag': '汽车服务;汽车美容', 'type': 'life', 'detail_url': 'http://api.map.baidu.com/place/detail?uid=33f5b474e0ab1482a20464c0&output=html&source=placeapi_v2', 'overall_rating': '4.3', 'image_num': '5', 'comment_num': '3', 'children': [], 'lat': 32.04238117904936, 'lng': 118.73873912235976}}"
"{'name': '精致洗车', 'location': {'lat': 32.04390394155164, 'lng': 118.738274130163}, 'address': '湛江路143号附近', 'province': '江苏省', 'city': '南京市', 'area': '鼓楼区', 'street_id': 'a99391dd4f6c2a51f03cbabd', 'detail': 1, 'uid': 'a99391dd4f6c2a51f03cbabd', 'detail_info': {'tag': '汽车服务;汽车美容', 'navi_location': {'lng': 118.75018099967, 'lat': 32.047557019208}, 'type': 'life', 'detail_url': 'http://api.map.baidu.com/place/detail?uid=a99391dd4f6c2a51f03cbabd&output=html&source=placeapi_v2', 'image_num': '1', 'children': [], 'lat': 32.04390394155164, 'lng': 118.738274130163}}"
"{'name': '车瑞达汽车维修连锁', 'location': {'lat': 32.035137336301354, 'lng': 118.7385338104882}, 'address': '江苏省南京市建邺区万达广场东坊南京万达广场·东坊7栋办公楼', 'province': '江苏省', 'city': '南京市', 'area': '建邺区', 'street_id': '467c18dcf3c0b17100ff2d3c', 'detail': 1, 'uid': '467c18dcf3c0b17100ff2d3c', 'detail_info': {'tag': '汽车服务;汽车维修', 'type': 'life', 'detail_url': 'http://api.map.baidu.com/place/detail?uid=467c18dcf3c0b17100ff2d3c&output=html&source=placeapi_v2', 'overall_rating': '3.0', 'image_num': '5', 'comment_num': '3', 'children': [], 'lat': 32.035137336301354, 'lng': 118.7385338104882}}"
"{'name': '泉运汽修', 'location': {'lat': 32.04443854879992, 'lng': 118.72900505456207}, 'address': '南京市鼓楼区东宝路5号望江新寓平2号', 'province': '江苏省', 'city': '南京市', 'area': '鼓楼区', 'street_id': '708cef71250e9ed54f6d46b7', 'detail': 1, 'uid': '708cef71250e9ed54f6d46b7', 'detail_info': {'tag': '汽车服务;汽车维修', 'navi_location': {'lng': 118.74096821551, 'lat': 32.048150715847}, 'type': 'life', 'detail_url': 'http://api.map.baidu.com/place/detail?uid=708cef71250e9ed54f6d46b7&output=html&source=placeapi_v2', 'overall_rating': '4.0', 'image_num': '4', 'comment_num': '1', 'children': [], 'lat': 32.04443854879992, 'lng': 118.72900505456207}}"
"{'name': '顺通汽车维修中心', 'location': {'lat': 32.04414176448058, 'lng': 118.73857406108495}, 'address': '湛江路16号', 'province': '江苏省', 'city': '南京市', 'area': '鼓楼区', 'street_id': '93e37d26477101e0b5f42ff8', 'telephone': '13245231129', 'detail': 1, 'uid': '93e37d26477101e0b5f42ff8', 'detail_info': {'tag': '汽车服务;汽车维修', 'navi_location': {'lng': 118.75027256934, 'lat': 32.047608369648}, 'type': 'life', 'detail_url': 'http://api.map.baidu.com/place/detail?uid=93e37d26477101e0b5f42ff8&output=html&source=placeapi_v2', 'overall_rating': '0.0', 'image_num': '24', 'comment_num': '3', 'children': [], 'lat': 32.04414176448058, 'lng': 118.73857406108495}}"
"{'name': '南京车享福汽车修理中心', 'location': {'lat': 32.04188193132338, 'lng': 118.73022440870469}, 'address': '汉中门大街金陵世纪花园154号1室', 'province': '江苏省', 'city': '南京市', 'area': '鼓楼区', 'telephone': '13915960542', 'detail': 1, 'uid': 'fe11c4bfbb54830cb6147fb5', 'detail_info': {'tag': '汽车服务;汽车维修', 'type': 'life', 'detail_url': 'http://api.map.baidu.com/place/detail?uid=fe11c4bfbb54830cb6147fb5&output=html&source=placeapi_v2', 'image_num': '6', 'children': [], 'lat': 32.04188193132338, 'lng': 118.73022440870469}}"
"{'name': '机研社', 'location': {'lat': 32.039638109402134, 'lng': 118.73243852898744}, 'address': '江苏省南京市建邺区江东中路42-5号附近', 'province': '江苏省', 'city': '南京市', 'area': '建邺区', 'detail': 1, 'uid': '1a16ebaab87a7176b75f1e4f', 'detail_info': {'tag': '汽车服务;其他', 'type': 'life', 'detail_url': 'http://api.map.baidu.com/place/detail?uid=1a16ebaab87a7176b75f1e4f&output=html&source=placeapi_v2', 'image_num': '1', 'children': [], 'lat': 32.039638109402134, 'lng': 118.73243852898744}}"
"{'name': '苏友汽车美容中心(途虎养车店)', 'location': {'lat': 32.044703487996415, 'lng': 118.7289947854647}, 'address': '东宝路5号-1', 'province': '江苏省', 'city': '南京市', 'area': '鼓楼区', 'street_id': 'd271ea65669a368ffb2d6136', 'telephone': '13057618777', 'detail': 1, 'uid': 'd271ea65669a368ffb2d6136', 'detail_info': {'tag': '汽车服务;汽车美容', 'navi_location': {'lng': 118.74096477859, 'lat': 32.048401951691}, 'type': 'life', 'detail_url': 'http://api.map.baidu.com/place/detail?uid=d271ea65669a368ffb2d6136&output=html&source=placeapi_v2', 'overall_rating': '5.0', 'image_num': '5', 'comment_num': '2', 'children': [], 'lat': 32.044703487996415, 'lng': 118.7289947854647}}"
"{'name': '美车堂汽车美容', 'location': {'lat': 32.03413959329265, 'lng': 118.73033352856366},