"{'name': '香阳楼大酒店(扬子江大道店)', 'location': {'lat': 32.00591019809253, 'lng': 118.70229107562318}, 'address': '江苏省南京市建邺区扬子江大道268号', 'province': '江苏省', 'city': '南京市', 'area': '建邺区', 'street_id': '5c56edd678e33043a0d230fa', 'telephone': '(025)87716179,(025)87716178', 'detail': 1, 'uid': '5c56edd678e33043a0d230fa', 'detail_info': {'tag': '美食;中餐厅', 'navi_location': {'lng': 118.71408274995, 'lat': 32.009776477113}, 'type': 'cater', 'detail_url': 'http://api.map.baidu.com/place/detail?uid=5c56edd678e33043a0d230fa&output=html&source=placeapi_v2', 'price': '227.0', 'overall_rating': '4.2', 'comment_num': '39', 'children': [], 'lat': 32.00591019809253, 'lng': 118.70229107562318}}"
"{'name': '江心小饭店', 'location': {'lat': 32.0095177727772, 'lng': 118.69473808768063}, 'address': '江苏省南京市建邺区洲泰路南京市江心洲中心幼儿园附近', 'province': '江苏省', 'city': '南京市', 'area': '建邺区', 'street_id': 'aeb261109972bea195f08c80', 'telephone': '13851704992', 'detail': 1, 'uid': 'aeb261109972bea195f08c80', 'detail_info': {'tag': '美食;中餐厅', 'navi_location': {'lng': 118.70613352143, 'lat': 32.013864677232}, 'type': 'cater', 'detail_url': 'http://api.map.baidu.com/place/detail?uid=aeb261109972bea195f08c80&output=html&source=placeapi_v2', 'overall_rating': '4.0', 'comment_num': '4', 'children': [], 'lat': 32.0095177727772, 'lng': 118.69473808768063}}"
"{'name': '家门口小馆', 'location': {'lat': 32.01024813847488, 'lng': 118.69549632084517}, 'address': '江心洲旗杆民安路苏果超市旁农民公寓78-2号', 'province': '江苏省', 'city': '南京市', 'area': '建邺区', 'street_id': '374a97f0fe33889500ff2dff', 'telephone': '18120143599', 'detail': 1, 'uid': '374a97f0fe33889500ff2dff', 'detail_info': {'tag': '美食;中餐厅', 'navi_location': {'lng': 118.70682948272, 'lat': 32.014474461113}, 'type': 'cater', 'detail_url': 'http://api.map.baidu.com/place/detail?uid=374a97f0fe33889500ff2dff&output=html&source=placeapi_v2', 'price': '29.0', 'overall_rating': '4.4', 'comment_num': '5', 'children': [], 'lat': 32.01024813847488, 'lng': 118.69549632084517}}"
"{'name': '景荟自助餐厅(万景园路店)', 'location': {'lat': 32.01341436805546, 'lng': 118.70432764130881}, 'address': '建邺区万景园路8号金陵江滨酒店内(近奥体中心)', 'province': '江苏省', 'city': '南京市', 'area': '建邺区', 'street_id': 'afc8f6a86bff5a069b68b44e', 'telephone': '(025)51872888', 'detail': 1, 'uid': 'afc8f6a86bff5a069b68b44e', 'detail_info': {'tag': '美食;中餐厅', 'type': 'cater', 'detail_url': 'http://api.map.baidu.com/place/detail?uid=afc8f6a86bff5a069b68b44e&output=html&source=placeapi_v2', 'price': '129.0', 'overall_rating': '4.4', 'comment_num': '89', 'children': [], 'lat': 32.01341436805546, 'lng': 118.70432764130881}}"
"{'name': '如意火锅烧烤店', 'location': {'lat': 32.01029617123078, 'lng': 118.69461387585366}, 'address': '南京市建邺区洲泰路与民安路交叉路口西南侧(南京市公安局建邺分局江心洲派出所西北侧约50米)', 'province': '江苏省', 'city': '南京市', 'area': '建邺区', 'street_id': '37e1b8e038c4efb7b6f42fba', 'telephone': '13405855568', 'detail': 1, 'uid': '37e1b8e038c4efb7b6f42fba', 'detail_info': {'tag': '美食;中餐厅', 'navi_location': {'lng': 118.70628999996, 'lat': 32.014647013094}, 'type': 'cater', 'detail_url': 'http://api.map.baidu.com/place/detail?uid=37e1b8e038c4efb7b6f42fba&output=html&source=placeapi_v2', 'price': '96.0', 'overall_rating': '4.0', 'comment_num': '1', 'children': [], 'lat': 32.01029617123078, 'lng': 118.69461387585366}}"
"{'name': '阿健私房菜馆', 'location': {'lat': 32.00953222660741, 'lng': 118.69544761817595}, 'address': '民安路与洲泰路交叉口南150米', 'province': '江苏省', 'city': '南京市', 'area': '建邺区', 'telephone': '13951632538', 'detail': 1, 'uid': '67f2bef66c1215acb21e363f', 'detail_info': {'tag': '美食;中餐厅', 'type': 'cater', 'detail_url': 'http://api.map.baidu.com/place/detail?uid=67f2bef66c1215acb21e363f&output=html&source=placeapi_v2', 'overall_rating': '5.0', 'comment_num': '1', 'children': [], 'lat': 32.00953222660741, 'lng': 118.69544761817595}}"
"{'name': '江岛菜馆', 'location': {'lat': 32.01005239605924, 'lng': 118.6949766024783}, 'address': '民安路与洲泰路交叉口西南100米', 'province': '江苏省', 'city': '南京市', 'area': '建邺区', 'telephone': '18805173935', 'detail': 1, 'uid': '763134485071722c16a190b4', 'detail_info': {'tag': '美食;中餐厅', 'type': 'cater', 'detail_url': 'http://api.map.baidu.com/place/detail?uid=763134485071722c16a190b4&output=html&source=placeapi_v2', 'children': [], 'lat': 32.01005239605924, 'lng': 118.6949766024783}}"
"{'name': '苏北人家(江心洲店)', 'location': {'lat': 32.00999704279682, 'lng': 118.69488517637073}, 'address': '南京市建邺区洲泰路与民安路交叉路口西南侧(南京市公安局建邺分局江心洲派出所西侧)', 'province': '江苏省', 'city': '南京市', 'area': '建邺区', 'detail': 1, 'uid': '274c4766b2daf7a46140a91e', 'detail_info': {'tag': '美食;中餐厅', 'type': 'cater', 'detail_url': 'http://api.map.baidu.com/place/detail?uid=274c4766b2daf7a46140a91e&output=html&source=placeapi_v2', 'price': '41.0', 'children': [], 'lat': 32.00999704279682, 'lng': 118.69488517637073}}"
"{'name': '曹师傅大碗皮肚面', 'location': {'lat': 32.009532282746584, 'lng': 118.6948414404789}, 'address': '南京市建邺区洲泰路与民安路交叉路口往南约50米(南京市公安局建邺分局江心洲派出所西南侧)', 'province': '江苏省', 'city': '南京市', 'area': '建邺区', 'detail': 1, 'uid': 'e5bfeeda8e337eae85420e66', 'detail_info': {'tag': '美食;小吃快餐店', 'type': 'cater', 'detail_url': 'http://api.map.baidu.com/place/detail?uid=e5bfeeda8e337eae85420e66&output=html&source=placeapi_v2', 'children': [], 'lat': 32.009532282746584, 'lng': 118.6948414404789}}"
"{'name': '滨江花园酒店', 'location': {'lat': 32.02155779803492, 'lng': 118.70640474887811}, 'address': '江苏省南京市建邺区扬子江大道218号', 'province': '江苏省', 'city': '南京市', 'area': '建邺区', 'street_id': '083a55fab127ed60256e988c', 'telephone': '(025)87770066', 'detail': 1, 'uid': '083a55fab127ed60256e988c', 'detail_info': {'tag': '美食;中餐厅', 'navi_location': {'lng': 118.71827115689, 'lat': 32.025852364294}, 'type': 'cater', 'detail_url': 'http://api.map.baidu.com/place/detail?uid=083a55fab127ed60256e988c&output=html&source=placeapi_v2', 'price': '337.0', 'overall_rating': '4.1', 'image_num': '100', 'comment_num': '104', 'children': [], 'lat': 32.02155779803492, 'lng': 118.70640474887811}}"
"{'name': '唐老鸭饭店(葡园路店)', 'location': {'lat': 32.02805437907057, 'lng': 118.69077976088347}, 'address': '邻里中心3层', 'province': '江苏省', 'city': '南京市', 'area': '建邺区', 'telephone': '(025)86332959,18913855686', 'detail': 1, 'uid': '26b94e3fac46f41deaf853fa', 'detail_info': {'tag': '美食;中餐厅', 'type': 'cater', 'detail_url': 'http://api.map.baidu.com/place/detail?uid=26b94e3fac46f41deaf853fa&output=html&source=placeapi_v2', 'price': '69.0', 'overall_rating': '4.3', 'comment_num': '12', 'children': [], 'lat': 32.02805437907057, 'lng': 118.69077976088347}}"
"{'name': '吊锅城', 'location': {'lat': 32.0279121361729, 'lng': 118.69716168763098}, 'address': '南京市建邺区贤坤路与星岛街交叉路口往西南约200米(江岛华庭西南侧)', 'province': '江苏省', 'city': '南京市', 'area': '建邺区', 'telephone': '13675144447', 'detail': 1, 'uid': 'ee00bb36a5ae07b62db908ac', 'detail_info': {'tag': '美食;中餐厅', 'type': 'cater', 'detail_url': 'http://api.map.baidu.com/place/detail?uid=ee00bb36a5ae07b62db908ac&output=html&source=placeapi_v2', 'price': '91.0', 'overall_rating': '4.1', 'comment_num': '54', 'children': [], 'lat': 32.0279121361729, 'lng': 118.69716168763098}}"
"{'name': '美满家江心洲餐厅(江心洲店)', 'location': {'lat': 32.02809393355959, 'lng': 118.69074293742561}, 'address': '江苏省南京市建邺区江心洲街道中新大道洲岛家园三楼', 'province': '江苏省', 'city': '南京市', 'area': '建邺区', 'detail': 1, 'uid': 'ecce2e2c449f80904c3a59f1', 'detail_info': {'tag': '美食;中餐厅', 'type': 'cater', 'detail_url': 'http://api.map.baidu.com/place/detail?uid=ecce2e2c449f80904c3a59f1&output=html&source=placeapi_v2', 'price': '18.0', 'overall_rating': '4.5', 'comment_num': '32', 'children': [], 'lat': 32.02809393355959, 'lng': 118.69074293742561}}"
"{'name': '洲岛餐馆', 'location': {'lat': 32.02875518920852, 'lng': 118.69810779358745}, 'address': '建邺区江心洲街道民安路江心天府B幢3室门面房', 'province': '江苏省', 'city': '南京市', 'area': '建邺区', 'telephone': '13770964938', 'detail': 1, 'uid': 'dac804eb8ad00bf643afe650', 'detail_info': {'tag': '美食;中餐厅', 'type': 'cater', 'detail_url': 'http://api.map.baidu.com/place/detail?uid=dac804eb8ad00bf643afe650&output=html&source=placeapi_v2', 'overall_rating': '3.0', 'comment_num': '3', 'children': [], 'lat': 32.02875518920852, 'lng': 118.69810779358745}}"
"{'name': '蜀香园(南京中国绿化博览园店)', 'location': {'lat': 32.020700307200165, 'lng': 118.7039664806511}, 'address': '南京市建邺区扬子江大道228号滨江公园南京中国绿化博览园内', 'province': '江苏省', 'city': '南京市', 'area': '建邺区', 'street_id': '36137a37210372cd3310afea', 'detail': 1, 'uid': '36137a37210372cd3310afea', 'detail_info': {'tag': '美食;中餐厅', 'type': 'cater', 'detail_url': 'http://api.map.baidu.com/place/detail?uid=36137a37210372cd3310afea&output=html&source=placeapi_v2', 'children': [], 'lat': 32.020700307200165, 'lng': 118.7039664806511}}"
"{'name': '百菜宴(科巷菜场店)', 'location': {'lat': 32.028196201370804, 'lng': 118.69076472560505}, 'address': '江心洲红星街86号科巷菜场洲岛家园3号蔬菜柜', 'province': '江苏省', 'city': '南京市', 'area': '建邺区', 'telephone': '15380912003', 'detail': 1, 'uid': '66f809451f82bdf96240a9cd', 'detail_info': {'tag': '美食;中餐厅', 'type': 'life', 'detail_url': 'http://api.map.baidu.com/place/detail?uid=66f809451f82bdf96240a9cd&output=html&source=placeapi_v2', 'image_num': '1', 'children': [], 'lat': 32.028196201370804, 'lng': 118.69076472560505}}"
"{'name': '戴胜特色龙虾烧烤', 'location': {'lat': 32.02562905161772, 'lng': 118.69709992119157}, 'address': '南京市建邺区林荫路(仁恒·绿洲新岛2期东南侧约200米)', 'province': '江苏省', 'city': '南京市', 'area': '建邺区', 'street_id': 'dff0b4b509c87b4dd5851f5a', 'telephone': '13186419800,15250534577', 'detail': 1, 'uid': 'dff0b4b509c87b4dd5851f5a', 'detail_info': {'tag': '美食;其他', 'type': 'cater', 'detail_url': 'http://api.map.baidu.com/place/detail?uid=dff0b4b509c87b4dd5851f5a&output=html&source=placeapi_v2', 'children': [], 'lat': 32.02562905161772, 'lng': 118.69709992119157}}"
"{'name': '明轩观澜', 'location': {'lat': 32.01935640948629, 'lng': 118.70444296694004}, 'address': '江苏省南京市建邺区扬子江大道228', 'province': '江苏省', 'city': '南京市', 'area': '建邺区', 'street_id': '685681cf37b881bffda778c9', 'detail': 1, 'uid': '685681cf37b881bffda778c9', 'detail_info': {'tag': '房地产;住宅区', 'type': 'house', 'detail_url': 'http://api.map.baidu.com/place/detail?uid=685681cf37b881bffda778c9&output=html&source=placeapi_v2', 'children': [], 'lat': 32.01935640948629, 'lng': 118.70444296694004}}"
"{'name': '水西门高家鸭子店', 'location': {'lat': 32.04214768997211, 'lng': 118.7039003886084}, 'address': '绿水街29号102室', 'province': '江苏省', 'city': '南京市', 'area': '建邺区', 'detail': 1, 'uid': '096d8e510973337246e27400', 'detail_info': {'tag': '美食;中餐厅', 'detail_url': 'http://api.map.baidu.com/place/detail?uid=096d8e510973337246e27400&output=html&source=placeapi_v2', 'children': [], 'lat': 32.04214768997211, 'lng': 118.7039003886084}}"
"{'name': '烟波渔港(梦都店)', 'location': {'lat': 32.01702999023699, 'lng': 118.71587064963822}, 'address': '江苏省南京市建邺区梦都大街176号(奥体中心北门对面)', 'province': '江苏省', 'city': '南京市', 'area': '建邺区', 'street_id': 'aa40108b6e7e560cc5effb64', 'telephone': '(025)86696877', 'detail': 1, 'uid': 'aa40108b6e7e560cc5effb64', 'detail_info': {'tag': '美食;中餐厅', 'navi_location': {'lng': 118.72754867024, 'lat': 32.020603755997}, 'type': 'cater', 'detail_url': 'http://api.map.baidu.com/place/detail?uid=aa40108b6e7e560cc5effb64&output=html&source=placeapi_v2', 'price': '196.0', 'overall_rating': '3.7', 'comment_num': '90', 'children': [], 'lat': 32.01702999023699, 'lng': 118.71587064963822}}"
"{'name': '三天打鱼(奥体店)', 'location': {'lat': 32.009383988855, 'lng': 118.72129703492364}, 'address': '建邺区奥体中心内近42号柱子', 'province': '江苏省', 'city': '南京市', 'area': '建邺区', 'street_id': 'a2cbd6a3eb14e557c6effbec', 'detail': 1, 'uid': 'a2cbd6a3eb14e557c6effbec', 'detail_info': {'tag': '美食;中餐厅', 'navi_location': {'lng': 118.73285321459, 'lat': 32.013216448446}, 'type': 'cater', 'detail_url': 'http://api.map.baidu.com/place/detail?uid=a2cbd6a3eb14e557c6effbec&output=html&source=placeapi_v2', 'overall_rating': '4.2', 'comment_num': '67', 'children': [], 'lat': 32.009383988855, 'lng': 118.72129703492364}}"
"{'name': '北书房餐饮', 'location': {'lat': 32.01489011759326, 'lng': 118.72173370302124}, 'address': '江苏省南京市建邺区梦都大街150号一楼', 'province': '江苏省', 'city': '南京市', 'area': '建邺区', 'telephone': '15895875999,15715158230', 'detail': 1, 'uid': 'cec6e6d03fc64ab40bf5eb23', 'detail_info': {'tag': '美食;中餐厅', 'type': 'cater', 'detail_url': 'http://api.map.baidu.com/place/detail?uid=cec6e6d03fc64ab40bf5eb23&output=html&source=placeapi_v2', 'price': '507.0', 'overall_rating': '4.5', 'comment_num': '38', 'children': [], 'lat': 32.01489011759326, 'lng': 118.72173370302124}}"
"{'name': '梦都会', 'location': {'lat': 32.01228548278734, 'lng': 118.7187228705077}, 'address': '南京市建邺区江东中路222号奥体中心内', 'province': '江苏省', 'city': '南京市', 'area': '建邺区', 'street_id': 'd5464cf82f2b734efda77856', 'telephone': '(025)86690777,(025)86690999', 'detail': 1, 'uid': 'd5464cf82f2b734efda77856', 'detail_info': {'tag': '美食;中餐厅', 'navi_location': {'lng': 118.73046364288, 'lat': 32.015827606296}, 'type': 'cater', 'detail_url': 'http://api.map.baidu.com/place/detail?uid=d5464cf82f2b734efda77856&output=html&source=placeapi_v2', 'price': '432.0', 'overall_rating': '4.3', 'groupon_num': '1', 'comment_num': '59', 'children': [], 'lat': 32.01228548278734, 'lng': 118.7187228705077}}"
"{'name': '镜庐', 'location': {'lat': 32.01185388259064, 'lng': 118.71292661215996}, 'address': '乐山路180号奥体中心地铁站6号出口旁边上3层美城设计对面', 'province': '江苏省', 'city': '南京市', 'area': '建邺区', 'street_id': '0722dc7593985b13c9fa5ff0', 'telephone': '19850402801,15895875999', 'detail': 1, 'uid': '0722dc7593985b13c9fa5ff0', 'detail_info': {'tag': '美食;中餐厅', 'navi_location': {'lng': 118.72521707697, 'lat': 32.015782106388}, 'type': 'cater', 'detail_url': 'http://api.map.baidu.com/place/detail?uid=0722dc7593985b13c9fa5ff0&output=html&source=placeapi_v2', 'price': '363.0', 'overall_rating': '4.6', 'comment_num': '55', 'children': [], 'lat': 32.01185388259064, 'lng': 118.71292661215996}}"
"{'name': '秦朝瓦罐(奥体店)', 'location': {'lat': 32.01001745067591, 'lng': 118.72088386634802}, 'address': '南京市建邺区江东中路222号南京奥林匹克体育中心内c48柱', 'province': '江苏省', 'city': '南京市', 'area': '建邺区', 'street_id': 'f633606aec286d570b69d9c0', 'telephone': '15312997731', 'detail': 1, 'uid': 'f633606aec286d570b69d9c0', 'detail_info': {'tag': '美食;小吃快餐店', 'type': 'cater', 'detail_url': 'http://api.map.baidu.com/place/detail?uid=f633606aec286d570b69d9c0&output=html&source=placeapi_v2', 'price': '110.0', 'overall_rating': '4.4', 'comment_num': '200', 'children': [], 'lat': 32.01001745067591, 'lng': 118.72088386634802}}"
"{'name': '藤原布二(奥体店)', 'location': {'lat': 32.01735807057962, 'lng': 118.71670602485545}, 'address': '建邺区乐山路167-22号', 'province': '江苏省', 'city': '南京市', 'area': '建邺区', 'street_id': 'e4d4ec55ee854ca2bfa822cd', 'telephone': '(025)85809118', 'detail': 1, 'uid': 'e4d4ec55ee854ca2bfa822cd', 'detail_info': {'tag': '美食;中餐厅', 'navi_location': {'lng': 118.72830996389, 'lat': 32.021120099372}, 'type': 'cater', 'detail_url': 'http://api.map.baidu.com/place/detail?uid=e4d4ec55ee854ca2bfa822cd&output=html&source=placeapi_v2', 'price': '251.0', 'overall_rating': '4.2', 'comment_num': '44', 'children': [], 'lat': 32.01735807057962, 'lng': 118.71670602485545}}"
"{'name': '宴誉(河西中央店)', 'location': {'lat': 32.00932421351585, 'lng': 118.7266665672823}, 'address': '建邺区江东中路237号雨润中央商场4楼(奥体东站4号出口，政务服务中心北面)', 'province': '江苏省', 'city': '南京市', 'area': '建邺区', 'street_id': 'cf5288258e12afe4b9df8fd5', 'telephone': '(025)52336766', 'detail': 1, 'uid': 'cf5288258e12afe4b9df8fd5', 'detail_info': {'tag': '美食;中餐厅', 'navi_location': {'lng': 118.7384635529, 'lat': 32.01196630512}, 'type': 'cater', 'detail_url': 'http://api.map.baidu.com/place/detail?uid=cf5288258e12afe4b9df8fd5&output=html&source=placeapi_v2', 'price': '358.0', 'overall_rating': '4.4', 'comment_num': '109', 'children': [], 'lat': 32.00932421351585, 'lng': 118.7266665672823}}"
"{'name': '玺舍(奥体中心店)', 'location': {'lat': 32.01010280235113, 'lng': 118.7210869764731}, 'address': '建邺区江东中路222号奥体中心47号柱子', 'province': '江苏省', 'city': '南京市', 'area': '建邺区', 'street_id': '5456018617dc6772a11de9f0', 'telephone': '17761724680', 'detail': 1, 'uid': '5456018617dc6772a11de9f0', 'detail_info': {'tag': '美食;中餐厅', 'type': 'cater', 'detail_url': 'http://api.map.baidu.com/place/detail?uid=5456018617dc6772a11de9f0&output=html&source=placeapi_v2', 'overall_rating': '4.1', 'comment_num': '27', 'children': [], 'lat': 32.01010280235113, 'lng': 118.7210869764731}}"
"{'name': '水到渠成茶餐厅', 'location': {'lat': 32.01218505733142, 'lng': 118.71838654221902}, 'address': '江东中路222号奥体中心11号柱1层', 'province': '江苏省', 'city': '南京市', 'area': '建邺区', 'street_id': '0ddc513c85d7d851b020a839', 'telephone': '(025)85576899,18651810968', 'detail': 1, 'uid': '0ddc513c85d7d851b020a839', 'detail_info': {'tag': '美食;中餐厅', 'navi_location': {'lng': 118.73032411986, 'lat': 32.015739546539}, 'type': 'cater', 'detail_url': 'http://api.map.baidu.com/place/detail?uid=0ddc513c85d7d851b020a839&output=html&source=placeapi_v2', 'price': '89.0', 'overall_rating': '4.3', 'comment_num': '26', 'children': [], 'lat': 32.01218505733142, 'lng': 118.71838654221902}}"
"{'name': '芳村榕树头·广州排档(奥体店)', 'location': {'lat': 32.009806751980996, 'lng': 118.72144442203076}, 'address': '梦都大街奥体中心48号', 'province': '江苏省', 'city': '南京市', 'area': '建邺区', 'telephone': '(025)52809908', 'detail': 1, 'uid': '261a40d265373a26ab059d43', 'detail_info': {'tag': '美食;中餐厅', 'type': 'cater', 'detail_url': 'http://api.map.baidu.com/place/detail?uid=261a40d265373a26ab059d43&output=html&source=placeapi_v2', 'price': '136.0', 'overall_rating': '4.3', 'comment_num': '56', 'children': [], 'lat': 32.009806751980996, 'lng': 118.72144442203076}}"
"{'name': '缘生态蒸汽海鲜(梦都大街店)', 'location': {'lat': 32.01827961396027, 'lng': 118.71659326993188}, 'address': '江苏省南京市建邺区梦都大街176-4-105', 'province': '江苏省', 'city': '南京市', 'area': '建邺区', 'street_id': 'ff4e2f8c1602a8af9d9d68f4', 'telephone': '(025)86611765', 'detail': 1, 'uid': 'ff4e2f8c1602a8af9d9d68f4', 'detail_info': {'tag': '美食;中餐厅', 'navi_location': {'lng': 118.72835540159, 'lat': 32.021958483004}, 'type': 'cater', 'detail_url': 'http://api.map.baidu.com/place/detail?uid=ff4e2f8c1602a8af9d9d68f4&output=html&source=placeapi_v2', 'price': '242.0', 'overall_rating': '4.5', 'comment_num': '13', 'children': [], 'lat': 32.01827961396027, 'lng': 118.71659326993188}}"
"{'name': '龙盘私厨', 'location': {'lat': 32.01721217254594, 'lng': 118.71513764753253}, 'address': '梦都大街176-1号101室', 'province': '江苏省', 'city': '南京市', 'area': '建邺区', 'street_id': '6755db71a5f1ddf325d2bbc6', 'telephone': '15305197117,(025)83306600', 'detail': 1, 'uid': '6755db71a5f1ddf325d2bbc6', 'detail_info': {'tag': '美食;中餐厅', 'type': 'cater', 'detail_url': 'http://api.map.baidu.com/place/detail?uid=6755db71a5f1ddf325d2bbc6&output=html&source=placeapi_v2', 'price': '126.0', 'overall_rating': '4.4', 'comment_num': '5', 'children': [], 'lat': 32.01721217254594, 'lng': 118.71513764753253}}"
"{'name': '明福汇家宴(梦都大街店)', 'location': {'lat': 32.01726727020565, 'lng': 118.71481146575766}, 'address': '江苏省南京市建邺区梦都大街176-1', 'province': '江苏省', 'city': '南京市', 'area': '建邺区', 'street_id': 'e21ef8628daf92524bcc4ac4', 'detail': 1, 'uid': 'e21ef8628daf92524bcc4ac4', 'detail_info': {'tag': '美食;中餐厅', 'navi_location': {'lng': 118.7266880747, 'lat': 32.020884363547}, 'type': 'cater', 'detail_url': 'http://api.map.baidu.com/place/detail?uid=e21ef8628daf92524bcc4ac4&output=html&source=placeapi_v2', 'price': '245.0', 'overall_rating': '4.5', 'comment_num': '28', 'children': [], 'lat': 32.01726727020565, 'lng': 118.71481146575766}}"
"{'name': '漫品轩(梦都大街店)', 'location': {'lat': 32.017661092700514, 'lng': 118.71628417285565}, 'address': '梦都大街176-2号', 'province': '江苏省', 'city': '南京市', 'area': '建邺区', 'street_id': '0c38ace90f5fcd7b9c09f73e', 'telephone': '13585165733,15950580687,(025)87787908', 'detail': 1, 'uid': '0c38ace90f5fcd7b9c09f73e', 'detail_info': {'tag': '美食;中餐厅', 'type': 'cater', 'detail_url': 'http://api.map.baidu.com/place/detail?uid=0c38ace90f5fcd7b9c09f73e&output=html&source=placeapi_v2', 'price': '56.0', 'overall_rating': '4.5', 'comment_num': '23', 'children': [], 'lat': 32.017661092700514, 'lng': 118.71628417285565}}"
"{'name': '宴遇恋海自助餐厅(中央商场店)', 'location': {'lat': 32.00913294493335, 'lng': 118.72692680969061}, 'address': '南京市建邺区江东中路与牡丹江街交叉路口往东约50米(中央商场)', 'province': '江苏省', 'city': '南京市', 'area': '建邺区', 'detail': 1, 'uid': '64551f660e6772038b2fb553', 'detail_info': {'tag': '美食;中餐厅', 'navi_location': {'lng': 118.7385494884, 'lat': 32.013571581566}, 'type': 'cater', 'detail_url': 'http://api.map.baidu.com/place/detail?uid=64551f660e6772038b2fb553&output=html&source=placeapi_v2', 'children': [], 'lat': 32.00913294493335, 'lng': 118.72692680969061}}"
"{'name': '二少爷龙虾(奥体中心旗舰店)', 'location': {'lat': 32.00994743397037, 'lng': 118.72159279440184}, 'address': '江苏省南京市建邺区奥体中心46号柱', 'province': '江苏省', 'city': '南京市', 'area': '建邺区', 'telephone': '(025)52839997,15358109997', 'detail': 1, 'uid': '54f6e0771cba244c60180942', 'detail_info': {'tag': '美食;中餐厅', 'type': 'cater', 'detail_url': 'http://api.map.baidu.com/place/detail?uid=54f6e0771cba244c60180942&output=html&source=placeapi_v2', 'price': '207.0', 'overall_rating': '4.6', 'comment_num': '63', 'children': [], 'lat': 32.00994743397037, 'lng': 118.72159279440184}}"
"{'name': '喜粤轩(中央商场店)', 'location': {'lat': 32.009880382225205, 'lng': 118.72742248739344}, 'address': '南京市建邺区江东中路270号中央商场F2', 'province': '江苏省', 'city': '南京市', 'area': '建邺区', 'street_id': '278273f30eec19eea1d23052', 'telephone': '(025)52233728', 'detail': 1, 'uid': '278273f30eec19eea1d23052', 'detail_info': {'tag': '美食;中餐厅', 'indoor_floor': 'F2', 'type': 'cater', 'detail_url': 'http://api.map.baidu.com/place/detail?uid=278273f30eec19eea1d23052&output=html&source=placeapi_v2', 'price': '110.0', 'overall_rating': '4.2', 'comment_num': '183', 'children': [], 'lat': 32.009880382225205, 'lng': 118.72742248739344}}"
"{'name': '南京涵月楼酒店印象全日餐厅', 'location': {'lat': 32.01008485594697, 'lng': 118.72748931519975}, 'address': '建邺区江东中路235号', 'province': '江苏省', 'city': '南京市', 'area': '建邺区', 'street_id': '635af09d8eb3b5e91811d524', 'telephone': '(025)68176000', 'detail': 1, 'uid': '635af09d8eb3b5e91811d524', 'detail_info': {'tag': '美食;中餐厅', 'navi_location': {'lng': 118.73855048372, 'lat': 32.013634572163}, 'type': 'cater', 'detail_url': 'http://api.map.baidu.com/place/detail?uid=635af09d8eb3b5e91811d524&output=html&source=placeapi_v2', 'price': '145.0', 'overall_rating': '3.9', 'comment_num': '90', 'children': [], 'lat': 32.01008485594697, 'lng': 118.72748931519975}}"
"{'name': '特色私房菜(奥体店)', 'location': {'lat': 32.00907948679707, 'lng': 118.71043887974072}, 'address': '奥体大街199号金马郦城4幢125室', 'province': '江苏省', 'city': '南京市', 'area': '建邺区', 'street_id': 'd7b6d51d0feb72ece5e96561', 'telephone': '13337703721', 'detail': 1, 'uid': 'd7b6d51d0feb72ece5e96561', 'detail_info': {'tag': '美食;中餐厅', 'type': 'cater', 'detail_url': 'http://api.map.baidu.com/place/detail?uid=d7b6d51d0feb72ece5e96561&output=html&source=placeapi_v2', 'price': '23.0', 'overall_rating': '4.2', 'comment_num': '4', 'children': [], 'lat': 32.00907948679707, 'lng': 118.71043887974072}}"
"{'name': '老娘舅(211南京地铁奥体东站店)', 'location': {'lat': 32.00725090702625, 'lng': 118.724890905714}, 'address': '南京市建邺区江东中路与新安江街交叉路口东北侧(南京市政服务大厅)', 'province': '江苏省', 'city': '南京市', 'area': '建邺区', 'street_id': 'c22c71c0808d2be63ce2310f', 'telephone': '(025)58800176', 'detail': 1, 'uid': 'c22c71c0808d2be63ce2310f', 'detail_info': {'tag': '美食;小吃快餐店', 'type': 'cater', 'detail_url': 'http://api.map.baidu.com/place/detail?uid=c22c71c0808d2be63ce2310f&output=html&source=placeapi_v2', 'price': '27.0', 'overall_rating': '4.0', 'comment_num': '73', 'children': [], 'lat': 32.00725090702625, 'lng': 118.724890905714}}"
"{'name': '南京涵月楼酒店-九九源中餐厅', 'location': {'lat': 32.009143907607346, 'lng': 118.72692082740228}, 'address': '江东中路235号南京涵月楼酒店7层', 'province': '江苏省', 'city': '南京市', 'area': '建邺区', 'telephone': '(025)68176000,13601584878', 'detail': 1, 'uid': '1041e4f3db5c3d31c2f1cffe', 'detail_info': {'tag': '美食;中餐厅', 'type': 'cater', 'detail_url': 'http://api.map.baidu.com/place/detail?uid=1041e4f3db5c3d31c2f1cffe&output=html&source=placeapi_v2', 'price': '323.0', 'comment_num': '17', 'children': [], 'lat': 32.009143907607346, 'lng': 118.72692082740228}}"
"{'name': '荣意小馆(兴隆大街店)', 'location': {'lat': 32.01861719821801, 'lng': 118.7247449727643}, 'address': '兴隆大街167-3号', 'province': '江苏省', 'city': '南京市', 'area': '建邺区', 'street_id': 'cc4dca25db9d9948c7f02521', 'detail': 1, 'uid': 'cc4dca25db9d9948c7f02521', 'detail_info': {'tag': '美食;中餐厅', 'type': 'cater', 'detail_url': 'http://api.map.baidu.com/place/detail?uid=cc4dca25db9d9948c7f02521&output=html&source=placeapi_v2', 'overall_rating': '3.7', 'comment_num': '3', 'children': [], 'lat': 32.01861719821801, 'lng': 118.7247449727643}}"
"{'name': '稻茉餐厅(奥体店)', 'location': {'lat': 32.011704156716974, 'lng': 118.71925433958752}, 'address': '江东中路222号奥体中心体育场外环道区域(江东中路222号-45)', 'province': '江苏省', 'city': '南京市', 'area': '建邺区', 'telephone': '18351005885', 'detail': 1, 'uid': '7304c47a5cde661ed92f2816', 'detail_info': {'tag': '美食;中餐厅', 'type': 'cater', 'detail_url': 'http://api.map.baidu.com/place/detail?uid=7304c47a5cde661ed92f2816&output=html&source=placeapi_v2', 'overall_rating': '4.9', 'comment_num': '14', 'children': [], 'lat': 32.011704156716974, 'lng': 118.71925433958752}}"
"{'name': '千寻居饭店(梦都大街店)', 'location': {'lat': 32.01824138179864, 'lng': 118.71657737045302}, 'address': '梦都大街176---4号', 'province': '江苏省', 'city': '南京市', 'area': '建邺区', 'street_id': 'c801507b8d6399c9ed74f820', 'telephone': '13913843276', 'detail': 1, 'uid': 'c801507b8d6399c9ed74f820', 'detail_info': {'tag': '美食;中餐厅', 'navi_location': {'lng': 118.72834613198, 'lat': 32.02198474638}, 'type': 'cater', 'detail_url': 'http://api.map.baidu.com/place/detail?uid=c801507b8d6399c9ed74f820&output=html&source=placeapi_v2', 'price': '38.0', 'overall_rating': '4.8', 'comment_num': '10', 'children': [], 'lat': 32.01824138179864, 'lng': 118.71657737045302}}"
"{'name': '环球美食城', 'location': {'lat': 32.01095088602052, 'lng': 118.71721459162973}, 'address': '江苏省南京市建邺区河西中央商务区建邺区金奥国际购物中心环球美食城', 'province': '江苏省', 'city': '南京市', 'area': '建邺区', 'detail': 1, 'uid': 'c336fcf39246877d31f71deb', 'detail_info': {'tag': '美食;中餐厅', 'type': 'cater', 'detail_url': 'http://api.map.baidu.com/place/detail?uid=c336fcf39246877d31f71deb&output=html&source=placeapi_v2', 'children': [], 'lat': 32.01095088602052, 'lng': 118.71721459162973}}"
"{'name': '东塘人家餐厅(梦都大街店)', 'location': {'lat': 32.017782255333415, 'lng': 118.71636369799586}, 'address': '梦都大街176号--106(近乐山路)', 'province': '江苏省', 'city': '南京市', 'area': '建邺区', 'street_id': '49d9593895702e5ac61e516c', 'telephone': '(025)86690179,13739191856', 'detail': 1, 'uid': '49d9593895702e5ac61e516c', 'detail_info': {'tag': '美食;中餐厅', 'navi_location': {'lng': 118.72813448761, 'lat': 32.021503266884}, 'type': 'cater', 'detail_url': 'http://api.map.baidu.com/place/detail?uid=49d9593895702e5ac61e516c&output=html&source=placeapi_v2', 'price': '20.0', 'overall_rating': '3.1', 'comment_num': '12', 'children': [], 'lat': 32.017782255333415, 'lng': 118.71636369799586}}"
"{'name': '品品香(南京体验中心)', 'location': {'lat': 32.01051589250368, 'lng': 118.716582935144}, 'address': '南京市建邺区江东中路222号奥体中心内66号柱向西80米', 'province': '江苏省', 'city': '南京市', 'area': '建邺区', 'street_id': 'a1292341c667fa13ebf85356', 'telephone': '(025)84494913', 'detail': 1, 'uid': 'a1292341c667fa13ebf85356', 'detail_info': {'tag': '美食;中餐厅', 'type': 'cater', 'detail_url': 'http://api.map.baidu.com/place/detail?uid=a1292341c667fa13ebf85356&output=html&source=placeapi_v2', 'children': [], 'lat': 32.01051589250368, 'lng': 118.716582935144}}"
"{'name': '民国红公馆', 'location': {'lat': 32.01095088602052, 'lng': 118.71721459162973}, 'address': '江苏省南京市建邺区河西中央商务区江东中路329号金奥国际购物中心', 'province': '江苏省', 'city': '南京市', 'area': '建邺区', 'detail': 1, 'uid': '0a1a556f1db39aa4deee8b70', 'detail_info': {'tag': '美食;中餐厅', 'type': 'life', 'detail_url': 'http://api.map.baidu.com/place/detail?uid=0a1a556f1db39aa4deee8b70&output=html&source=placeapi_v2', 'image_num': '1', 'children': [], 'lat': 32.01095088602052, 'lng': 118.71721459162973}}"
"{'name': '蟹逅龙虾主题餐厅(奥体店)', 'location': {'lat': 32.00911260916201, 'lng': 118.71050546354722}, 'address': '奥体大街199号金马郦城4幢127室(近出云寿司)', 'province': '江苏省', 'city': '南京市', 'area': '建邺区', 'street_id': '345fd13e213a78d608ccdd95', 'telephone': '18251962077', 'detail': 1, 'uid': '345fd13e213a78d608ccdd95', 'detail_info': {'tag': '美食;中餐厅', 'navi_location': {'lng': 118.72234848205, 'lat': 32.012997531638}, 'type': 'cater', 'detail_url': 'http://api.map.baidu.com/place/detail?uid=345fd13e213a78d608ccdd95&output=html&source=placeapi_v2', 'price': '119.0', 'overall_rating': '4.6', 'comment_num': '44', 'children': [], 'lat': 32.00911260916201, 'lng': 118.71050546354722}}"
"{'name': '丽城餐饮', 'location': {'lat': 32.008929226538136, 'lng': 118.71048557519474}, 'address': '奥体大街199号金马郦城5幢108', 'province': '江苏省', 'city': '南京市', 'area': '建邺区', 'street_id': '5734ecb99c4898f9a1d230c7', 'telephone': '15251856716', 'detail': 1, 'uid': '5734ecb99c4898f9a1d230c7', 'detail_info': {'tag': '美食;中餐厅', 'navi_location': {'lng': 118.72214200024, 'lat': 32.01290601283}, 'type': 'cater', 'detail_url': 'http://api.map.baidu.com/place/detail?uid=5734ecb99c4898f9a1d230c7&output=html&source=placeapi_v2', 'overall_rating': '4.4', 'comment_num': '5', 'children': [], 'lat': 32.008929226538136, 'lng': 118.71048557519474}}"
"{'name': '棕榈树咖啡', 'location': {'lat': 32.0177604644783, 'lng': 118.71708487446368}, 'address': '南京市建邺区乐山路167-16号', 'province': '江苏省', 'city': '南京市', 'area': '建邺区', 'street_id': '9def621ef2487a3672455bbd', 'telephone': '(025)58811066', 'detail': 1, 'uid': '9def621ef2487a3672455bbd', 'detail_info': {'tag': '美食;咖啡厅', 'navi_location': {'lng': 118.72876245795, 'lat': 32.021569714073}, 'type': 'cater', 'detail_url': 'http://api.map.baidu.com/place/detail?uid=9def621ef2487a3672455bbd&output=html&source=placeapi_v2', 'price': '64.0', 'overall_rating': '3.6', 'comment_num': '28', 'children': [], 'lat': 32.0177604644783, 'lng': 118.71708487446368}}"
"{'name': '钱生记餐厅(梦都大街店)', 'location': {'lat': 32.017468055822185, 'lng': 118.71394734802247}, 'address': '梦都大街176-1号102室', 'province': '江苏省', 'city': '南京市', 'area': '建邺区', 'street_id': '92be12245c132e1ec7effb00', 'telephone': '13813847998,13813847996', 'detail': 1, 'uid': '92be12245c132e1ec7effb00', 'detail_info': {'tag': '美食;中餐厅', 'navi_location': {'lng': 118.72697050285, 'lat': 32.020798995357}, 'type': 'cater', 'detail_url': 'http://api.map.baidu.com/place/detail?uid=92be12245c132e1ec7effb00&output=html&source=placeapi_v2', 'price': '25.0', 'overall_rating': '3.6', 'comment_num': '17', 'children': [], 'lat': 32.017468055822185, 'lng': 118.71394734802247}}"
"{'name': '蒸汽海鲜', 'location': {'lat': 32.01827769861943, 'lng': 118.71659923885362}, 'address': '江苏省南京市建邺区梦都大街176-104号附近', 'province': '江苏省', 'city': '南京市', 'area': '建邺区', 'street_id': '98f382a9a594473a354aae02', 'detail': 1, 'uid': '98f382a9a594473a354aae02', 'detail_info': {'tag': '美食;中餐厅', 'type': 'cater', 'detail_url': 'http://api.map.baidu.com/place/detail?uid=98f382a9a594473a354aae02&output=html&source=placeapi_v2', 'children': [], 'lat': 32.01827769861943, 'lng': 118.71659923885362}}"
"{'name': '宴誉(中央商场店)', 'location': {'lat': 32.00947541049522, 'lng': 118.72776955545653}, 'address': '南京市建邺区江东中路270号中央商场F4', 'province': '江苏省', 'city': '南京市', 'area': '建邺区', 'telephone': '19962030027', 'detail': 1, 'uid': '9d4017d43d1755bbce04efb7', 'detail_info': {'tag': '美食;中餐厅', 'indoor_floor': 'F4', 'type': 'cater', 'detail_url': 'http://api.map.baidu.com/place/detail?uid=9d4017d43d1755bbce04efb7&output=html&source=placeapi_v2', 'children': [], 'lat': 32.00947541049522, 'lng': 118.72776955545653}}"
"{'name': '大碗土菜馆', 'location': {'lat': 32.01094820902122, 'lng': 118.71731009394524}, 'address': '江苏省南京市建邺区庐山路128号东渡新锐大厦', 'province': '江苏省', 'city': '南京市', 'area': '建邺区', 'detail': 1, 'uid': '0d5377a9977f5cb7eb1e97d9', 'detail_info': {'tag': '美食;中餐厅', 'type': 'cater', 'detail_url': 'http://api.map.baidu.com/place/detail?uid=0d5377a9977f5cb7eb1e97d9&output=html&source=placeapi_v2', 'children': [], 'lat': 32.01094820902122, 'lng': 118.71731009394524}}"
"{'name': '华灯仿煌飛鸿酒楼', 'location': {'lat': 32.010992089626896, 'lng': 118.71722851786292}, 'address': '江苏省南京市建邺区河西中央商务区江东中路236号华灯仿煌飛鸿酒楼', 'province': '江苏省', 'city': '南京市', 'area': '建邺区', 'detail': 1, 'uid': '7ba7526ac080b85310293510', 'detail_info': {'tag': '美食;中餐厅', 'type': 'cater', 'detail_url': 'http://api.map.baidu.com/place/detail?uid=7ba7526ac080b85310293510&output=html&source=placeapi_v2', 'children': [], 'lat': 32.010992089626896, 'lng': 118.71722851786292}}"
"{'name': '凤望锦里火锅', 'location': {'lat': 32.0110062311841, 'lng': 118.71723846557087}, 'address': '河西中央商务区江东中路220凤望锦里火锅', 'province': '江苏省', 'city': '南京市', 'area': '建邺区', 'detail': 1, 'uid': '887da8866aedbe24bbbd63a8', 'detail_info': {'tag': '美食;中餐厅', 'type': 'cater', 'detail_url': 'http://api.map.baidu.com/place/detail?uid=887da8866aedbe24bbbd63a8&output=html&source=placeapi_v2', 'children': [], 'lat': 32.0110062311841, 'lng': 118.71723846557087}}"
"{'name': '蜀三郎冒菜(中央商场店)', 'location': {'lat': 32.00926158219772, 'lng': 118.72686798545668}, 'address': '南京市建邺区江东中路270号中央商场B1', 'province': '江苏省', 'city': '南京市', 'area': '建邺区', 'street_id': 'ee06898b99de408d077ce88e', 'telephone': '18018029277', 'detail': 1, 'uid': 'ee06898b99de408d077ce88e', 'detail_info': {'tag': '美食;中餐厅', 'navi_location': {'lng': 118.7380651068, 'lat': 32.013260071968}, 'indoor_floor': 'B1', 'type': 'cater', 'detail_url': 'http://api.map.baidu.com/place/detail?uid=ee06898b99de408d077ce88e&output=html&source=placeapi_v2', 'price': '30.0', 'overall_rating': '4.5', 'comment_num': '61', 'children': [], 'lat': 32.00926158219772, 'lng': 118.72686798545668}}"
"{'name': '南京奥林匹克体育中心-餐厅', 'location': {'lat': 32.00952835976938, 'lng': 118.71808311441062}, 'address': '南京市建邺区江东中路222号奥体中心体育场1楼', 'province': '江苏省', 'city': '南京市', 'area': '建邺区', 'street_id': '87aa91707ddad4e25b10932e', 'detail': 1, 'uid': '87aa91707ddad4e25b10932e', 'detail_info': {'tag': '美食;中餐厅', 'navi_location': {'lng': 118.72988100282, 'lat': 32.01352387633}, 'type': 'cater', 'detail_url': 'http://api.map.baidu.com/place/detail?uid=87aa91707ddad4e25b10932e&output=html&source=placeapi_v2', 'overall_rating': '3.7', 'comment_num': '4', 'children': [], 'lat': 32.00952835976938, 'lng': 118.71808311441062}}"
"{'name': '闽南海鲜馆', 'location': {'lat': 32.01095314143671, 'lng': 118.71730511970303}, 'address': '江苏省南京市建邺区沙洲街道新安江街99号东渡新锐国际大厦四合院子内闽南海鲜馆', 'province': '江苏省', 'city': '南京市', 'area': '建邺区', 'detail': 1, 'uid': 'cd9cf87f057e39d7d4851f70', 'detail_info': {'tag': '美食;中餐厅', 'type': 'life', 'detail_url': 'http://api.map.baidu.com/place/detail?uid=cd9cf87f057e39d7d4851f70&output=html&source=placeapi_v2', 'image_num': '1', 'children': [], 'lat': 32.01095314143671, 'lng': 118.71730511970303}}"
"{'name': '东北饼店', 'location': {'lat': 32.00615864028909, 'lng': 118.7184040396491}, 'address': '建邺区奥体大街177号(负一层)', 'province': '江苏省', 'city': '南京市', 'area': '建邺区', 'telephone': '13951897466', 'detail': 1, 'uid': '6637763da5e36f854307c1ed', 'detail_info': {'tag': '美食;中餐厅', 'type': 'cater', 'detail_url': 'http://api.map.baidu.com/place/detail?uid=6637763da5e36f854307c1ed&output=html&source=placeapi_v2', 'overall_rating': '3.0', 'comment_num': '1', 'children': [], 'lat': 32.00615864028909, 'lng': 118.7184040396491}}"
"{'name': '虾小哥烧汁虾米饭', 'location': {'lat': 32.01099598011681, 'lng': 118.71722055929659}, 'address': '江苏省南京市建邺区河西中央商务区江东中路305号1-', 'province': '江苏省', 'city': '南京市', 'area': '建邺区', 'detail': 1, 'uid': '9af3ce3063a55a79734b8798', 'detail_info': {'tag': '美食;中餐厅', 'type': 'cater', 'detail_url': 'http://api.map.baidu.com/place/detail?uid=9af3ce3063a55a79734b8798&output=html&source=placeapi_v2', 'children': [], 'lat': 32.01099598011681, 'lng': 118.71722055929659}}"
"{'name': '桃源', 'location': {'lat': 32.018395956269146, 'lng': 118.71661610012971}, 'address': '江苏省南京市建邺区梦都大街176-4号', 'province': '江苏省', 'city': '南京市', 'area': '建邺区', 'telephone': '13390776668', 'detail': 1, 'uid': '5045c0c5554f859209a8d41b', 'detail_info': {'tag': '美食;其他', 'type': 'cater', 'detail_url': 'http://api.map.baidu.com/place/detail?uid=5045c0c5554f859209a8d41b&output=html&source=placeapi_v2', 'overall_rating': '4.0', 'comment_num': '2', 'children': [], 'lat': 32.018395956269146, 'lng': 118.71661610012971}}"
"{'name': '京一顺火锅体', 'location': {'lat': 32.01095088602052, 'lng': 118.71721459162973}, 'address': '江苏省南京市建邺区河西中央商务区金奥国际购物中心京一顺火锅体', 'province': '江苏省', 'city': '南京市', 'area': '建邺区', 'detail': 1, 'uid': '516203fb9b068fe3df1e520a', 'detail_info': {'tag': '美食;中餐厅', 'type': 'cater', 'detail_url': 'http://api.map.baidu.com/place/detail?uid=516203fb9b068fe3df1e520a&output=html&source=placeapi_v2', 'children': [], 'lat': 32.01095088602052, 'lng': 118.71721459162973}}"
"{'name': '桉树叶', 'location': {'lat': 32.017578936215656, 'lng': 118.71704913063773}, 'address': '江苏省南京市建邺区乐山路167-18号', 'province': '江苏省', 'city': '南京市', 'area': '建邺区', 'telephone': '17368727517', 'detail': 1, 'uid': 'ac4d6000b751d8ae1894c669', 'detail_info': {'tag': '购物;商铺', 'type': 'shopping', 'detail_url': 'http://api.map.baidu.com/place/detail?uid=ac4d6000b751d8ae1894c669&output=html&source=placeapi_v2', 'overall_rating': '0.0', 'comment_num': '2', 'children': [], 'lat': 32.017578936215656, 'lng': 118.71704913063773}}"
"{'name': '觅渡', 'location': {'lat': 32.00936230787835, 'lng': 118.71072311448559}, 'address': '南京市建邺区奥体大街与乐山路交叉路口往西约50米(金马郦城C区)', 'province': '江苏省', 'city': '南京市', 'area': '建邺区', 'detail': 1, 'uid': 'b3180b621d86bb8325e0a023', 'detail_info': {'tag': '美食;小吃快餐店', 'type': 'cater', 'detail_url': 'http://api.map.baidu.com/place/detail?uid=b3180b621d86bb8325e0a023&output=html&source=placeapi_v2', 'price': '785.0', 'overall_rating': '4.9', 'comment_num': '9', 'children': [], 'lat': 32.00936230787835, 'lng': 118.71072311448559}}"
"{'name': '童福兴淮扬菜馆', 'location': {'lat': 32.01095088602052, 'lng': 118.71721459162973}, 'address': '江苏省南京市建邺区庐山路128号新锐大厦商铺148淮阳邨菜馆', 'province': '江苏省', 'city': '南京市', 'area': '建邺区', 'detail': 1, 'uid': 'ec5f209f4477e1eb6849f354', 'detail_info': {'tag': '美食;中餐厅', 'type': 'cater', 'detail_url': 'http://api.map.baidu.com/place/detail?uid=ec5f209f4477e1eb6849f354&output=html&source=placeapi_v2', 'children': [], 'lat': 32.01095088602052, 'lng': 118.71721459162973}}"
"{'name': '飞泉面食馆', 'location': {'lat': 32.01094820902122, 'lng': 118.71731009394524}, 'address': '江苏省南京市建邺区庐山路128号东渡新锐大厦', 'province': '江苏省', 'city': '南京市', 'area': '建邺区', 'detail': 1, 'uid': '4edadaa788e12ac807fef5bf', 'detail_info': {'tag': '美食;中餐厅', 'type': 'life', 'detail_url': 'http://api.map.baidu.com/place/detail?uid=4edadaa788e12ac807fef5bf&output=html&source=placeapi_v2', 'image_num': '1', 'children': [], 'lat': 32.01094820902122, 'lng': 118.71731009394524}}"
"{'name': '享赞台湾食品', 'location': {'lat': 32.0091814674107, 'lng': 118.71019740825885}, 'address': '南京市建邺区奥体大街199号金马郦城西区4栋111室', 'province': '江苏省', 'city': '南京市', 'area': '建邺区', 'telephone': '15358183688,15895988225', 'detail': 1, 'uid': '8d4b39c2c4c4da1b128824a5', 'detail_info': {'tag': '美食;小吃快餐店', 'navi_location': {'lng': 118.72188651677, 'lat': 32.013135998961}, 'type': 'cater', 'detail_url': 'http://api.map.baidu.com/place/detail?uid=8d4b39c2c4c4da1b128824a5&output=html&source=placeapi_v2', 'overall_rating': '4.5', 'comment_num': '2', 'children': [], 'lat': 32.0091814674107, 'lng': 118.71019740825885}}"
"{'name': '龙门飞爪(中央商场河西店)', 'location': {'lat': 32.00888811895088, 'lng': 118.7265279381796}, 'address': '建邺区江东中路237号', 'province': '江苏省', 'city': '南京市', 'area': '建邺区', 'detail': 1, 'uid': '314f54b54d66de57e31103f5', 'detail_info': {'tag': '美食;中餐厅', 'type': 'cater', 'detail_url': 'http://api.map.baidu.com/place/detail?uid=314f54b54d66de57e31103f5&output=html&source=placeapi_v2', 'price': '23.0', 'comment_num': '6', 'children': [], 'lat': 32.00888811895088, 'lng': 118.7265279381796}}"
"{'name': '御品清汤', 'location': {'lat': 32.010982963070234, 'lng': 118.71721956483877}, 'address': '江苏省南京市建邺区河西中央商务区江东中路329号金奥国际购物中心鱼无双往前走正在装修的御品清汤', 'province': '江苏省', 'city': '南京市', 'area': '建邺区', 'detail': 1, 'uid': 'dce7d269e6e72e3fd618b778', 'detail_info': {'tag': '美食;中餐厅', 'type': 'cater', 'detail_url': 'http://api.map.baidu.com/place/detail?uid=dce7d269e6e72e3fd618b778&output=html&source=placeapi_v2', 'children': [], 'lat': 32.010982963070234, 'lng': 118.71721956483877}}"
"{'name': '金牌酸汤锅', 'location': {'lat': 32.01099598011681, 'lng': 118.71722055929659}, 'address': '江苏省南京市建邺区河西中央商务区江东中路305号1-117金牌酸汤锅', 'province': '江苏省', 'city': '南京市', 'area': '建邺区', 'detail': 1, 'uid': 'f21223dda526fc7bbadf8f59', 'detail_info': {'tag': '美食;中餐厅', 'type': 'cater', 'detail_url': 'http://api.map.baidu.com/place/detail?uid=f21223dda526fc7bbadf8f59&output=html&source=placeapi_v2', 'children': [], 'lat': 32.01099598011681, 'lng': 118.71722055929659}}"
"{'name': '苏妹菜园', 'location': {'lat': 32.0062024098029, 'lng': 118.71713254807823}, 'address': '环宇农贸市场负一楼', 'province': '江苏省', 'city': '南京市', 'area': '建邺区', 'detail': 1, 'uid': '89814535c5fbe34a9fec2b36', 'detail_info': {'tag': '美食;中餐厅', 'type': 'shopping', 'detail_url': 'http://api.map.baidu.com/place/detail?uid=89814535c5fbe34a9fec2b36&output=html&source=placeapi_v2', 'children': [], 'lat': 32.0062024098029, 'lng': 118.71713254807823}}"
"{'name': '金渔姬(隐食纪奥体店)', 'location': {'lat': 32.010570149964565, 'lng': 118.72101927720061}, 'address': '江东中路222号南京奥体中心体育场商业区一层隐食器南京奥体中心厨房第A2-5号', 'province': '江苏省', 'city': '南京市', 'area': '建邺区', 'detail': 1, 'uid': '03d5ed6bc4bbf2a94f6d4692', 'detail_info': {'tag': '美食;中餐厅', 'type': 'cater', 'detail_url': 'http://api.map.baidu.com/place/detail?uid=03d5ed6bc4bbf2a94f6d4692&output=html&source=placeapi_v2', 'children': [], 'lat': 32.010570149964565, 'lng': 118.72101927720061}}"
"{'name': '寿千庭锅物料理店', 'location': {'lat': 32.01095088602052, 'lng': 118.71721459162973}, 'address': '江苏省南京市建邺区河西中央商务区江东中路329号金奥国际购物中心', 'province': '江苏省', 'city': '南京市', 'area': '建邺区', 'detail': 1, 'uid': '4d3b952fb9d122244251c042', 'detail_info': {'tag': '美食;外国餐厅', 'type': 'cater', 'detail_url': 'http://api.map.baidu.com/place/detail?uid=4d3b952fb9d122244251c042&output=html&source=placeapi_v2', 'children': [], 'lat': 32.01095088602052, 'lng': 118.71721459162973}}"
"{'name': '水西门老卤瘦型鸭', 'location': {'lat': 32.00615865340858, 'lng': 118.71840503469829}, 'address': '奥体大街177号', 'province': '江苏省', 'city': '南京市', 'area': '建邺区', 'detail': 1, 'uid': '9c2cced93713200b30169bcb', 'detail_info': {'tag': '美食;小吃快餐店', 'detail_url': 'http://api.map.baidu.com/place/detail?uid=9c2cced93713200b30169bcb&output=html&source=placeapi_v2', 'children': [], 'lat': 32.00615865340858, 'lng': 118.71840503469829}}"
"{'name': '谷田稻香', 'location': {'lat': 32.0109418837781, 'lng': 118.71721459185059}, 'address': '江苏省南京市建邺区江东中路329号金奥国际中心商场', 'province': '江苏省', 'city': '南京市', 'area': '建邺区', 'detail': 1, 'uid': '2d52b015021e7668eb12e4d2', 'detail_info': {'tag': '美食;小吃快餐店', 'type': 'cater', 'detail_url': 'http://api.map.baidu.com/place/detail?uid=2d52b015021e7668eb12e4d2&output=html&source=placeapi_v2', 'children': [], 'lat': 32.0109418837781, 'lng': 118.71721459185059}}"
"{'name': '食云集', 'location': {'lat': 32.00940926425275, 'lng': 118.72132093333066}, 'address': '江东中路222号奥体中心体育馆34号', 'province': '江苏省', 'city': '南京市', 'area': '建邺区', 'detail': 1, 'uid': 'feb3caf0e9dc567b28d7ab25', 'detail_info': {'tag': '美食;小吃快餐店', 'type': 'cater', 'detail_url': 'http://api.map.baidu.com/place/detail?uid=feb3caf0e9dc567b28d7ab25&output=html&source=placeapi_v2', 'image_num': '1', 'children': [], 'lat': 32.00940926425275, 'lng': 118.72132093333066}}"
"{'name': '源江渔港(绿博园店)', 'location': {'lat': 32.02591142521095, 'lng': 118.70838683524282}, 'address': '南京市建邺区扬子江大道88号地铁10号线绿博园站2号出口(绿博园东大门)', 'province': '江苏省', 'city': '南京市', 'area': '建邺区', 'street_id': 'b703e96bc8be4de38f1a891e', 'telephone': '(025)51877777', 'detail': 1, 'uid': 'b703e96bc8be4de38f1a891e', 'detail_info': {'tag': '美食;中餐厅', 'navi_location': {'lng': 118.72072783381, 'lat': 32.030099106012}, 'type': 'cater', 'detail_url': 'http://api.map.baidu.com/place/detail?uid=b703e96bc8be4de38f1a891e&output=html&source=placeapi_v2', 'price': '183.0', 'overall_rating': '3.9', 'comment_num': '30', 'children': [], 'lat': 32.02591142521095, 'lng': 118.70838683524282}}"
"{'name': '江南名灶(兴隆大街店)', 'location': {'lat': 32.02047373510496, 'lng': 118.72207917131179}, 'address': '南京市兴隆大街172-8号', 'province': '江苏省', 'city': '南京市', 'area': '建邺区', 'street_id': '929cd6981dc7b86f744ff14a', 'telephone': '(025)87776877', 'detail': 1, 'uid': '929cd6981dc7b86f744ff14a', 'detail_info': {'tag': '美食;中餐厅', 'navi_location': {'lng': 118.73368920195, 'lat': 32.024200538413}, 'type': 'cater', 'detail_url': 'http://api.map.baidu.com/place/detail?uid=929cd6981dc7b86f744ff14a&output=html&source=placeapi_v2', 'price': '91.0', 'overall_rating': '4.5', 'comment_num': '64', 'children': [], 'lat': 32.02047373510496, 'lng': 118.72207917131179}}"
"{'name': '绿杨春生态酒店(兴隆大街店)', 'location': {'lat': 32.02193761031502, 'lng': 118.7151911081549}, 'address': '江苏省南京市建邺区兴隆大街209号', 'province': '江苏省', 'city': '南京市', 'area': '建邺区', 'street_id': '28f4ca9f2f768302dc1e52c3', 'telephone': '(025)85789199,(025)85789099', 'detail': 1, 'uid': '28f4ca9f2f768302dc1e52c3', 'detail_info': {'tag': '美食;中餐厅', 'navi_location': {'lng': 118.72695122072, 'lat': 32.026014744805}, 'type': 'cater', 'detail_url': 'http://api.map.baidu.com/place/detail?uid=28f4ca9f2f768302dc1e52c3&output=html&source=placeapi_v2', 'price': '97.0', 'overall_rating': '4.3', 'comment_num': '145', 'children': [], 'lat': 32.02193761031502, 'lng': 118.7151911081549}}"
"{'name': '秋庭', 'location': {'lat': 32.021433137318006, 'lng': 118.71203187991227}, 'address': '江苏省南京市建邺区螺丝桥大街80号东南60米', 'province': '江苏省', 'city': '南京市', 'area': '建邺区', 'street_id': '6b87af07c15c1a5879b55c8c', 'telephone': '18551666777', 'detail': 1, 'uid': '6b87af07c15c1a5879b55c8c', 'detail_info': {'tag': '美食;中餐厅', 'navi_location': {'lng': 118.72366327703, 'lat': 32.025243865094}, 'type': 'cater', 'detail_url': 'http://api.map.baidu.com/place/detail?uid=6b87af07c15c1a5879b55c8c&output=html&source=placeapi_v2', 'overall_rating': '3.7', 'comment_num': '10', 'children': [], 'lat': 32.021433137318006, 'lng': 118.71203187991227}}"
"{'name': '奥皇建邺印象', 'location': {'lat': 32.01911216985821, 'lng': 118.72508859674986}, 'address': '江苏省南京市建邺区兴隆大街168号', 'province': '江苏省', 'city': '南京市', 'area': '建邺区', 'street_id': '606289fd9096b454a3046486', 'telephone': '(025)86297777', 'detail': 1, 'uid': '606289fd9096b454a3046486', 'detail_info': {'tag': '美食;中餐厅', 'navi_location': {'lng': 118.7367194694, 'lat': 32.022492238577}, 'type': 'cater', 'detail_url': 'http://api.map.baidu.com/place/detail?uid=606289fd9096b454a3046486&output=html&source=placeapi_v2', 'price': '94.0', 'overall_rating': '3.8', 'comment_num': '78', 'children': [], 'lat': 32.01911216985821, 'lng': 118.72508859674986}}"
"{'name': '静轩苑餐饮', 'location': {'lat': 32.02299585711485, 'lng': 118.71500052907697}, 'address': '江苏省南京市建邺区兴隆大街210号', 'province': '江苏省', 'city': '南京市', 'area': '建邺区', 'street_id': '1d07d872c9bb88991811d5c5', 'detail': 1, 'uid': '1d07d872c9bb88991811d5c5', 'detail_info': {'tag': '美食;中餐厅', 'navi_location': {'lng': 118.72678653976, 'lat': 32.026259601986}, 'type': 'cater', 'detail_url': 'http://api.map.baidu.com/place/detail?uid=1d07d872c9bb88991811d5c5&output=html&source=placeapi_v2', 'price': '242.0', 'overall_rating': '4.8', 'comment_num': '20', 'children': [], 'lat': 32.02299585711485, 'lng': 118.71500052907697}}"
"{'name': '海生全羊馆(乐山路店)', 'location': {'lat': 32.02407848190787, 'lng': 118.72001104512702}, 'address': '江苏省南京市建邺区乐山路113-4号', 'province': '江苏省', 'city': '南京市', 'area': '建邺区', 'street_id': 'a6a7391a88c0daf88bfc0622', 'telephone': '13814541691', 'detail': 1, 'uid': 'a6a7391a88c0daf88bfc0622', 'detail_info': {'tag': '美食;中餐厅', 'type': 'cater', 'detail_url': 'http://api.map.baidu.com/place/detail?uid=a6a7391a88c0daf88bfc0622&output=html&source=placeapi_v2', 'overall_rating': '4.4', 'comment_num': '5', 'children': [], 'lat': 32.02407848190787, 'lng': 118.72001104512702}}"
"{'name': '如东私房菜', 'location': {'lat': 32.019304349723015, 'lng': 118.71018642119708}, 'address': '南京市建邺区螺丝桥大街144号', 'province': '江苏省', 'city': '南京市', 'area': '建邺区', 'street_id': 'ef2490dc4e2da2930189722d', 'telephone': '(025)86211176', 'detail': 1, 'uid': 'ef2490dc4e2da2930189722d', 'detail_info': {'tag': '美食;中餐厅', 'navi_location': {'lng': 118.72218520515, 'lat': 32.02318690643}, 'type': 'cater', 'detail_url': 'http://api.map.baidu.com/place/detail?uid=ef2490dc4e2da2930189722d&output=html&source=placeapi_v2', 'price': '147.0', 'overall_rating': '3.3', 'comment_num': '36', 'children': [], 'lat': 32.019304349723015, 'lng': 118.71018642119708}}"
"{'name': '茶马林(兴隆大街店)', 'location': {'lat': 32.02005970207756, 'lng': 118.7224608265177}, 'address': '兴隆大街172-2号', 'province': '江苏省', 'city': '南京市', 'area': '建邺区', 'street_id': '727cd5e8affc9c79c3f1cf4e', 'telephone': '(025)85566912', 'detail': 1, 'uid': '727cd5e8affc9c79c3f1cf4e', 'detail_info': {'tag': '美食;中餐厅', 'navi_location': {'lng': 118.73414584747, 'lat': 32.023754698774}, 'type': 'cater', 'detail_url': 'http://api.map.baidu.com/place/detail?uid=727cd5e8affc9c79c3f1cf4e&output=html&source=placeapi_v2', 'price': '24.0', 'overall_rating': '3.3', 'comment_num': '20', 'children': [], 'lat': 32.02005970207756, 'lng': 118.7224608265177}}"
"{'name': '俏陵轩餐饮连锁(月安街店)', 'location': {'lat': 32.0245448193151, 'lng': 118.71545793498161}, 'address': '江苏省南京市建邺区月安街57-1号河西汇锦国际小区对面', 'province': '江苏省', 'city': '南京市', 'area': '建邺区', 'street_id': 'b81db7fda8ba35b982a12e21', 'telephone': '(025)58801998', 'detail': 1, 'uid': 'b81db7fda8ba35b982a12e21', 'detail_info': {'tag': '美食;中餐厅', 'navi_location': {'lng': 118.72747618238, 'lat': 32.0282635922}, 'type': 'cater', 'detail_url': 'http://api.map.baidu.com/place/detail?uid=b81db7fda8ba35b982a12e21&output=html&source=placeapi_v2', 'price': '132.0', 'overall_rating': '4.0', 'comment_num': '78', 'children': [], 'lat': 32.0245448193151, 'lng': 118.71545793498161}}"
"{'name': '一5小龚菜馆', 'location': {'lat': 32.02561232858058, 'lng': 118.72782263598089}, 'address': '建邺区商业文化旅游中心区燕山路128号-3', 'province': '江苏省', 'city': '南京市', 'area': '建邺区', 'street_id': '15454827cb8ddea771210b00', 'telephone': '13770725270,13382040288', 'detail': 1, 'uid': '15454827cb8ddea771210b00', 'detail_info': {'tag': '美食;中餐厅', 'navi_location': {'lng': 118.73972929483, 'lat': 32.029184500079}, 'type': 'cater', 'detail_url': 'http://api.map.baidu.com/place/detail?uid=15454827cb8ddea771210b00&output=html&source=placeapi_v2', 'price': '37.0', 'overall_rating': '3.5', 'comment_num': '8', 'children': [], 'lat': 32.02561232858058, 'lng': 118.72782263598089}}"
"{'name': '蛙蛙叫干锅年代(乐山路店)', 'location': {'lat': 32.024162921455776, 'lng': 118.72012944293056}, 'address': '建邱区乐山路113-9号', 'province': '江苏省', 'city': '南京市', 'area': '建邺区', 'street_id': '2a4f3c5ffd7ab989b6147f58', 'telephone': '(025)84615277', 'detail': 1, 'uid': '2a4f3c5ffd7ab989b6147f58', 'detail_info': {'tag': '美食;中餐厅', 'navi_location': {'lng': 118.73178722778, 'lat': 32.027897906319}, 'type': 'cater', 'detail_url': 'http://api.map.baidu.com/place/detail?uid=2a4f3c5ffd7ab989b6147f58&output=html&source=placeapi_v2', 'price': '94.0', 'overall_rating': '3.9', 'comment_num': '68', 'children': [], 'lat': 32.024162921455776, 'lng': 118.72012944293056}}"
"{'name': '采青·吃茶一处', 'location': {'lat': 32.020122424865995, 'lng': 118.72214806599112}, 'address': '兴隆大街172-3号', 'province': '江苏省', 'city': '南京市', 'area': '建邺区', 'telephone': '18951741717,(025)84501717', 'detail': 1, 'uid': 'b11b71a7c0ee945bb6f42f6d', 'detail_info': {'tag': '美食;中餐厅', 'type': 'cater', 'detail_url': 'http://api.map.baidu.com/place/detail?uid=b11b71a7c0ee945bb6f42f6d&output=html&source=placeapi_v2', 'price': '272.0', 'overall_rating': '4.9', 'comment_num': '24', 'children': [], 'lat': 32.020122424865995, 'lng': 118.72214806599112}}"
"{'name': '浮生三记', 'location': {'lat': 32.02632106793657, 'lng': 118.72613383021016}, 'address': '应天大街北150米', 'province': '江苏省', 'city': '南京市', 'area': '建邺区', 'detail': 1, 'uid': '5dbde8907b4fa816213bf20d', 'detail_info': {'tag': '美食;中餐厅', 'type': 'cater', 'detail_url': 'http://api.map.baidu.com/place/detail?uid=5dbde8907b4fa816213bf20d&output=html&source=placeapi_v2', 'children': [], 'lat': 32.02632106793657, 'lng': 118.72613383021016}}"
"{'name': '腾记大碗面灰碳全羊馆(月安街总店)', 'location': {'lat': 32.022337927397025, 'lng': 118.72398873015811}, 'address': '月安街33号', 'province': '江苏省', 'city': '南京市', 'area': '建邺区', 'street_id': '9d0bf792f68255c5c0364436', 'telephone': '13222057690', 'detail': 1, 'uid': 'a0161c6d6246c960c27da2d9', 'detail_info': {'tag': '美食;中餐厅', 'type': 'cater', 'detail_url': 'http://api.map.baidu.com/place/detail?uid=a0161c6d6246c960c27da2d9&output=html&source=placeapi_v2', 'price': '16.0', 'overall_rating': '3.6', 'comment_num': '17', 'children': [], 'lat': 32.022337927397025, 'lng': 118.72398873015811}}"
"{'name': '晓丽美食(应天大街店)', 'location': {'lat': 32.02545357667604, 'lng': 118.72769907188685}, 'address': '应天大街916舒心苑1幢101室近电动工具', 'province': '江苏省', 'city': '南京市', 'area': '建邺区', 'street_id': '0259de355c7cae063904b116', 'telephone': '15751874316', 'detail': 1, 'uid': '0259de355c7cae063904b116', 'detail_info': {'tag': '美食;中餐厅', 'type': 'cater', 'detail_url': 'http://api.map.baidu.com/place/detail?uid=0259de355c7cae063904b116&output=html&source=placeapi_v2', 'price': '51.0', 'overall_rating': '3.4', 'comment_num': '8', 'children': [], 'lat': 32.02545357667604, 'lng': 118.72769907188685}}"
"{'name': '招牌酸菜鱼(松花江西街店)', 'location': {'lat': 32.02021346225623, 'lng': 118.71249374001172}, 'address': '兴隆街道松花江西街67号-4', 'province': '江苏省', 'city': '南京市', 'area': '建邺区', 'telephone': '13505155614', 'detail': 1, 'uid': '35253abb5d3767faafb22a58', 'detail_info': {'tag': '美食;中餐厅', 'type': 'cater', 'detail_url': 'http://api.map.baidu.com/place/detail?uid=35253abb5d3767faafb22a58&output=html&source=placeapi_v2', 'price': '51.0', 'overall_rating': '4.0', 'comment_num': '25', 'children': [], 'lat': 32.02021346225623, 'lng': 118.71249374001172}}"
"{'name': '清真阮记(老七家湾牛肉锅贴店)', 'location': {'lat': 32.020881815584865, 'lng': 118.7199821279014}, 'address': '兴隆大街196-5号', 'province': '江苏省', 'city': '南京市', 'area': '建邺区', 'street_id': 'e6b3654967800d507c29bd28', 'telephone': '18014830170', 'detail': 1, 'uid': 'e6b3654967800d507c29bd28', 'detail_info': {'tag': '美食;中餐厅', 'navi_location': {'lng': 118.73182825518, 'lat': 32.024385779359}, 'type': 'cater', 'detail_url': 'http://api.map.baidu.com/place/detail?uid=e6b3654967800d507c29bd28&output=html&source=placeapi_v2', 'price': '18.0', 'overall_rating': '4.2', 'comment_num': '37', 'children': [], 'lat': 32.020881815584865, 'lng': 118.7199821279014}}"
"{'name': '采青生态厨房(河西店)', 'location': {'lat': 32.02013756666783, 'lng': 118.72244684414501}, 'address': '江苏省南京市建邺区兴隆大街172-3号', 'province': '江苏省', 'city': '南京市', 'area': '建邺区', 'street_id': 'aa09e9f9b792c5c05a10937e', 'detail': 1, 'uid': 'aa09e9f9b792c5c05a10937e', 'detail_info': {'tag': '美食;中餐厅', 'type': 'cater', 'detail_url': 'http://api.map.baidu.com/place/detail?uid=aa09e9f9b792c5c05a10937e&output=html&source=placeapi_v2', 'children': [], 'lat': 32.02013756666783, 'lng': 118.72244684414501}}"
"{'name': '邓家手擀面(月安街店)', 'location': {'lat': 32.02377916238993, 'lng': 118.72023521896271}, 'address': '江苏省南京市建邺区月安街水榭春天花园02幢14室', 'province': '江苏省', 'city': '南京市', 'area': '建邺区', 'street_id': 'd666aee20487fa6d3904b1f6', 'telephone': '15951139779', 'detail': 1, 'uid': 'd666aee20487fa6d3904b1f6', 'detail_info': {'tag': '美食;中餐厅', 'type': 'cater', 'detail_url': 'http://api.map.baidu.com/place/detail?uid=d666aee20487fa6d3904b1f6&output=html&source=placeapi_v2', 'price': '30.0', 'overall_rating': '4.2', 'comment_num': '5', 'children': [], 'lat': 32.02377916238993, 'lng': 118.72023521896271}}"
"{'name': '九客(建邺店)', 'location': {'lat': 32.02250577119609, 'lng': 118.72713257361755}, 'address': '燕山路2号生活广场二楼', 'province': '江苏省', 'city': '南京市', 'area': '建邺区', 'street_id': 'f7b0abe86cf4a5357c29bdf5', 'telephone': '(025)58858869', 'detail': 1, 'uid': 'f7b0abe86cf4a5357c29bdf5', 'detail_info': {'tag': '美食;蛋糕甜品店', 'navi_location': {'lng': 118.73903504229, 'lat': 32.025841710476}, 'type': 'cater', 'detail_url': 'http://api.map.baidu.com/place/detail?uid=f7b0abe86cf4a5357c29bdf5&output=html&source=placeapi_v2', 'price': '64.0', 'overall_rating': '4.5', 'comment_num': '54', 'children': [], 'lat': 32.02250577119609, 'lng': 118.72713257361755}}"
"{'name': '和善园(松花江西街店)', 'location': {'lat': 32.01984960565834, 'lng': 118.71344824004483}, 'address': '松花江西街65-2号', 'province': '江苏省', 'city': '南京市', 'area': '建邺区', 'street_id': '53eadf214b8ac5adad045796', 'telephone': '13815856283', 'detail': 1, 'uid': '53eadf214b8ac5adad045796', 'detail_info': {'tag': '美食;小吃快餐店', 'type': 'cater', 'detail_url': 'http://api.map.baidu.com/place/detail?uid=53eadf214b8ac5adad045796&output=html&source=placeapi_v2', 'overall_rating': '4.2', 'comment_num': '12', 'children': [], 'lat': 32.01984960565834, 'lng': 118.71344824004483}}"
"{'name': '兰州拉面(月安街店)', 'location': {'lat': 32.025343531491714, 'lng': 118.71483385374488}, 'address': '月安街58-5号', 'province': '江苏省', 'city': '南京市', 'area': '建邺区', 'street_id': 'b17d59d0677d2b7e59bbbc41', 'telephone': '13109301848', 'detail': 1, 'uid': 'b17d59d0677d2b7e59bbbc41', 'detail_info': {'tag': '美食;小吃快餐店', 'type': 'cater', 'detail_url': 'http://api.map.baidu.com/place/detail?uid=b17d59d0677d2b7e59bbbc41&output=html&source=placeapi_v2', 'price': '15.0', 'overall_rating': '4.3', 'comment_num': '37', 'children': [], 'lat': 32.025343531491714, 'lng': 118.71483385374488}}"
"{'name': '月安生活广场美食街(月安生活广场店)', 'location': {'lat': 32.02249447113567, 'lng': 118.72693712524433}, 'address': '月安街与燕山路交叉口西北100米', 'province': '江苏省', 'city': '南京市', 'area': '建邺区', 'street_id': 'bfba6e067ec530beb34c498f', 'detail': 1, 'uid': 'bfba6e067ec530beb34c498f', 'detail_info': {'tag': '美食;其他', 'type': 'cater', 'detail_url': 'http://api.map.baidu.com/place/detail?uid=bfba6e067ec530beb34c498f&output=html&source=placeapi_v2', 'children': [], 'lat': 32.02249447113567, 'lng': 118.72693712524433}}"
"{'name': '美满吉(乐山路店)', 'location': {'lat': 32.02494036743121, 'lng': 118.7204126083403}, 'address': '江苏省南京市建邺区水榭春天花园04幢29室', 'province': '江苏省', 'city': '南京市', 'area': '建邺区', 'street_id': '924440094fbd455bd9131884', 'telephone': '13776419197', 'detail': 1, 'uid': '924440094fbd455bd9131884', 'detail_info': {'tag': '美食;小吃快餐店', 'type': 'cater', 'detail_url': 'http://api.map.baidu.com/place/detail?uid=924440094fbd455bd9131884&output=html&source=placeapi_v2', 'price': '19.0', 'overall_rating': '3.8', 'comment_num': '14', 'children': [], 'lat': 32.02494036743121, 'lng': 118.7204126083403}}"
"{'name': '珍宝舫紫金餐厅', 'location': {'lat': 32.02800843821477, 'lng': 118.70967189852217}, 'address': '南京市建邺区扬子江大道与应天大街交叉路口往北约50米(南京中国绿化博览园)', 'province': '江苏省', 'city': '南京市', 'area': '建邺区', 'detail': 1, 'uid': '031cc5ddb101cca07369d309', 'detail_info': {'tag': '美食;中餐厅', 'type': 'cater', 'detail_url': 'http://api.map.baidu.com/place/detail?uid=031cc5ddb101cca07369d309&output=html&source=placeapi_v2', 'children': [], 'lat': 32.02800843821477, 'lng': 118.70967189852217}}"
"{'name': '贡润祥', 'location': {'lat': 32.02065485409757, 'lng': 118.71863865924728}, 'address': '江苏省南京市建邺区兴隆大街203-3附近', 'province': '江苏省', 'city': '南京市', 'area': '建邺区', 'street_id': 'b57a01e08096d68c25e0a0c9', 'detail': 1, 'uid': 'b57a01e08096d68c25e0a0c9', 'detail_info': {'tag': '美食', 'navi_location': {'lng': 118.73031900042, 'lat': 32.024536014976}, 'type': 'cater', 'detail_url': 'http://api.map.baidu.com/place/detail?uid=b57a01e08096d68c25e0a0c9&output=html&source=placeapi_v2', 'children': [], 'lat': 32.02065485409757, 'lng': 118.71863865924728}}"
"{'name': '布衣阁精菜馆(汉中门大街店)', 'location': {'lat': 32.042126800588555, 'lng': 118.72439285392355}, 'address': '汉中门大街422号(江东软件园对面)', 'province': '江苏省', 'city': '南京市', 'area': '鼓楼区', 'street_id': 'a30ba6a4969f5bfa04fef55f', 'telephone': '(025)85577618', 'detail': 1, 'uid': 'a30ba6a4969f5bfa04fef55f', 'detail_info': {'tag': '美食;其他', 'navi_location': {'lng': 118.73624202721, 'lat': 32.045392715422}, 'type': 'cater', 'detail_url': 'http://api.map.baidu.com/place/detail?uid=a30ba6a4969f5bfa04fef55f&output=html&source=placeapi_v2', 'price': '50.0', 'overall_rating': '4.2', 'comment_num': '26', 'children': [], 'lat': 32.042126800588555, 'lng': 118.72439285392355}}"
"{'name': '海底捞火锅(集庆门大街店)', 'location': {'lat': 32.03383268648377, 'lng': 118.71888296640023}, 'address': '南京市鼓楼区集庆门大街(苏宁睿城苏宁慧谷)', 'province': '江苏省', 'city': '南京市', 'area': '鼓楼区', 'detail': 1, 'uid': 'dd99bd18fab47bee29b97ccd', 'detail_info': {'tag': '美食;中餐厅', 'type': 'cater', 'detail_url': 'http://api.map.baidu.com/place/detail?uid=dd99bd18fab47bee29b97ccd&output=html&source=placeapi_v2', 'overall_rating': '1.0', 'comment_num': '2', 'children': [], 'lat': 32.03383268648377, 'lng': 118.71888296640023}}"
"{'name': 'Ho Jia9全日餐厅(建邺店)', 'location': {'lat': 32.04167817774712, 'lng': 118.71699906633758}, 'address': '江苏省南京市建邺区扬子江大道208号南京涵碧楼酒店F2', 'province': '江苏省', 'city': '南京市', 'area': '建邺区', 'telephone': '(025)69671268', 'detail': 1, 'uid': '5c21945be071eb095e0d02dc', 'detail_info': {'tag': '美食;中餐厅', 'type': 'cater', 'detail_url': 'http://api.map.baidu.com/place/detail?uid=5c21945be071eb095e0d02dc&output=html&source=placeapi_v2', 'price': '281.0', 'overall_rating': '4.2', 'comment_num': '149', 'children': [], 'lat': 32.04167817774712, 'lng': 118.71699906633758}}"
"{'name': '君悦状元及第', 'location': {'lat': 32.03394039496406, 'lng': 118.71809873513733}, 'address': '集庆门大街268号苏宁慧谷三楼', 'province': '江苏省', 'city': '南京市', 'area': '鼓楼区', 'telephone': '18061701777', 'detail': 1, 'uid': '7b6d2d9e27554e7652e5c597', 'detail_info': {'tag': '美食;中餐厅', 'navi_location': {'lng': 118.72976851251, 'lat': 32.037829666567}, 'type': 'cater', 'detail_url': 'http://api.map.baidu.com/place/detail?uid=7b6d2d9e27554e7652e5c597&output=html&source=placeapi_v2', 'price': '97.0', 'children': [], 'lat': 32.03394039496406, 'lng': 118.71809873513733}}"
"{'name': '水沙涟', 'location': {'lat': 32.042625848712, 'lng': 118.71784962198039}, 'address': '江苏省南京市建邺区扬子江大道208号南京涵碧楼酒店内', 'province': '江苏省', 'city': '南京市', 'area': '建邺区', 'telephone': '(025)69671266', 'detail': 1, 'uid': '94d0624c57e0ae867069d3b9', 'detail_info': {'tag': '美食;中餐厅', 'type': 'cater', 'detail_url': 'http://api.map.baidu.com/place/detail?uid=94d0624c57e0ae867069d3b9&output=html&source=placeapi_v2', 'price': '291.0', 'comment_num': '130', 'children': [], 'lat': 32.042625848712, 'lng': 118.71784962198039}}"
"{'name': 'Natural Eatery犁社市集餐厅', 'location': {'lat': 32.03476118713063, 'lng': 118.71593922175884}, 'address': '江苏省南京市鼓楼区集庆门大街272号苏宁慧谷E7-01首层', 'province': '江苏省', 'city': '南京市', 'area': '鼓楼区', 'telephone': '(025)57798688', 'detail': 1, 'uid': '42c4e5e763e12eda63180981', 'detail_info': {'tag': '美食;外国餐厅', 'type': 'cater', 'detail_url': 'http://api.map.baidu.com/place/detail?uid=42c4e5e763e12eda63180981&output=html&source=placeapi_v2', 'price': '279.0', 'comment_num': '106', 'children': [], 'lat': 32.03476118713063, 'lng': 118.71593922175884}}"
"{'name': '蒸全味(万达店)', 'location': {'lat': 32.03376411923006, 'lng': 118.72775956764312}, 'address': '南京市鼓楼区集贤路9号', 'province': '江苏省', 'city': '南京市', 'area': '鼓楼区', 'street_id': 'dca4806803f3706b970319d8', 'telephone': '13699224768', 'detail': 1, 'uid': 'dca4806803f3706b970319d8', 'detail_info': {'tag': '美食;中餐厅', 'navi_location': {'lng': 118.73962099979, 'lat': 32.037396017372}, 'type': 'cater', 'detail_url': 'http://api.map.baidu.com/place/detail?uid=dca4806803f3706b970319d8&output=html&source=placeapi_v2', 'price': '4.0', 'overall_rating': '3.4', 'comment_num': '9', 'children': [], 'lat': 32.03376411923006, 'lng': 118.72775956764312}}"
"{'name': '正宗固始老鹅(河北大街店)', 'location': {'lat': 32.03318519274441, 'lng': 118.72302845856296}, 'address': '江苏省南京市鼓楼区清江南路五号', 'province': '江苏省', 'city': '南京市', 'area': '鼓楼区', 'street_id': '7e0ea0e69a9e7187882fb5e7', 'telephone': '13512512728', 'detail': 1, 'uid': '7e0ea0e69a9e7187882fb5e7', 'detail_info': {'tag': '美食;中餐厅', 'navi_location': {'lng': 118.73466738748, 'lat': 32.036848492498}, 'type': 'cater', 'detail_url': 'http://api.map.baidu.com/place/detail?uid=7e0ea0e69a9e7187882fb5e7&output=html&source=placeapi_v2', 'overall_rating': '4.2', 'comment_num': '13', 'children': [], 'lat': 32.03318519274441, 'lng': 118.72302845856296}}"
"{'name': '睿客一品卤菜', 'location': {'lat': 32.03392672451399, 'lng': 118.72424718832261}, 'address': '苏宁睿城门面集贤路61号', 'province': '江苏省', 'city': '南京市', 'area': '鼓楼区', 'street_id': '093be4c4a270459af8dc8581', 'telephone': '13776690190', 'detail': 1, 'uid': '093be4c4a270459af8dc8581', 'detail_info': {'tag': '美食;中餐厅', 'type': 'cater', 'detail_url': 'http://api.map.baidu.com/place/detail?uid=093be4c4a270459af8dc8581&output=html&source=placeapi_v2', 'overall_rating': '5.0', 'comment_num': '2', 'children': [], 'lat': 32.03392672451399, 'lng': 118.72424718832261}}"
"{'name': '清粥馆(锦江路店)', 'location': {'lat': 32.04335608988029, 'lng': 118.72747696779825}, 'address': '江苏省南京市鼓楼区锦江路1号', 'province': '江苏省', 'city': '南京市', 'area': '鼓楼区', 'street_id': '7ef8de3342565abb9de321ea', 'telephone': '13705183221', 'detail': 1, 'uid': '7ef8de3342565abb9de321ea', 'detail_info': {'tag': '美食;中餐厅', 'type': 'cater', 'detail_url': 'http://api.map.baidu.com/place/detail?uid=7ef8de3342565abb9de321ea&output=html&source=placeapi_v2', 'price': '10.0', 'overall_rating': '4.4', 'comment_num': '22', 'children': [], 'lat': 32.04335608988029, 'lng': 118.72747696779825}}"
"{'name': '鑫磊鱼头馆', 'location': {'lat': 32.03317008766996, 'lng': 118.72262206849483}, 'address': '清江南路5号佳和园门面房', 'province': '江苏省', 'city': '南京市', 'area': '鼓楼区', 'street_id': 'fbb9d75cd88f8f78f33cba2c', 'telephone': '15951922166', 'detail': 1, 'uid': 'fbb9d75cd88f8f78f33cba2c', 'detail_info': {'tag': '美食;中餐厅', 'navi_location': {'lng': 118.73414224886, 'lat': 32.03673622711}, 'type': 'cater', 'detail_url': 'http://api.map.baidu.com/place/detail?uid=fbb9d75cd88f8f78f33cba2c&output=html&source=placeapi_v2', 'overall_rating': '4.7', 'comment_num': '3', 'children': [], 'lat': 32.03317008766996, 'lng': 118.72262206849483}}"
"{'name': '烟洞山中国兰州牛肉拉面(清江南路店)', 'location': {'lat': 32.033218317526185, 'lng': 118.72294076616883}, 'address': '清江南路5号5', 'province': '江苏省', 'city': '南京市', 'area': '鼓楼区', 'street_id': '1250669316685cc63a04b18d', 'detail': 1, 'uid': '1250669316685cc63a04b18d', 'detail_info': {'tag': '美食;小吃快餐店', 'type': 'cater', 'detail_url': 'http://api.map.baidu.com/place/detail?uid=1250669316685cc63a04b18d&output=html&source=placeapi_v2', 'price': '22.0', 'overall_rating': '4.7', 'comment_num': '3', 'children': [], 'lat': 32.033218317526185, 'lng': 118.72294076616883}}"
"{'name': '阿尼尔牛肉面', 'location': {'lat': 32.0339636007567, 'lng': 118.72480421349961}, 'address': '江苏省南京市鼓楼区江东苏宁睿城银河国际街区西区', 'province': '江苏省', 'city': '南京市', 'area': '鼓楼区', 'street_id': '9737febea902e0e0f423101c', 'telephone': '18697226827', 'detail': 1, 'uid': '9737febea902e0e0f423101c', 'detail_info': {'tag': '美食;小吃快餐店', 'type': 'cater', 'detail_url': 'http://api.map.baidu.com/place/detail?uid=9737febea902e0e0f423101c&output=html&source=placeapi_v2', 'price': '16.0', 'overall_rating': '4.5', 'comment_num': '11', 'children': [], 'lat': 32.0339636007567, 'lng': 118.72480421349961}}"
"{'name': '祺云餐厅', 'location': {'lat': 32.03372318652316, 'lng': 118.71800840997173}, 'address': '集庆门大街268号苏宁慧谷08栋2层', 'province': '江苏省', 'city': '南京市', 'area': '鼓楼区', 'detail': 1, 'uid': '3a4822193d9ea46cfea77814', 'detail_info': {'tag': '美食;中餐厅', 'type': 'cater', 'detail_url': 'http://api.map.baidu.com/place/detail?uid=3a4822193d9ea46cfea77814&output=html&source=placeapi_v2', 'children': [], 'lat': 32.03372318652316, 'lng': 118.71800840997173}}"
"{'name': '颂夏屋(苏宁慧谷店)', 'location': {'lat': 32.03372611159537, 'lng': 118.71837855329622}, 'address': '集庆门大街268号苏宁睿城苏宁慧谷2楼(电梯口)', 'province': '江苏省', 'city': '南京市', 'area': '鼓楼区', 'street_id': '851b7466b7a199feabf0cd4c', 'telephone': '18652011822', 'detail': 1, 'uid': '851b7466b7a199feabf0cd4c', 'detail_info': {'tag': '美食;蛋糕甜品店', 'navi_location': {'lng': 118.72976851251, 'lat': 32.037829666567}, 'type': 'cater', 'detail_url': 'http://api.map.baidu.com/place/detail?uid=851b7466b7a199feabf0cd4c&output=html&source=placeapi_v2', 'price': '24.0', 'overall_rating': '3.7', 'comment_num': '46', 'children': [], 'lat': 32.03372611159537, 'lng': 118.71837855329622}}"
"{'name': '李记正宗淮南黄牛汤', 'location': {'lat': 32.04451412345123, 'lng': 118.72748965471303}, 'address': '东宝路29号2栋4号101室菜场门面', 'province': '江苏省', 'city': '南京市', 'area': '鼓楼区', 'telephone': '15380971375', 'detail': 1, 'uid': 'ec77b90ad3f7ddfa51e5c539', 'detail_info': {'tag': '美食;小吃快餐店', 'type': 'cater', 'detail_url': 'http://api.map.baidu.com/place/detail?uid=ec77b90ad3f7ddfa51e5c539&output=html&source=placeapi_v2', 'overall_rating': '4.2', 'image_num': '1', 'comment_num': '6', 'children': [], 'lat': 32.04451412345123, 'lng': 118.72748965471303}}"
"{'name': '六合金牛肉(东宝路店)', 'location': {'lat': 32.04454723234338, 'lng': 118.72767014457422}, 'address': '江苏省南京市鼓楼区东宝路29号东宝花园社区菜市场内', 'province': '江苏省', 'city': '南京市', 'area': '鼓楼区', 'detail': 1, 'uid': 'd261d468850fab419e95dee5', 'detail_info': {'tag': '美食', 'type': 'cater', 'detail_url': 'http://api.map.baidu.com/place/detail?uid=d261d468850fab419e95dee5&output=html&source=placeapi_v2', 'children': [], 'lat': 32.04454723234338, 'lng': 118.72767014457422}}"
"{'name': '大鱼大肉汤小二美食', 'location': {'lat': 32.0449917844055, 'lng': 118.72682694816517}, 'address': '南京市鼓楼区东宝路29号', 'province': '江苏省', 'city': '南京市', 'area': '鼓楼区', 'street_id': 'e37479e2445f872214b54bdc', 'telephone': '(025)86556071', 'detail': 1, 'uid': 'e37479e2445f872214b54bdc', 'detail_info': {'tag': '美食;中餐厅', 'navi_location': {'lng': 118.73862099981, 'lat': 32.04868601946}, 'type': 'cater', 'detail_url': 'http://api.map.baidu.com/place/detail?uid=e37479e2445f872214b54bdc&output=html&source=placeapi_v2', 'price': '72.0', 'overall_rating': '4.6', 'comment_num': '60', 'children': [], 'lat': 32.0449917844055, 'lng': 118.72682694816517}}"
"{'name': '太小酒店', 'location': {'lat': 32.05184390078288, 'lng': 118.72526052490913}, 'address': '湘江路32号', 'province': '江苏省', 'city': '南京市', 'area': '鼓楼区', 'street_id': '949a03b3235d1ea6ad04571b', 'telephone': '(025)86273330', 'detail': 1, 'uid': '949a03b3235d1ea6ad04571b', 'detail_info': {'tag': '美食;中餐厅', 'navi_location': {'lng': 118.73715301859, 'lat': 32.055377001641}, 'type': 'cater', 'detail_url': 'http://api.map.baidu.com/place/detail?uid=949a03b3235d1ea6ad04571b&output=html&source=placeapi_v2', 'price': '83.0', 'overall_rating': '4.5', 'comment_num': '42', 'children': [], 'lat': 32.05184390078288, 'lng': 118.72526052490913}}"
"{'name': '徐州酒馆(二店)', 'location': {'lat': 32.04499433416843, 'lng': 118.72721087620505}, 'address': '东宝路29号01幢1层E座', 'province': '江苏省', 'city': '南京市', 'area': '鼓楼区', 'street_id': 'a3e8341c1cdfef8c4bfd3ffb', 'telephone': '13770530530', 'detail': 1, 'uid': 'a3e8341c1cdfef8c4bfd3ffb', 'detail_info': {'tag': '美食;中餐厅', 'navi_location': {'lng': 118.73917106227, 'lat': 32.048750210997}, 'type': 'cater', 'detail_url': 'http://api.map.baidu.com/place/detail?uid=a3e8341c1cdfef8c4bfd3ffb&output=html&source=placeapi_v2', 'price': '76.0', 'overall_rating': '4.3', 'comment_num': '33', 'children': [], 'lat': 32.04499433416843, 'lng': 118.72721087620505}}"
"{'name': '百姓人家(东宝路店)', 'location': {'lat': 32.044934780280414, 'lng': 118.72727975429748}, 'address': '江苏省南京市鼓楼区东宝路29号', 'province': '江苏省', 'city': '南京市', 'area': '鼓楼区', 'street_id': '7028b733dbcc5c019fec2b4a', 'telephone': '13611510293', 'detail': 1, 'uid': '7028b733dbcc5c019fec2b4a', 'detail_info': {'tag': '美食;中餐厅', 'type': 'cater', 'detail_url': 'http://api.map.baidu.com/place/detail?uid=7028b733dbcc5c019fec2b4a&output=html&source=placeapi_v2', 'price': '70.0', 'overall_rating': '4.3', 'comment_num': '21', 'children': [], 'lat': 32.044934780280414, 'lng': 118.72727975429748}}"
"{'name': '我家黑鱼馆(苏扬人家店)', 'location': {'lat': 32.04501159826822, 'lng': 118.72709816675155}, 'address': '鼓楼区东宝路29号(原石婆婆烧鸡公)', 'province': '江苏省', 'city': '南京市', 'area': '鼓楼区', 'street_id': 'acc64fdeca857b5975e5b6c9', 'telephone': '15251891960', 'detail': 1, 'uid': 'acc64fdeca857b5975e5b6c9', 'detail_info': {'tag': '美食;中餐厅', 'navi_location': {'lng': 118.73898252645, 'lat': 32.048794620695}, 'type': 'cater', 'detail_url': 'http://api.map.baidu.com/place/detail?uid=acc64fdeca857b5975e5b6c9&output=html&source=placeapi_v2', 'price': '105.0', 'overall_rating': '4.6', 'comment_num': '42', 'children': [], 'lat': 32.04501159826822, 'lng': 118.72709816675155}}"
"{'name': '松子烤鸭专卖(银城花园店)', 'location': {'lat': 32.05552912141457, 'lng': 118.72540959667386}, 'address': '南京市鼓楼区银城街与扬子江大道交叉路口往东约100米(银城花园北区)', 'province': '江苏省', 'city': '南京市', 'area': '鼓楼区', 'street_id': '575f988a8fbd03b8da2f28df', 'detail': 1, 'uid': '575f988a8fbd03b8da2f28df', 'detail_info': {'tag': '美食;中餐厅', 'navi_location': {'lng': 118.73730158125, 'lat': 32.059252594661}, 'type': 'cater', 'detail_url': 'http://api.map.baidu.com/place/detail?uid=575f988a8fbd03b8da2f28df&output=html&source=placeapi_v2', 'price': '20.0', 'overall_rating': '4.4', 'comment_num': '28', 'children': [], 'lat': 32.05552912141457, 'lng': 118.72540959667386}}"
"{'name': '六朝苏味坊(苏宁环球商贸城店)', 'location': {'lat': 32.045895265679135, 'lng': 118.72516606107266}, 'address': '清江路85号苏宁环球商贸城-六朝', 'province': '江苏省', 'city': '南京市', 'area': '鼓楼区', 'street_id': '7fb4c4145b0c5c754107c1a4', 'telephone': '18951807605', 'detail': 1, 'uid': '7fb4c4145b0c5c754107c1a4', 'detail_info': {'tag': '美食;中餐厅', 'type': 'cater', 'detail_url': 'http://api.map.baidu.com/place/detail?uid=7fb4c4145b0c5c754107c1a4&output=html&source=placeapi_v2', 'overall_rating': '4.1', 'comment_num': '32', 'children': [], 'lat': 32.045895265679135, 'lng': 118.72516606107266}}"
"{'name': '云厨一站(东宝路店)', 'location': {'lat': 32.04510166581523, 'lng': 118.72352072811806}, 'address': '东宝路11号临江新寓01幢104-3号', 'province': '江苏省', 'city': '南京市', 'area': '鼓楼区', 'telephone': '(025)58713417', 'detail': 1, 'uid': '03e6df55678e2b679f09f75f', 'detail_info': {'tag': '美食;中餐厅', 'type': 'cater', 'detail_url': 'http://api.map.baidu.com/place/detail?uid=03e6df55678e2b679f09f75f&output=html&source=placeapi_v2', 'overall_rating': '4.7', 'comment_num': '31', 'children': [], 'lat': 32.04510166581523, 'lng': 118.72352072811806}}"
"{'name': '山子村涮羊肉碳烤鱼(东宝路店)', 'location': {'lat': 32.044998407855154, 'lng': 118.7247035998336}, 'address': '东宝路9号', 'province': '江苏省', 'city': '南京市', 'area': '鼓楼区', 'street_id': 'a52ef87dc297474563180914', 'detail': 1, 'uid': 'a52ef87dc297474563180914', 'detail_info': {'tag': '美食;中餐厅', 'navi_location': {'lng': 118.73641100027, 'lat': 32.048897019447}, 'type': 'cater', 'detail_url': 'http://api.map.baidu.com/place/detail?uid=a52ef87dc297474563180914&output=html&source=placeapi_v2', 'price': '50.0', 'overall_rating': '4.3', 'comment_num': '14', 'children': [], 'lat': 32.044998407855154, 'lng': 118.7247035998336}}"
"{'name': '苏州藏书羊肉(宁工店)', 'location': {'lat': 32.04496611048459, 'lng': 118.72658467261022}, 'address': '南京市鼓楼区东宝路与锦江路交叉路口往西约50米(嘉景苑西北侧)', 'province': '江苏省', 'city': '南京市', 'area': '鼓楼区', 'telephone': '15996492848', 'detail': 1, 'uid': '2353b880fd2ba483b11e36dc', 'detail_info': {'tag': '美食;中餐厅', 'type': 'cater', 'detail_url': 'http://api.map.baidu.com/place/detail?uid=2353b880fd2ba483b11e36dc&output=html&source=placeapi_v2', 'price': '33.0', 'overall_rating': '5.0', 'comment_num': '1', 'children': [], 'lat': 32.04496611048459, 'lng': 118.72658467261022}}"
"{'name': '刘记酸菜鱼(银城花园店)', 'location': {'lat': 32.055560933931076, 'lng': 118.7271752906518}, 'address': '银城花园3栋101室', 'province': '江苏省', 'city': '南京市', 'area': '鼓楼区', 'street_id': '6544ea8be19c995bf942b284', 'telephone': '13913934632', 'detail': 1, 'uid': '6544ea8be19c995bf942b284', 'detail_info': {'tag': '美食;中餐厅', 'type': 'cater', 'detail_url': 'http://api.map.baidu.com/place/detail?uid=6544ea8be19c995bf942b284&output=html&source=placeapi_v2', 'price': '60.0', 'overall_rating': '4.5', 'comment_num': '22', 'children': [], 'lat': 32.055560933931076, 'lng': 118.7271752906518}}"
"{'name': '甲霸王', 'location': {'lat': 32.05401962476947, 'lng': 118.72640088684265}, 'address': '闽江路银城花园119号', 'province': '江苏省', 'city': '南京市', 'area': '鼓楼区', 'street_id': 'e66bfd961223c7ec6d20b91b', 'telephone': '18751893055', 'detail': 1, 'uid': 'e66bfd961223c7ec6d20b91b', 'detail_info': {'tag': '美食;小吃快餐店', 'type': 'cater', 'detail_url': 'http://api.map.baidu.com/place/detail?uid=e66bfd961223c7ec6d20b91b&output=html&source=placeapi_v2', 'overall_rating': '4.2', 'comment_num': '4', 'children': [], 'lat': 32.05401962476947, 'lng': 118.72640088684265}}"
"{'name': '安庆馄炖', 'location': {'lat': 32.04499330747621, 'lng': 118.72492684691025}, 'address': '清江路清河二村1栋2号103', 'province': '江苏省', 'city': '南京市', 'area': '鼓楼区', 'detail': 1, 'uid': '8d02d76899346b13efdfca1b', 'detail_info': {'tag': '美食;小吃快餐店', 'navi_location': {'lng': 118.73675300045, 'lat': 32.048999019529}, 'type': 'cater', 'detail_url': 'http://api.map.baidu.com/place/detail?uid=8d02d76899346b13efdfca1b&output=html&source=placeapi_v2', 'overall_rating': '4.4', 'comment_num': '7', 'children': [], 'lat': 32.04499330747621, 'lng': 118.72492684691025}}"
"{'name': '鸿鑫陈年老酒馆', 'location': {'lat': 32.04907660212548, 'lng': 118.7271187344924}, 'address': '江苏省南京市鼓楼区清凉门大街296号附近', 'province': '江苏省', 'city': '南京市', 'area': '鼓楼区', 'street_id': '89aba4d3e837ddebd9eceda8', 'telephone': '13584025440', 'detail': 1, 'uid': '89aba4d3e837ddebd9eceda8', 'detail_info': {'tag': '美食;中餐厅', 'type': 'cater', 'detail_url': 'http://api.map.baidu.com/place/detail?uid=89aba4d3e837ddebd9eceda8&output=html&source=placeapi_v2', 'children': [], 'lat': 32.04907660212548, 'lng': 118.7271187344924}}"
"{'name': '微笑小吃店(银城花园店)', 'location': {'lat': 32.055519393372464, 'lng': 118.72507470419184}, 'address': '银城花园14号101室(月光安心油条隔壁)', 'province': '江苏省', 'city': '南京市', 'area': '鼓楼区', 'street_id': '79cf8815d62a61d73ce23188', 'telephone': '13770722845', 'detail': 1, 'uid': '79cf8815d62a61d73ce23188', 'detail_info': {'tag': '美食;小吃快餐店', 'navi_location': {'lng': 118.73685299982, 'lat': 32.059227021357}, 'type': 'cater', 'detail_url': 'http://api.map.baidu.com/place/detail?uid=79cf8815d62a61d73ce23188&output=html&source=placeapi_v2', 'overall_rating': '4.4', 'comment_num': '5', 'children': [], 'lat': 32.055519393372464, 'lng': 118.72507470419184}}"
"{'name': '老北京烤鸭', 'location': {'lat': 32.0551264182026, 'lng': 118.72460663877277}, 'address': '银城花园117号', 'province': '江苏省', 'city': '南京市', 'area': '鼓楼区', 'telephone': '18251837386', 'detail': 1, 'uid': '93af0177c4c15e86ef74f85a', 'detail_info': {'tag': '美食;中餐厅', 'detail_url': 'http://api.map.baidu.com/place/detail?uid=93af0177c4c15e86ef74f85a&output=html&source=placeapi_v2', 'children': [], 'lat': 32.0551264182026, 'lng': 118.72460663877277}}"
"{'name': 'nice南京简家姐妹主题餐厅', 'location': {'lat': 32.0459326888862, 'lng': 118.72439564486884}, 'address': '东宝路74号附近', 'province': '江苏省', 'city': '南京市', 'area': '鼓楼区', 'detail': 1, 'uid': '2a6a0b95f158c9b2c27da2ed', 'detail_info': {'tag': '美食;中餐厅', 'type': 'cater', 'detail_url': 'http://api.map.baidu.com/place/detail?uid=2a6a0b95f158c9b2c27da2ed&output=html&source=placeapi_v2', 'price': '16.0', 'children': [], 'lat': 32.0459326888862, 'lng': 118.72439564486884}}"
"{'name': '王小菜(华农菜市场门店)', 'location': {'lat': 32.04621845527306, 'lng': 118.72494943060069}, 'address': '清江路99号苏宁天玺尚座负一楼清江路菜场', 'province': '江苏省', 'city': '南京市', 'area': '鼓楼区', 'telephone': '15061417865', 'detail': 1, 'uid': '8904206454d8344ac27da2bb', 'detail_info': {'tag': '美食;中餐厅', 'type': 'cater', 'detail_url': 'http://api.map.baidu.com/place/detail?uid=8904206454d8344ac27da2bb&output=html&source=placeapi_v2', 'children': [], 'lat': 32.04621845527306, 'lng': 118.72494943060069}}"
"{'name': '味在汤正宗骨头饭(东宝路店)', 'location': {'lat': 32.04497814763544, 'lng': 118.72603829021571}, 'address': '南京市鼓楼区清河新寓1号', 'province': '江苏省', 'city': '南京市', 'area': '鼓楼区', 'street_id': '0e63a5331b17d09cc929152f', 'telephone': '13401979407', 'detail': 1, 'uid': '0e63a5331b17d09cc929152f', 'detail_info': {'tag': '美食;小吃快餐店', 'type': 'cater', 'detail_url': 'http://api.map.baidu.com/place/detail?uid=0e63a5331b17d09cc929152f&output=html&source=placeapi_v2', 'price': '16.0', 'overall_rating': '3.9', 'comment_num': '23', 'children': [], 'lat': 32.04497814763544, 'lng': 118.72603829021571}}"
"{'name': '和善园(银城花园店)', 'location': {'lat': 32.05427221887169, 'lng': 118.72481768808476}, 'address': '南京市鼓楼区银城花园108号102室', 'province': '江苏省', 'city': '南京市', 'area': '鼓楼区', 'street_id': '4d9fb2d2fdc5df94dbd89119', 'telephone': '18252036559', 'detail': 1, 'uid': '4d9fb2d2fdc5df94dbd89119', 'detail_info': {'tag': '美食;小吃快餐店', 'type': 'cater', 'detail_url': 'http://api.map.baidu.com/place/detail?uid=4d9fb2d2fdc5df94dbd89119&output=html&source=placeapi_v2', 'overall_rating': '5.0', 'comment_num': '1', 'children': [], 'lat': 32.05427221887169, 'lng': 118.72481768808476}}"
"{'name': '苏北牛羊肉', 'location': {'lat': 32.046154416119904, 'lng': 118.72494451682665}, 'address': '清江路99号苏宁天玺尚座负一楼清江路菜场内', 'province': '江苏省', 'city': '南京市', 'area': '鼓楼区', 'detail': 1, 'uid': '31c2b666d47cc933eaf85319', 'detail_info': {'detail_url': 'http://api.map.baidu.com/place/detail?uid=31c2b666d47cc933eaf85319&output=html&source=placeapi_v2', 'children': [], 'lat': 32.046154416119904, 'lng': 118.72494451682665}}"
"{'name': '姐妹面饭馆', 'location': {'lat': 32.059323249774174, 'lng': 118.7266088495186}, 'address': '南京市鼓楼区江东街道草场门大街147号', 'province': '江苏省', 'city': '南京市', 'area': '鼓楼区', 'street_id': '163b166a846a5507940319a7', 'detail': 1, 'uid': '163b166a846a5507940319a7', 'detail_info': {'tag': '美食;中餐厅', 'type': 'cater', 'detail_url': 'http://api.map.baidu.com/place/detail?uid=163b166a846a5507940319a7&output=html&source=placeapi_v2', 'overall_rating': '5.0', 'comment_num': '2', 'children': [], 'lat': 32.059323249774174, 'lng': 118.7266088495186}}"
"{'name': '淮扬府精菜馆', 'location': {'lat': 32.08147114440996, 'lng': 118.72699544979797}, 'address': '江苏省南京市鼓楼区南通路118号4楼', 'province': '江苏省', 'city': '南京市', 'area': '鼓楼区', 'street_id': '03c62ac6bea90abf5e17c3ff', 'telephone': '18668797666', 'detail': 1, 'uid': '03c62ac6bea90abf5e17c3ff', 'detail_info': {'tag': '美食;中餐厅', 'navi_location': {'lng': 118.73971600009, 'lat': 32.085238026103}, 'type': 'cater', 'detail_url': 'http://api.map.baidu.com/place/detail?uid=03c62ac6bea90abf5e17c3ff&output=html&source=placeapi_v2', 'price': '128.0', 'overall_rating': '3.5', 'comment_num': '45', 'children': [], 'lat': 32.08147114440996, 'lng': 118.72699544979797}}"
"{'name': '创意码头(世茂滨江店)', 'location': {'lat': 32.081993488497396, 'lng': 118.72717315590504}, 'address': '鼓楼区南通路118号世茂茂悦港52+minimall一楼(儿童乐园旁)', 'province': '江苏省', 'city': '南京市', 'area': '鼓楼区', 'street_id': '085215f035de129ebbbd6337', 'telephone': '(025)58773358,13813013024', 'detail': 1, 'uid': '085215f035de129ebbbd6337', 'detail_info': {'tag': '美食;中餐厅', 'type': 'cater', 'detail_url': 'http://api.map.baidu.com/place/detail?uid=085215f035de129ebbbd6337&output=html&source=placeapi_v2', 'price': '84.0', 'overall_rating': '4.0', 'comment_num': '97', 'children': [], 'lat': 32.081993488497396, 'lng': 118.72717315590504}}"
"{'name': '邓氏全羊私房菜', 'location': {'lat': 32.08188015792982, 'lng': 118.72697665727107}, 'address': '江苏省南京市鼓楼区南京市鼓楼区南通路118号2栋106号', 'province': '江苏省', 'city': '南京市', 'area': '鼓楼区', 'street_id': '84f3fcf377df1b235a3ac8a2', 'telephone': '14705199136', 'detail': 1, 'uid': '84f3fcf377df1b235a3ac8a2', 'detail_info': {'tag': '美食;中餐厅', 'navi_location': {'lng': 118.73847688825, 'lat': 32.085694601861}, 'type': 'cater', 'detail_url': 'http://api.map.baidu.com/place/detail?uid=84f3fcf377df1b235a3ac8a2&output=html&source=placeapi_v2', 'price': '97.0', 'overall_rating': '4.4', 'comment_num': '12', 'children': [], 'lat': 32.08188015792982, 'lng': 118.72697665727107}}"
"{'name': '惊宴花园餐厅', 'location': {'lat': 32.082149436527494, 'lng': 118.72700468494554}, 'address': '江苏省南京市鼓楼区南通路60号西北80米', 'province': '江苏省', 'city': '南京市', 'area': '鼓楼区', 'street_id': '2852404fb6e003699122e02c', 'telephone': '(025)58525757', 'detail': 1, 'uid': '2852404fb6e003699122e02c', 'detail_info': {'tag': '美食;中餐厅', 'type': 'cater', 'detail_url': 'http://api.map.baidu.com/place/detail?uid=2852404fb6e003699122e02c&output=html&source=placeapi_v2', 'overall_rating': '3.7', 'comment_num': '3', 'children': [], 'lat': 32.082149436527494, 'lng': 118.72700468494554}}"
"{'name': '鲔之享海洋料理', 'location': {'lat': 32.082149436527494, 'lng': 118.72700468494554}, 'address': '江苏省南京市鼓楼区南通路118号世茂52商场2号楼201', 'province': '江苏省', 'city': '南京市', 'area': '鼓楼区', 'street_id': 'c2548774ea46f63593114c41', 'detail': 1, 'uid': 'c2548774ea46f63593114c41', 'detail_info': {'tag': '美食;外国餐厅', 'navi_location': {'lng': 118.73855838286, 'lat': 32.085998448498}, 'type': 'cater', 'detail_url': 'http://api.map.baidu.com/place/detail?uid=c2548774ea46f63593114c41&output=html&source=placeapi_v2', 'price': '173.0', 'overall_rating': '4.6', 'comment_num': '17', 'children': [], 'lat': 32.082149436527494, 'lng': 118.72700468494554}}"
"{'name': '江岸围炉炭火烧肉', 'location': {'lat': 32.081547214048584, 'lng': 118.72685288001453}, 'address': '江苏省南京市鼓楼区南通路60号西60米', 'province': '江苏省', 'city': '南京市', 'area': '鼓楼区', 'detail': 1, 'uid': '796513b3f7d94021fda7788d', 'detail_info': {'tag': '美食;外国餐厅', 'type': 'cater', 'detail_url': 'http://api.map.baidu.com/place/detail?uid=796513b3f7d94021fda7788d&output=html&source=placeapi_v2', 'children': [], 'lat': 32.081547214048584, 'lng': 118.72685288001453}}"
"{'name': '桂福陇', 'location': {'lat': 32.01822429050659, 'lng': 118.73807239522664}, 'address': '江苏省南京市建邺区庐山路30-2号', 'province': '江苏省', 'city': '南京市', 'area': '建邺区', 'street_id': '84b2e51df26b6af721026223', 'telephone': '(025)84447699', 'detail': 1, 'uid': '84b2e51df26b6af721026223', 'detail_info': {'tag': '美食;中餐厅', 'navi_location': {'lng': 118.74975038075, 'lat': 32.021712746988}, 'type': 'cater', 'detail_url': 'http://api.map.baidu.com/place/detail?uid=84b2e51df26b6af721026223&output=html&source=placeapi_v2', 'price': '98.0', 'overall_rating': '4.4', 'comment_num': '166', 'children': [], 'lat': 32.01822429050659, 'lng': 118.73807239522664}}"
"{'name': '鸡包渔(河西店)', 'location': {'lat': 32.01231452448213, 'lng': 118.731607776056}, 'address': '江苏省南京市建邺区松花江东街92号', 'province': '江苏省', 'city': '南京市', 'area': '建邺区', 'street_id': '8409bd02392ccfeac51b751e', 'telephone': '(025)86526133', 'detail': 1, 'uid': '8409bd02392ccfeac51b751e', 'detail_info': {'tag': '美食;中餐厅', 'navi_location': {'lng': 118.74352864942, 'lat': 32.016169709991}, 'type': 'cater', 'detail_url': 'http://api.map.baidu.com/place/detail?uid=8409bd02392ccfeac51b751e&output=html&source=placeapi_v2', 'price': '130.0', 'overall_rating': '4.5', 'comment_num': '200', 'children': [], 'lat': 32.01231452448213, 'lng': 118.731607776056}}"
"{'name': '好记大酒店(江东中路店)', 'location': {'lat': 32.01335236434886, 'lng': 118.72996043273506}, 'address': '江苏省南京市建邺区江东中路223号奥体CBD中心欧洲城铂金时代广场3楼(近地铁奥体东站)', 'province': '江苏省', 'city': '南京市', 'area': '建邺区', 'street_id': '4edf9fbf4ecb918dcd06a483', 'telephone': '(025)85568788', 'detail': 1, 'uid': '4edf9fbf4ecb918dcd06a483', 'detail_info': {'tag': '美食;中餐厅', 'navi_location': {'lng': 118.74172169082, 'lat': 32.01703204882}, 'type': 'cater', 'detail_url': 'http://api.map.baidu.com/place/detail?uid=4edf9fbf4ecb918dcd06a483&output=html&source=placeapi_v2', 'price': '285.0', 'overall_rating': '4.1', 'comment_num': '69', 'children': [], 'lat': 32.01335236434886, 'lng': 118.72996043273506}}"
"{'name': '小海门', 'location': {'lat': 32.0184406913851, 'lng': 118.74433040925166}, 'address': '江苏省南京市建邺区应天大街108号', 'province': '江苏省', 'city': '南京市', 'area': '建邺区', 'detail': 1, 'uid': '4fe2e34466fcd18690114c3f', 'detail_info': {'tag': '美食;中餐厅', 'type': 'cater', 'detail_url': 'http://api.map.baidu.com/place/detail?uid=4fe2e34466fcd18690114c3f&output=html&source=placeapi_v2', 'overall_rating': '4.3', 'image_num': '1', 'comment_num': '93', 'children': [], 'lat': 32.0184406913851, 'lng': 118.74433040925166}}"
"{'name': '德玉私房菜', 'location': {'lat': 32.018003206110414, 'lng': 118.74640703062681}, 'address': '江苏省南京市建邺区应天大街100号', 'province': '江苏省', 'city': '南京市', 'area': '建邺区', 'street_id': 'fad9ee698488a2ea2b3a9fef', 'telephone': '(025)52126363', 'detail': 1, 'uid': 'fad9ee698488a2ea2b3a9fef', 'detail_info': {'tag': '美食;中餐厅', 'type': 'cater', 'detail_url': 'http://api.map.baidu.com/place/detail?uid=fad9ee698488a2ea2b3a9fef&output=html&source=placeapi_v2', 'price': '115.0', 'overall_rating': '4.3', 'comment_num': '51', 'children': [], 'lat': 32.018003206110414, 'lng': 118.74640703062681}}"
"{'name': '锦鳞高端粤菜餐厅', 'location': {'lat': 32.01607317538216, 'lng': 118.73902077789785}, 'address': '江苏省南京市建邺区恒山路80-17号', 'province': '江苏省', 'city': '南京市', 'area': '建邺区', 'telephone': '(025)57726077', 'detail': 1, 'uid': 'd9aabafc47ffc9cb28b97c6d', 'detail_info': {'tag': '美食;中餐厅', 'type': 'cater', 'detail_url': 'http://api.map.baidu.com/place/detail?uid=d9aabafc47ffc9cb28b97c6d&output=html&source=placeapi_v2', 'price': '1010.0', 'overall_rating': '3.6', 'image_num': '1', 'comment_num': '31', 'children': [], 'lat': 32.01607317538216, 'lng': 118.73902077789785}}"
"{'name': '江南小馆', 'location': {'lat': 32.018507845443, 'lng': 118.744314343885}, 'address': '江苏省南京市建邺区应天大街815号', 'province': '江苏省', 'city': '南京市', 'area': '建邺区', 'telephone': '(025)83269818', 'detail': 1, 'uid': 'cdc06ed4fdf896e4a4c75643', 'detail_info': {'tag': '美食;中餐厅', 'type': 'cater', 'detail_url': 'http://api.map.baidu.com/place/detail?uid=cdc06ed4fdf896e4a4c75643&output=html&source=placeapi_v2', 'overall_rating': '5.0', 'comment_num': '2', 'children': [], 'lat': 32.018507845443, 'lng': 118.744314343885}}"
"{'name': '锦绣江南(黄山路店)', 'location': {'lat': 32.01840952350326, 'lng': 118.7434234083608}, 'address': '南京市建邺区黄山路2号', 'province': '江苏省', 'city': '南京市', 'area': '建邺区', 'street_id': '72aa25131033775e077ce8c2', 'telephone': '(025)86429818', 'detail': 1, 'uid': '72aa25131033775e077ce8c2', 'detail_info': {'tag': '美食;中餐厅', 'navi_location': {'lng': 118.75530568708, 'lat': 32.022056783745}, 'type': 'cater', 'detail_url': 'http://api.map.baidu.com/place/detail?uid=72aa25131033775e077ce8c2&output=html&source=placeapi_v2', 'price': '87.0', 'overall_rating': '4.1', 'comment_num': '43', 'children': [], 'lat': 32.01840952350326, 'lng': 118.7434234083608}}"
"{'name': '鱼外渔(应天大街店)', 'location': {'lat': 32.017893813073115, 'lng': 118.7467209946198}, 'address': '应天大街791-17号吉庆家园南门对面嵩山路路口(川香园隔壁)', 'province': '江苏省', 'city': '南京市', 'area': '建邺区', 'street_id': '741f6e45a34b15c59868b4b2', 'telephone': '17351788527', 'detail': 1, 'uid': '741f6e45a34b15c59868b4b2', 'detail_info': {'tag': '美食;中餐厅', 'navi_location': {'lng': 118.75840377753, 'lat': 32.021642140115}, 'type': 'cater', 'detail_url': 'http://api.map.baidu.com/place/detail?uid=741f6e45a34b15c59868b4b2&output=html&source=placeapi_v2', 'price': '84.0', 'overall_rating': '4.7', 'comment_num': '71', 'children': [], 'lat': 32.017893813073115, 'lng': 118.7467209946198}}"
"{'name': '凤望锦里火锅(江东中路店)', 'location': {'lat': 32.013998043841944, 'lng': 118.73009706528876}, 'address': '江东中路217-2号兴隆大街地铁2号出口向南五百米', 'province': '江苏省', 'city': '南京市', 'area': '建邺区', 'street_id': 'e43887802a75d66e58f6bedf', 'telephone': '(025)86503777', 'detail': 1, 'uid': 'e43887802a75d66e58f6bedf', 'detail_info': {'tag': '美食;中餐厅', 'navi_location': {'lng': 118.74177531157, 'lat': 32.017609713048}, 'type': 'cater', 'detail_url': 'http://api.map.baidu.com/place/detail?uid=e43887802a75d66e58f6bedf&output=html&source=placeapi_v2', 'price': '123.0', 'overall_rating': '4.4', 'comment_num': '200', 'children': [], 'lat': 32.013998043841944, 'lng': 118.73009706528876}}"
"{'name': '乡村私房菜馆(兴隆大街店)', 'location': {'lat': 32.01493063134763, 'lng': 118.73296668057587}, 'address': '南京建邺区兴宏园15幢15-5室', 'province': '江苏省', 'city': '南京市', 'area': '建邺区', 'street_id': '693a55b33a7cfa18fbf0cbdd', 'telephone': '13770323809', 'detail': 1, 'uid': '693a55b33a7cfa18fbf0cbdd', 'detail_info': {'tag': '美食;中餐厅', 'type': 'cater', 'detail_url': 'http://api.map.baidu.com/place/detail?uid=693a55b33a7cfa18fbf0cbdd&output=html&source=placeapi_v2', 'price': '77.0', 'overall_rating': '3.7', 'comment_num': '10', 'children': [], 'lat': 32.01493063134763, 'lng': 118.73296668057587}}"
"{'name': '徽州土菜馆(松花江东路店)', 'location': {'lat': 32.013541095994256, 'lng': 118.73068807531638}, 'address': '松花江东街217-10号', 'province': '江苏省', 'city': '南京市', 'area': '建邺区', 'street_id': '7663a2ddec8bef5246e274aa', 'telephone': '13809003376,(025)87759599', 'detail': 1, 'uid': '7663a2ddec8bef5246e274aa', 'detail_info': {'tag': '美食;中餐厅', 'navi_location': {'lng': 118.74244195218, 'lat': 32.016974690993}, 'type': 'cater', 'detail_url': 'http://api.map.baidu.com/place/detail?uid=7663a2ddec8bef5246e274aa&output=html&source=placeapi_v2', 'price': '65.0', 'overall_rating': '3.5', 'comment_num': '31', 'children': [], 'lat': 32.013541095994256, 'lng': 118.73068807531638}}"
"{'name': '周兵龙虾土菜馆(泗洪大闸蟹)', 'location': {'lat': 32.01294173212437, 'lng': 118.73092376342223}, 'address': '建邺区松花江东街107号', 'province': '江苏省', 'city': '南京市', 'area': '建邺区', 'street_id': '58adae4e5fe6ab74f703b85d', 'telephone': '(025)58817028', 'detail': 1, 'uid': '58adae4e5fe6ab74f703b85d', 'detail_info': {'tag': '美食;中餐厅', 'navi_location': {'lng': 118.74277881674, 'lat': 32.016701596987}, 'type': 'cater', 'detail_url': 'http://api.map.baidu.com/place/detail?uid=58adae4e5fe6ab74f703b85d&output=html&source=placeapi_v2', 'price': '133.0', 'overall_rating': '4.5', 'comment_num': '28', 'children': [], 'lat': 32.01294173212437, 'lng': 118.73092376342223}}"
"{'name': '珍宝假日饭店中餐厅(江中东路店)', 'location': {'lat': 32.01463296108798, 'lng': 118.72853525996823}, 'address': '江东中路188号珍宝假日酒店3楼(近紫鑫国际广场)', 'province': '江苏省', 'city': '南京市', 'area': '建邺区', 'street_id': 'be74729a6e132997c27da203', 'telephone': '(025)86996628,(025)86996626', 'detail': 1, 'uid': 'be74729a6e132997c27da203', 'detail_info': {'tag': '美食;中餐厅', 'navi_location': {'lng': 118.74101364641, 'lat': 32.018007970855}, 'type': 'cater', 'detail_url': 'http://api.map.baidu.com/place/detail?uid=be74729a6e132997c27da203&output=html&source=placeapi_v2', 'price': '165.0', 'overall_rating': '4.2', 'groupon_num': '1', 'comment_num': '49', 'children': [], 'lat': 32.01463296108798, 'lng': 118.72853525996823}}"
"{'name': '诱惑美食', 'location': {'lat': 32.01665871700123, 'lng': 118.74299517607535}, 'address': '黄山路9号(新寓5村门口)', 'province': '江苏省', 'city': '南京市', 'area': '建邺区', 'street_id': 'b91062cf434f8d6c43afe625', 'telephone': '13951746430', 'detail': 1, 'uid': 'b91062cf434f8d6c43afe625', 'detail_info': {'tag': '美食;中餐厅', 'navi_location': {'lng': 118.75458083179, 'lat': 32.020405643179}, 'type': 'cater', 'detail_url': 'http://api.map.baidu.com/place/detail?uid=b91062cf434f8d6c43afe625&output=html&source=placeapi_v2', 'price': '18.0', 'overall_rating': '4.6', 'comment_num': '14', 'children': [], 'lat': 32.01665871700123, 'lng': 118.74299517607535}}"
"{'name': '益民小馆', 'location': {'lat': 32.01511577775732, 'lng': 118.74757650436018}, 'address': '南京市建邺区泰山路与怡康街交叉路口往东北约50米(怡康新寓西北侧)', 'province': '江苏省', 'city': '南京市', 'area': '建邺区', 'street_id': 'c3be9c4134dce27c38221cf4', 'telephone': '15850567900', 'detail': 1, 'uid': 'c3be9c4134dce27c38221cf4', 'detail_info': {'tag': '美食;中餐厅', 'navi_location': {'lng': 118.75926282166, 'lat': 32.018881848854}, 'type': 'cater', 'detail_url': 'http://api.map.baidu.com/place/detail?uid=c3be9c4134dce27c38221cf4&output=html&source=placeapi_v2', 'price': '59.0', 'overall_rating': '3.6', 'comment_num': '35', 'children': [], 'lat': 32.01511577775732, 'lng': 118.74757650436018}}"
"{'name': '仁恒辉盛阁酒店公寓-中餐厅', 'location': {'lat': 32.0079309583358, 'lng': 118.72828611004998}, 'address': '庐山路116号', 'province': '江苏省', 'city': '南京市', 'area': '建邺区', 'street_id': '4e25b49d84a47cf5fbdc85fb', 'telephone': '(025)87773666', 'detail': 1, 'uid': '4e25b49d84a47cf5fbdc85fb', 'detail_info': {'tag': '美食;中餐厅', 'type': 'cater', 'detail_url': 'http://api.map.baidu.com/place/detail?uid=4e25b49d84a47cf5fbdc85fb&output=html&source=placeapi_v2', 'price': '173.0', 'overall_rating': '4.7', 'comment_num': '7', 'children': [], 'lat': 32.0079309583358, 'lng': 118.72828611004998}}"
"{'name': '孙家烧烤羊肉汤(黄山路店)', 'location': {'lat': 32.01634243141985, 'lng': 118.74276883488633}, 'address': '江苏省南京市建邺区黄山路13号', 'province': '江苏省', 'city': '南京市', 'area': '建邺区', 'street_id': 'adc9bf7b176854d682288a02', 'telephone': '13951818527,15151810192', 'detail': 1, 'uid': 'adc9bf7b176854d682288a02', 'detail_info': {'tag': '美食;中餐厅', 'type': 'cater', 'detail_url': 'http://api.map.baidu.com/place/detail?uid=adc9bf7b176854d682288a02&output=html&source=placeapi_v2', 'price': '26.0', 'overall_rating': '4.1', 'comment_num': '15', 'children': [], 'lat': 32.01634243141985, 'lng': 118.74276883488633}}"
"{'name': '金陵烤鸭', 'location': {'lat': 32.018269016825876, 'lng': 118.73786327236529}, 'address': '江苏省南京市建邺区兴隆街道庐山路与怡康街交叉路口华隆新寓一村2号', 'province': '江苏省', 'city': '南京市', 'area': '建邺区', 'street_id': '560c93d3c4b3f557e31103ae', 'telephone': '(025)84447699', 'detail': 1, 'uid': '560c93d3c4b3f557e31103ae', 'detail_info': {'tag': '美食;中餐厅', 'navi_location': {'lng': 118.74963100044, 'lat': 32.021807014492}, 'type': 'cater', 'detail_url': 'http://api.map.baidu.com/place/detail?uid=560c93d3c4b3f557e31103ae&output=html&source=placeapi_v2', 'price': '93.0', 'overall_rating': '4.5', 'comment_num': '11', 'children': [], 'lat': 32.018269016825876, 'lng': 118.73786327236529}}"
"{'name': '宁宁土菜馆(虹苑新寓店)', 'location': {'lat': 32.017939383108846, 'lng': 118.74676109657331}, 'address': '应天大街791-16号', 'province': '江苏省', 'city': '南京市', 'area': '建邺区', 'street_id': 'a0e92a654c0810c5843304e3', 'telephone': '18761664199', 'detail': 1, 'uid': 'a0e92a654c0810c5843304e3', 'detail_info': {'tag': '美食;中餐厅', 'navi_location': {'lng': 118.75837335458, 'lat': 32.021600941672}, 'type': 'cater', 'detail_url': 'http://api.map.baidu.com/place/detail?uid=a0e92a654c0810c5843304e3&output=html&source=placeapi_v2', 'price': '24.0', 'overall_rating': '4.9', 'comment_num': '18', 'children': [], 'lat': 32.017939383108846, 'lng': 118.74676109657331}}"
"{'name': '唐师傅酸菜鱼龙虾烧烤(黄山路店)', 'location': {'lat': 32.01695995535912, 'lng': 118.74322153156375}, 'address': '建邺区黄山路9号', 'province': '江苏省', 'city': '南京市', 'area': '建邺区', 'street_id': 'c170bed89317f2194054d7fc', 'detail': 1, 'uid': 'c170bed89317f2194054d7fc', 'detail_info': {'tag': '美食;中餐厅', 'navi_location': {'lng': 118.75479494111, 'lat': 32.020714720257}, 'type': 'cater', 'detail_url': 'http://api.map.baidu.com/place/detail?uid=c170bed89317f2194054d7fc&output=html&source=placeapi_v2', 'price': '70.0', 'overall_rating': '4.1', 'comment_num': '58', 'children': [], 'lat': 32.01695995535912, 'lng': 118.74322153156375}}"
"{'name': '百姓小厨(泰山路店)', 'location': {'lat': 32.01448963828243, 'lng': 118.74713726764863}, 'address': '建邺区泰山路67号', 'province': '江苏省', 'city': '南京市', 'area': '建邺区', 'street_id': '8424c845e53394ee0d0a70a2', 'telephone': '15996288116,(025)52601779', 'detail': 1, 'uid': '8424c845e53394ee0d0a70a2', 'detail_info': {'tag': '美食;中餐厅', 'type': 'cater', 'detail_url': 'http://api.map.baidu.com/place/detail?uid=8424c845e53394ee0d0a70a2&output=html&source=placeapi_v2', 'price': '74.0', 'overall_rating': '4.7', 'comment_num': '13', 'children': [], 'lat': 32.01448963828243, 'lng': 118.74713726764863}}"
"{'name': '和庆香土鸡面', 'location': {'lat': 32.01466138904018, 'lng': 118.74725158496643},