"{'name': '安黛尔美容养生会所(奥体店)', 'location': {'lat': 32.021970894111654, 'lng': 118.7123218103634}, 'address': '南京市建邺区螺丝桥大街97', 'province': '江苏省', 'city': '南京市', 'area': '建邺区', 'street_id': '7d1c0fbf8f0db7ae76e5b6d6', 'telephone': '(025)86512285', 'detail': 1, 'uid': '7d1c0fbf8f0db7ae76e5b6d6', 'detail_info': {'tag': '丽人;美容', 'navi_location': {'lng': 118.72392553014, 'lat': 32.025720813466}, 'type': 'beauty', 'detail_url': 'http://api.map.baidu.com/place/detail?uid=7d1c0fbf8f0db7ae76e5b6d6&output=html&source=placeapi_v2', 'price': '122.0', 'overall_rating': '5.0', 'comment_num': '2', 'children': [], 'lat': 32.021970894111654, 'lng': 118.7123218103634}}"
"{'name': '蔓悦美专业皮肤管理(奥体店)', 'location': {'lat': 32.01898244145061, 'lng': 118.71025414131375}, 'address': '南京市建邺区螺丝桥大街与梦都大街交叉路口往北约50米(御江金城)', 'province': '江苏省', 'city': '南京市', 'area': '建邺区', 'street_id': '9f17bf2bc444951138221c1a', 'detail': 1, 'uid': '9f17bf2bc444951138221c1a', 'detail_info': {'tag': '丽人;美容', 'type': 'beauty', 'detail_url': 'http://api.map.baidu.com/place/detail?uid=9f17bf2bc444951138221c1a&output=html&source=placeapi_v2', 'price': '181.0', 'overall_rating': '5.0', 'comment_num': '2', 'children': [], 'lat': 32.01898244145061, 'lng': 118.71025414131375}}"
"{'name': '蔓若嘉兰美容养生SPA(奥体新城旗舰店)', 'location': {'lat': 32.02008227295358, 'lng': 118.72095913668933}, 'address': '兴隆大街197-1号奥体新城海棠园1幢103商铺', 'province': '江苏省', 'city': '南京市', 'area': '建邺区', 'street_id': 'cd5da0f2495b9727e81e978a', 'telephone': '(025)58706898', 'detail': 1, 'uid': 'cd5da0f2495b9727e81e978a', 'detail_info': {'tag': '丽人;美容', 'type': 'beauty', 'detail_url': 'http://api.map.baidu.com/place/detail?uid=cd5da0f2495b9727e81e978a&output=html&source=placeapi_v2', 'price': '286.0', 'overall_rating': '5.0', 'comment_num': '4', 'children': [], 'lat': 32.02008227295358, 'lng': 118.72095913668933}}"
"{'name': '月安超妍美容(月安街店)', 'location': {'lat': 32.022135379942306, 'lng': 118.7254378775946}, 'address': '江苏省南京市建邺区月安街31号-5', 'province': '江苏省', 'city': '南京市', 'area': '建邺区', 'street_id': '435d7aea4c8405355bbbbcb2', 'telephone': '(025)51865352', 'detail': 1, 'uid': '435d7aea4c8405355bbbbcb2', 'detail_info': {'tag': '丽人;美容', 'navi_location': {'lng': 118.7372632254, 'lat': 32.025990257145}, 'type': 'beauty', 'detail_url': 'http://api.map.baidu.com/place/detail?uid=435d7aea4c8405355bbbbcb2&output=html&source=placeapi_v2', 'overall_rating': '3.0', 'comment_num': '5', 'children': [], 'lat': 32.022135379942306, 'lng': 118.7254378775946}}"
"{'name': '依靠国际美容美发连锁机构(建邺店)', 'location': {'lat': 32.01608616034852, 'lng': 118.72336386525147}, 'address': '燕山路150号附近', 'province': '江苏省', 'city': '南京市', 'area': '建邺区', 'street_id': '433abd31785f0558e60738ba', 'detail': 1, 'uid': '433abd31785f0558e60738ba', 'detail_info': {'tag': '丽人;美容', 'type': 'beauty', 'detail_url': 'http://api.map.baidu.com/place/detail?uid=433abd31785f0558e60738ba&output=html&source=placeapi_v2', 'overall_rating': '1.8', 'comment_num': '6', 'children': [], 'lat': 32.01608616034852, 'lng': 118.72336386525147}}"
"{'name': '文峰美容美发(金陵六乐山路店)', 'location': {'lat': 32.02387493463601, 'lng': 118.71996738457449}, 'address': '乐山路113号水榭春天花园4栋(月安街交汇处)', 'province': '江苏省', 'city': '南京市', 'area': '建邺区', 'street_id': 'fd7c1cc9fc8c47fb2e473372', 'telephone': '(025)86679072', 'detail': 1, 'uid': 'fd7c1cc9fc8c47fb2e473372', 'detail_info': {'tag': '丽人;美容', 'navi_location': {'lng': 118.73167081187, 'lat': 32.027549563439}, 'type': 'beauty', 'detail_url': 'http://api.map.baidu.com/place/detail?uid=fd7c1cc9fc8c47fb2e473372&output=html&source=placeapi_v2', 'price': '88.0', 'overall_rating': '3.2', 'comment_num': '5', 'children': [], 'lat': 32.02387493463601, 'lng': 118.71996738457449}}"
"{'name': '花之颜美容院', 'location': {'lat': 32.01775561740106, 'lng': 118.72619164785966}, 'address': '江苏省南京市建邺区兴隆大街155号花之颜美容院', 'province': '江苏省', 'city': '南京市', 'area': '建邺区', 'detail': 1, 'uid': '13ee38c241ad434c49fc8d76', 'detail_info': {'tag': '丽人;美容', 'type': 'beauty', 'detail_url': 'http://api.map.baidu.com/place/detail?uid=13ee38c241ad434c49fc8d76&output=html&source=placeapi_v2', 'children': [], 'lat': 32.01775561740106, 'lng': 118.72619164785966}}"
"{'name': 'MIRROR镜面皮肤管理中心(奥体店)', 'location': {'lat': 32.01875155204666, 'lng': 118.71002469247783}, 'address': '御江金城东南门9栋202', 'province': '江苏省', 'city': '南京市', 'area': '建邺区', 'telephone': '18602505553', 'detail': 1, 'uid': 'f700f090e5e9769cad0457ed', 'detail_info': {'tag': '丽人;美容', 'type': 'beauty', 'detail_url': 'http://api.map.baidu.com/place/detail?uid=f700f090e5e9769cad0457ed&output=html&source=placeapi_v2', 'overall_rating': '4.6', 'comment_num': '57', 'children': [], 'lat': 32.01875155204666, 'lng': 118.71002469247783}}"
"{'name': '永琪美容美发(兴隆大街店)', 'location': {'lat': 32.02003432681667, 'lng': 118.72061966525385}, 'address': '兴隆大街197-5号(招商银行对面)', 'province': '江苏省', 'city': '南京市', 'area': '建邺区', 'street_id': '4d7916a9f996c5b60f0e6b8c', 'telephone': '(025)86604967', 'detail': 1, 'uid': '4d7916a9f996c5b60f0e6b8c', 'detail_info': {'tag': '丽人;美发', 'navi_location': {'lng': 118.73242250494, 'lat': 32.02398513414}, 'type': 'beauty', 'detail_url': 'http://api.map.baidu.com/place/detail?uid=4d7916a9f996c5b60f0e6b8c&output=html&source=placeapi_v2', 'price': '83.0', 'overall_rating': '2.5', 'comment_num': '26', 'children': [], 'lat': 32.02003432681667, 'lng': 118.72061966525385}}"
"{'name': '巨诚', 'location': {'lat': 32.01858926266177, 'lng': 118.72475295718799}, 'address': '兴隆大街167-2号', 'province': '江苏省', 'city': '南京市', 'area': '建邺区', 'street_id': 'cbe56914f74789304c6d46cc', 'telephone': '(025)52663367', 'detail': 1, 'uid': 'cbe56914f74789304c6d46cc', 'detail_info': {'tag': '丽人;美容', 'type': 'beauty', 'detail_url': 'http://api.map.baidu.com/place/detail?uid=cbe56914f74789304c6d46cc&output=html&source=placeapi_v2', 'price': '57.0', 'overall_rating': '4.0', 'comment_num': '24', 'children': [], 'lat': 32.01858926266177, 'lng': 118.72475295718799}}"
"{'name': '尚戏美容美发SPA', 'location': {'lat': 32.02232799731057, 'lng': 118.72686941704087}, 'address': '月安街22-1号(胖鱼头隔壁)', 'province': '江苏省', 'city': '南京市', 'area': '建邺区', 'street_id': '39bb40cabec9aba921f017be', 'telephone': '13915977661', 'detail': 1, 'uid': '39bb40cabec9aba921f017be', 'detail_info': {'tag': '丽人;美容', 'type': 'beauty', 'detail_url': 'http://api.map.baidu.com/place/detail?uid=39bb40cabec9aba921f017be&output=html&source=placeapi_v2', 'price': '263.0', 'overall_rating': '4.2', 'comment_num': '28', 'children': [], 'lat': 32.02232799731057, 'lng': 118.72686941704087}}"
"{'name': '华仔发型(滨江奥城店)', 'location': {'lat': 32.021564936168204, 'lng': 118.71589244450007}, 'address': '兴隆大街209号好邻居广场(近中华中学)', 'province': '江苏省', 'city': '南京市', 'area': '建邺区', 'street_id': '323e0c98b04fd7c115b54b29', 'telephone': '(025)86650556', 'detail': 1, 'uid': '323e0c98b04fd7c115b54b29', 'detail_info': {'tag': '丽人;美发', 'type': 'beauty', 'detail_url': 'http://api.map.baidu.com/place/detail?uid=323e0c98b04fd7c115b54b29&output=html&source=placeapi_v2', 'price': '0.0', 'overall_rating': '2.5', 'comment_num': '14', 'children': [], 'lat': 32.021564936168204, 'lng': 118.71589244450007}}"
"{'name': '天秤座美甲(月安街店)', 'location': {'lat': 32.02531147615356, 'lng': 118.71489652339737}, 'address': '月安街58号-3(近10号线绿博园地铁站6号口)', 'province': '江苏省', 'city': '南京市', 'area': '建邺区', 'street_id': '5d9a808a755a8efcf82d6114', 'telephone': '(025)83209697', 'detail': 1, 'uid': '5d9a808a755a8efcf82d6114', 'detail_info': {'tag': '丽人;美甲', 'navi_location': {'lng': 118.72663049691, 'lat': 32.029046064959}, 'type': 'beauty', 'detail_url': 'http://api.map.baidu.com/place/detail?uid=5d9a808a755a8efcf82d6114&output=html&source=placeapi_v2', 'price': '222.0', 'overall_rating': '4.2', 'comment_num': '36', 'children': [], 'lat': 32.02531147615356, 'lng': 118.71489652339737}}"
"{'name': '沙宣造型(奥体店)', 'location': {'lat': 32.01985484033928, 'lng': 118.71352677604861}, 'address': '南京市建邺区松花江西街65号-3', 'province': '江苏省', 'city': '南京市', 'area': '建邺区', 'street_id': '38f81cf94d5b3476b42655aa', 'telephone': '13770508968,15996327361', 'detail': 1, 'uid': '38f81cf94d5b3476b42655aa', 'detail_info': {'tag': '丽人;美发', 'type': 'beauty', 'detail_url': 'http://api.map.baidu.com/place/detail?uid=38f81cf94d5b3476b42655aa&output=html&source=placeapi_v2', 'price': '159.0', 'overall_rating': '3.3', 'comment_num': '7', 'children': [], 'lat': 32.01985484033928, 'lng': 118.71352677604861}}"
"{'name': '梵美禾悉', 'location': {'lat': 32.02215461325264, 'lng': 118.72406556185379}, 'address': '江苏省南京市建邺区月安街33号3附近', 'province': '江苏省', 'city': '南京市', 'area': '建邺区', 'street_id': 'ca231c5f0574ae372811d1a0', 'telephone': '13915507281', 'detail': 1, 'uid': 'ca231c5f0574ae372811d1a0', 'detail_info': {'tag': '丽人;美容', 'type': 'beauty', 'detail_url': 'http://api.map.baidu.com/place/detail?uid=ca231c5f0574ae372811d1a0&output=html&source=placeapi_v2', 'children': [], 'lat': 32.02215461325264, 'lng': 118.72406556185379}}"
"{'name': '安歌丽美容会所', 'location': {'lat': 32.02528475061048, 'lng': 118.71504769198636}, 'address': '江苏省南京市建邺区月安街59北80米', 'province': '江苏省', 'city': '南京市', 'area': '建邺区', 'street_id': '2c5f4b633db4c2df3913fd1b', 'detail': 1, 'uid': '2c5f4b633db4c2df3913fd1b', 'detail_info': {'tag': '丽人;美容', 'type': 'beauty', 'detail_url': 'http://api.map.baidu.com/place/detail?uid=2c5f4b633db4c2df3913fd1b&output=html&source=placeapi_v2', 'children': [], 'lat': 32.02528475061048, 'lng': 118.71504769198636}}"
"{'name': '梵美禾悉', 'location': {'lat': 32.01916457330212, 'lng': 118.72489721595771}, 'address': '江苏省南京市建邺区兴隆大街166号附近', 'province': '江苏省', 'city': '南京市', 'area': '建邺区', 'street_id': 'c480bb8ac1fea56588fc068f', 'telephone': '(025)52332505,13915507281,(025)86442692', 'detail': 1, 'uid': 'c480bb8ac1fea56588fc068f', 'detail_info': {'tag': '丽人;美发', 'type': 'beauty', 'detail_url': 'http://api.map.baidu.com/place/detail?uid=c480bb8ac1fea56588fc068f&output=html&source=placeapi_v2', 'price': '162.0', 'overall_rating': '4.7', 'comment_num': '37', 'children': [], 'lat': 32.01916457330212, 'lng': 118.72489721595771}}"
"{'name': '爱秀护肤造型(建邺店)', 'location': {'lat': 32.02958605562671, 'lng': 118.72611616486263}, 'address': '华山路99号积贤雅苑2栋106室', 'province': '江苏省', 'city': '南京市', 'area': '建邺区', 'street_id': '974f59a2b6eaf8b91d1d1194', 'telephone': '13770715144', 'detail': 1, 'uid': '974f59a2b6eaf8b91d1d1194', 'detail_info': {'tag': '丽人;美容', 'type': 'beauty', 'detail_url': 'http://api.map.baidu.com/place/detail?uid=974f59a2b6eaf8b91d1d1194&output=html&source=placeapi_v2', 'price': '251.0', 'overall_rating': '1.0', 'comment_num': '2', 'children': [], 'lat': 32.02958605562671, 'lng': 118.72611616486263}}"
"{'name': '百莲凯国际美容美体SPA会所(奥体店)', 'location': {'lat': 32.00634426298986, 'lng': 118.71777326274281}, 'address': '南京市建邺区奥体大街177号环宇融侨美容广场112号铺', 'province': '江苏省', 'city': '南京市', 'area': '建邺区', 'street_id': 'd5bedac4116925fab04c49a0', 'detail': 1, 'uid': 'd5bedac4116925fab04c49a0', 'detail_info': {'tag': '丽人;美容', 'navi_location': {'lng': 118.72977861576, 'lat': 32.009989035624}, 'type': 'beauty', 'detail_url': 'http://api.map.baidu.com/place/detail?uid=d5bedac4116925fab04c49a0&output=html&source=placeapi_v2', 'price': '618.0', 'overall_rating': '4.7', 'comment_num': '6', 'children': [], 'lat': 32.00634426298986, 'lng': 118.71777326274281}}"
"{'name': '叭俪护肤造型(汇景国际直营店)', 'location': {'lat': 32.02518965454116, 'lng': 118.71551117715877}, 'address': '南京市建邺区苍山路8号56-4,56-5', 'province': '江苏省', 'city': '南京市', 'area': '建邺区', 'street_id': 'da5b7d52c755f96ef02d83b3', 'telephone': '(025)83370860', 'detail': 1, 'uid': 'da5b7d52c755f96ef02d83b3', 'detail_info': {'tag': '丽人;美容', 'type': 'beauty', 'detail_url': 'http://api.map.baidu.com/place/detail?uid=da5b7d52c755f96ef02d83b3&output=html&source=placeapi_v2', 'price': '271.0', 'children': [], 'lat': 32.02518965454116, 'lng': 118.71551117715877}}"
"{'name': '恩禧美甲彩妆(金马郦城西)', 'location': {'lat': 32.00893089130474, 'lng': 118.71052532564552}, 'address': '江苏省南京市建邺区奥体大街199号金马郦城5幢107室', 'province': '江苏省', 'city': '南京市', 'area': '建邺区', 'street_id': 'c6bd0e361241fa3a79dbd2ca', 'telephone': '15295538259,18795946731', 'detail': 1, 'uid': 'c6bd0e361241fa3a79dbd2ca', 'detail_info': {'tag': '丽人;美甲', 'navi_location': {'lng': 118.72239994777, 'lat': 32.013550776685}, 'type': 'beauty', 'detail_url': 'http://api.map.baidu.com/place/detail?uid=c6bd0e361241fa3a79dbd2ca&output=html&source=placeapi_v2', 'price': '0.0', 'overall_rating': '4.0', 'comment_num': '4', 'children': [], 'lat': 32.00893089130474, 'lng': 118.71052532564552}}"
"{'name': '微美美甲美睫', 'location': {'lat': 32.025399394616976, 'lng': 118.7146926126854}, 'address': '月安街58-8号', 'province': '江苏省', 'city': '南京市', 'area': '建邺区', 'street_id': '403b40142615f2cb79dbd2ed', 'telephone': '15260297730', 'detail': 1, 'uid': '403b40142615f2cb79dbd2ed', 'detail_info': {'tag': '丽人;美甲', 'type': 'beauty', 'detail_url': 'http://api.map.baidu.com/place/detail?uid=403b40142615f2cb79dbd2ed&output=html&source=placeapi_v2', 'price': '147.0', 'overall_rating': '5.0', 'comment_num': '6', 'children': [], 'lat': 32.025399394616976, 'lng': 118.7146926126854}}"
"{'name': '纤手一生美甲', 'location': {'lat': 32.01101092857651, 'lng': 118.71721657965902}, 'address': '建邺区中央商务区纤手一生美甲', 'province': '江苏省', 'city': '南京市', 'area': '建邺区', 'detail': 1, 'uid': '93fe462cfacd5a8a132935a5', 'detail_info': {'tag': '丽人;美甲', 'type': 'beauty', 'detail_url': 'http://api.map.baidu.com/place/detail?uid=93fe462cfacd5a8a132935a5&output=html&source=placeapi_v2', 'children': [], 'lat': 32.01101092857651, 'lng': 118.71721657965902}}"
"{'name': '东方华妍茶文化交流中心', 'location': {'lat': 32.02272147082127, 'lng': 118.71477795866869}, 'address': '江苏省南京市建邺区兴隆大街210号-2', 'province': '江苏省', 'city': '南京市', 'area': '建邺区', 'street_id': '5fcebbded29c12f24f3a5926', 'telephone': '(025)83789975', 'detail': 1, 'uid': '5fcebbded29c12f24f3a5926', 'detail_info': {'tag': '丽人', 'type': 'beauty', 'detail_url': 'http://api.map.baidu.com/place/detail?uid=5fcebbded29c12f24f3a5926&output=html&source=placeapi_v2', 'overall_rating': '0.0', 'children': [], 'lat': 32.02272147082127, 'lng': 118.71477795866869}}"
"{'name': '春语医疗美容', 'location': {'lat': 32.0196060580059, 'lng': 118.72329677155415}, 'address': '南京市建邺区兴隆大街170-8170-9号', 'province': '江苏省', 'city': '南京市', 'area': '建邺区', 'street_id': '4aa820232e49e1f28c1a894f', 'telephone': '(025)52238788', 'detail': 1, 'uid': '4aa820232e49e1f28c1a894f', 'detail_info': {'tag': '医疗;专科医院', 'navi_location': {'lng': 118.73497202893, 'lat': 32.023110595893}, 'type': 'hospital', 'detail_url': 'http://api.map.baidu.com/place/detail?uid=4aa820232e49e1f28c1a894f&output=html&source=placeapi_v2', 'image_num': '6', 'children': [], 'lat': 32.0196060580059, 'lng': 118.72329677155415}}"
"{'name': '百琳凯美容', 'location': {'lat': 32.00628532043484, 'lng': 118.71734048095679}, 'address': '奥体大街177号环宇美食广场B座', 'province': '江苏省', 'city': '南京市', 'area': '建邺区', 'detail': 1, 'uid': 'a626495ae1502c162fe67b6d', 'detail_info': {'tag': '丽人;美容', 'type': 'beauty', 'detail_url': 'http://api.map.baidu.com/place/detail?uid=a626495ae1502c162fe67b6d&output=html&source=placeapi_v2', 'children': [], 'lat': 32.00628532043484, 'lng': 118.71734048095679}}"
"{'name': '维妮美美容养生会所', 'location': {'lat': 32.0244707241893, 'lng': 118.72027755343504}, 'address': '江苏省南京市建邺区乐山路113-19号', 'province': '江苏省', 'city': '南京市', 'area': '建邺区', 'street_id': '8b591710727d6c3509ccdd5e', 'detail': 1, 'uid': '8b591710727d6c3509ccdd5e', 'detail_info': {'tag': '丽人;美容', 'type': 'beauty', 'detail_url': 'http://api.map.baidu.com/place/detail?uid=8b591710727d6c3509ccdd5e&output=html&source=placeapi_v2', 'children': [], 'lat': 32.0244707241893, 'lng': 118.72027755343504}}"
"{'name': 'KADO(中央商场店)', 'location': {'lat': 32.0093391410579, 'lng': 118.72725092426445}, 'address': '南京市建邺区江东中路270号中央商场F4', 'province': '江苏省', 'city': '南京市', 'area': '建邺区', 'detail': 1, 'uid': 'a7691affc3c7d3d11c580044', 'detail_info': {'tag': '购物;商铺', 'indoor_floor': 'F4', 'type': 'shopping', 'detail_url': 'http://api.map.baidu.com/place/detail?uid=a7691affc3c7d3d11c580044&output=html&source=placeapi_v2', 'children': [], 'lat': 32.0093391410579, 'lng': 118.72725092426445}}"
"{'name': '青目刺青处', 'location': {'lat': 32.00919127070222, 'lng': 118.71024510777937}, 'address': '江苏省南京市建邺区奥体大街199号金马郦城4幢109号', 'province': '江苏省', 'city': '南京市', 'area': '建邺区', 'street_id': 'ba470bddd3a253e30c0e6b44', 'telephone': '(025)86298831,13851505226', 'detail': 1, 'uid': 'ba470bddd3a253e30c0e6b44', 'detail_info': {'tag': '公司企业;公司', 'type': 'enterprise', 'detail_url': 'http://api.map.baidu.com/place/detail?uid=ba470bddd3a253e30c0e6b44&output=html&source=placeapi_v2', 'overall_rating': '5.0', 'comment_num': '26', 'children': [], 'lat': 32.00919127070222, 'lng': 118.71024510777937}}"
"{'name': '丝域养发馆(乐山路店)', 'location': {'lat': 32.02464457932448, 'lng': 118.72034811087914}, 'address': '江苏省南京市建邺区乐山路113-22号', 'province': '江苏省', 'city': '南京市', 'area': '建邺区', 'street_id': '07809260f38fac0986330441', 'telephone': '17714304862,(025)83611096', 'detail': 1, 'uid': '07809260f38fac0986330441', 'detail_info': {'tag': '丽人;美发', 'type': 'beauty', 'detail_url': 'http://api.map.baidu.com/place/detail?uid=07809260f38fac0986330441&output=html&source=placeapi_v2', 'price': '88.0', 'overall_rating': '4.4', 'comment_num': '26', 'children': [], 'lat': 32.02464457932448, 'lng': 118.72034811087914}}"
"{'name': '依靠', 'location': {'lat': 32.02264688863649, 'lng': 118.72170151329523}, 'address': '江苏省南京市建邺区月安街39-5附近', 'province': '江苏省', 'city': '南京市', 'area': '建邺区', 'detail': 1, 'uid': 'abe98051b4b2f84990114c37', 'detail_info': {'tag': '丽人;其他', 'type': 'beauty', 'detail_url': 'http://api.map.baidu.com/place/detail?uid=abe98051b4b2f84990114c37&output=html&source=placeapi_v2', 'children': [], 'lat': 32.02264688863649, 'lng': 118.72170151329523}}"
"{'name': '丝域养发(南京市建邺区螺丝桥大街店)', 'location': {'lat': 32.01990825294627, 'lng': 118.71071381969759}, 'address': '江苏省南京市建邺区螺丝桥大街122号', 'province': '江苏省', 'city': '南京市', 'area': '建邺区', 'street_id': '600d7a644b45041af6c59c0e', 'telephone': '(025)86691505', 'detail': 1, 'uid': '600d7a644b45041af6c59c0e', 'detail_info': {'tag': '丽人;美发', 'type': 'beauty', 'detail_url': 'http://api.map.baidu.com/place/detail?uid=600d7a644b45041af6c59c0e&output=html&source=placeapi_v2', 'price': '0.0', 'overall_rating': '5.0', 'comment_num': '1', 'children': [], 'lat': 32.01990825294627, 'lng': 118.71071381969759}}"
"{'name': '美婷3分钟减肥', 'location': {'lat': 32.025204539804555, 'lng': 118.71530133175574}, 'address': '月安街56-9号', 'province': '江苏省', 'city': '南京市', 'area': '建邺区', 'street_id': '02547b2f4b18fde886420ebb', 'detail': 1, 'uid': '02547b2f4b18fde886420ebb', 'detail_info': {'tag': '丽人;美体', 'type': 'beauty', 'detail_url': 'http://api.map.baidu.com/place/detail?uid=02547b2f4b18fde886420ebb&output=html&source=placeapi_v2', 'overall_rating': '1.0', 'comment_num': '1', 'children': [], 'lat': 32.025204539804555, 'lng': 118.71530133175574}}"
"{'name': '丝域养发(丹桂园店)', 'location': {'lat': 32.016858677058515, 'lng': 118.72483333459255}, 'address': '南京市建邺区燕山路149号7幢104室', 'province': '江苏省', 'city': '南京市', 'area': '建邺区', 'street_id': 'ac64910bf9c79e090a5cb333', 'telephone': '17366033855,(025)58799558', 'detail': 1, 'uid': 'ac64910bf9c79e090a5cb333', 'detail_info': {'tag': '丽人;美发', 'type': 'beauty', 'detail_url': 'http://api.map.baidu.com/place/detail?uid=ac64910bf9c79e090a5cb333&output=html&source=placeapi_v2', 'price': '139.0', 'overall_rating': '4.1', 'comment_num': '8', 'children': [], 'lat': 32.016858677058515, 'lng': 118.72483333459255}}"
"{'name': '异秀阁造型烫染店', 'location': {'lat': 32.01886464058256, 'lng': 118.72378727051381}, 'address': '江苏省南京市建邺区兴隆大街171号附近', 'province': '江苏省', 'city': '南京市', 'area': '建邺区', 'street_id': '72ac97a08bdf1675df1e52f8', 'detail': 1, 'uid': '72ac97a08bdf1675df1e52f8', 'detail_info': {'tag': '丽人;美发', 'type': 'beauty', 'detail_url': 'http://api.map.baidu.com/place/detail?uid=72ac97a08bdf1675df1e52f8&output=html&source=placeapi_v2', 'overall_rating': '4.0', 'comment_num': '1', 'children': [], 'lat': 32.01886464058256, 'lng': 118.72378727051381}}"
"{'name': '曼诺嘉兰美容院', 'location': {'lat': 32.01983334511288, 'lng': 118.7209682188514}, 'address': '兴隆大街197-1号奥体新城海棠园1幢103商铺', 'province': '江苏省', 'city': '南京市', 'area': '建邺区', 'street_id': '6b17c6b0504cc2817dc8763a', 'detail': 1, 'uid': '6b17c6b0504cc2817dc8763a', 'detail_info': {'tag': '丽人;美容', 'type': 'beauty', 'detail_url': 'http://api.map.baidu.com/place/detail?uid=6b17c6b0504cc2817dc8763a&output=html&source=placeapi_v2', 'price': '286.0', 'children': [], 'lat': 32.01983334511288, 'lng': 118.7209682188514}}"
"{'name': '融侨超妍美容', 'location': {'lat': 32.01098039565409, 'lng': 118.71717877799918}, 'address': '江苏省南京市建邺区河西中央商务区融侨中央花园玫瑰街区三期融侨超妍美容', 'province': '江苏省', 'city': '南京市', 'area': '建邺区', 'detail': 1, 'uid': '7dac373019f1f4c05b10932d', 'detail_info': {'tag': '丽人;美容', 'type': 'beauty', 'detail_url': 'http://api.map.baidu.com/place/detail?uid=7dac373019f1f4c05b10932d&output=html&source=placeapi_v2', 'children': [], 'lat': 32.01098039565409, 'lng': 118.71717877799918}}"
"{'name': '八俪', 'location': {'lat': 32.02156971873276, 'lng': 118.71587752338542}, 'address': '江苏省南京市建邺区兴隆大街209号-3楼附近', 'province': '江苏省', 'city': '南京市', 'area': '建邺区', 'street_id': 'e975b2b7fe2f01a7d8eced82', 'detail': 1, 'uid': 'e975b2b7fe2f01a7d8eced82', 'detail_info': {'tag': '丽人', 'type': 'beauty', 'detail_url': 'http://api.map.baidu.com/place/detail?uid=e975b2b7fe2f01a7d8eced82&output=html&source=placeapi_v2', 'children': [], 'lat': 32.02156971873276, 'lng': 118.71587752338542}}"
"{'name': '金夫人美容spa养生会所', 'location': {'lat': 32.0109910479436, 'lng': 118.71722553346655}, 'address': '江苏省南京市建邺区河西中央商务区江东中路河西中央商务区庐山路158嘉业国际城金夫人美容spa养生会所', 'province': '江苏省', 'city': '南京市', 'area': '建邺区', 'detail': 1, 'uid': '72ecf39b8a819c17132935dc', 'detail_info': {'tag': '丽人;美容', 'type': 'beauty', 'detail_url': 'http://api.map.baidu.com/place/detail?uid=72ecf39b8a819c17132935dc&output=html&source=placeapi_v2', 'children': [], 'lat': 32.0109910479436, 'lng': 118.71722553346655}}"
"{'name': '时尚美发', 'location': {'lat': 32.02513259888249, 'lng': 118.69334891829372}, 'address': '洲岛家园绿洲苑2栋106室', 'province': '江苏省', 'city': '南京市', 'area': '建邺区', 'telephone': '17751798530', 'detail': 1, 'uid': '348e9f70111f5fc1b04c4911', 'detail_info': {'tag': '丽人;美发', 'type': 'beauty', 'detail_url': 'http://api.map.baidu.com/place/detail?uid=348e9f70111f5fc1b04c4911&output=html&source=placeapi_v2', 'children': [], 'lat': 32.02513259888249, 'lng': 118.69334891829372}}"
"{'name': '花之剪', 'location': {'lat': 32.01002851615528, 'lng': 118.69491697698214}, 'address': '民安路与江堤路交叉口西50米', 'province': '江苏省', 'city': '南京市', 'area': '建邺区', 'telephone': '13776656715', 'detail': 1, 'uid': 'a7196eaec9c2f8dabe48423d', 'detail_info': {'tag': '丽人;美发', 'type': 'beauty', 'detail_url': 'http://api.map.baidu.com/place/detail?uid=a7196eaec9c2f8dabe48423d&output=html&source=placeapi_v2', 'children': [], 'lat': 32.01002851615528, 'lng': 118.69491697698214}}"
"{'name': '超妍美容SPA养生会所', 'location': {'lat': 32.00934898234902, 'lng': 118.70992812264625}, 'address': '南京市建邺区奥体大街与乐山路交叉路口往西约150米(金马郦城-西区)', 'province': '江苏省', 'city': '南京市', 'area': '建邺区', 'telephone': '(025)58362939', 'detail': 1, 'uid': 'b400e93c39f9cb833062125d', 'detail_info': {'tag': '丽人;美容', 'type': 'beauty', 'detail_url': 'http://api.map.baidu.com/place/detail?uid=b400e93c39f9cb833062125d&output=html&source=placeapi_v2', 'children': [], 'lat': 32.00934898234902, 'lng': 118.70992812264625}}"
"{'name': '摩登造型', 'location': {'lat': 32.01095088602052, 'lng': 118.71721459162973}, 'address': '江苏省南京市建邺区江东中路金奥国际购物中心', 'province': '江苏省', 'city': '南京市', 'area': '建邺区', 'detail': 1, 'uid': '289acab446670789631c67b7', 'detail_info': {'tag': '丽人;美发', 'type': 'beauty', 'detail_url': 'http://api.map.baidu.com/place/detail?uid=289acab446670789631c67b7&output=html&source=placeapi_v2', 'children': [], 'lat': 32.01095088602052, 'lng': 118.71721459162973}}"
"{'name': '焕活美发店', 'location': {'lat': 32.010995145610885, 'lng': 118.71723249701563}, 'address': '江苏省南京市建邺区金奥国际购物中心', 'province': '江苏省', 'city': '南京市', 'area': '建邺区', 'detail': 1, 'uid': 'e6d8e2aaa6a964d1fbdc8568', 'detail_info': {'tag': '丽人;美发', 'type': 'beauty', 'detail_url': 'http://api.map.baidu.com/place/detail?uid=e6d8e2aaa6a964d1fbdc8568&output=html&source=placeapi_v2', 'children': [], 'lat': 32.010995145610885, 'lng': 118.71723249701563}}"
"{'name': 'TwentyFOUR24H造型(河西中央商场店)', 'location': {'lat': 32.00927608906842, 'lng': 118.7266506103424}, 'address': '建邺区白鹭东街金隅紫京府30-22', 'province': '江苏省', 'city': '南京市', 'area': '建邺区', 'detail': 1, 'uid': 'f775e0d3343ecf9b4e55477a', 'detail_info': {'tag': '丽人;美发', 'type': 'beauty', 'detail_url': 'http://api.map.baidu.com/place/detail?uid=f775e0d3343ecf9b4e55477a&output=html&source=placeapi_v2', 'children': [], 'lat': 32.00927608906842, 'lng': 118.7266506103424}}"
"{'name': '克丽缇娜', 'location': {'lat': 32.0109910479436, 'lng': 118.71722553346655}, 'address': '江苏省南京市建邺区河西中央商务区建邺区嘉业国际城2栋', 'province': '江苏省', 'city': '南京市', 'area': '建邺区', 'detail': 1, 'uid': '732a46333db2910ead31e5ef', 'detail_info': {'tag': '丽人;美容', 'type': 'beauty', 'detail_url': 'http://api.map.baidu.com/place/detail?uid=732a46333db2910ead31e5ef&output=html&source=placeapi_v2', 'children': [], 'lat': 32.0109910479436, 'lng': 118.71722553346655}}"
"{'name': '丝域养发馆', 'location': {'lat': 32.01094820902122, 'lng': 118.71731009394524}, 'address': '江苏省南京市建邺区河西中央商务区庐山路128号东渡新锐大厦149号丝域养发馆', 'province': '江苏省', 'city': '南京市', 'area': '建邺区', 'detail': 1, 'uid': 'bb18c6d0411440d7118824e3', 'detail_info': {'tag': '丽人;美发', 'type': 'beauty', 'detail_url': 'http://api.map.baidu.com/place/detail?uid=bb18c6d0411440d7118824e3&output=html&source=placeapi_v2', 'children': [], 'lat': 32.01094820902122, 'lng': 118.71731009394524}}"
"{'name': '江心专业美发厅', 'location': {'lat': 32.00959793848935, 'lng': 118.6947480280886}, 'address': '江苏省南京市建邺区民安路南京市江心洲中心幼儿园附近', 'province': '江苏省', 'city': '南京市', 'area': '建邺区', 'street_id': '751e777c677dc29231870a82', 'telephone': '13057543359', 'detail': 1, 'uid': '751e777c677dc29231870a82', 'detail_info': {'tag': '丽人;美发', 'type': 'beauty', 'detail_url': 'http://api.map.baidu.com/place/detail?uid=751e777c677dc29231870a82&output=html&source=placeapi_v2', 'overall_rating': '0.0', 'children': [], 'lat': 32.00959793848935, 'lng': 118.6947480280886}}"
"{'name': '安之酸植物营养染发护发连锁(金马郦城店)', 'location': {'lat': 32.00934931643706, 'lng': 118.71060386063266}, 'address': '南京市建邺区奥体大街与乐山路交叉路口往西约100米(金马郦城C区)', 'province': '江苏省', 'city': '南京市', 'area': '建邺区', 'telephone': '4001891806', 'detail': 1, 'uid': 'e2dbf13573ee3d5a266e986b', 'detail_info': {'tag': '丽人;美发', 'type': 'beauty', 'detail_url': 'http://api.map.baidu.com/place/detail?uid=e2dbf13573ee3d5a266e986b&output=html&source=placeapi_v2', 'children': [], 'lat': 32.00934931643706, 'lng': 118.71060386063266}}"
"{'name': 'H美发店', 'location': {'lat': 32.00933343098867, 'lng': 118.72669747848322}, 'address': '建邺区中央商场二楼24', 'province': '江苏省', 'city': '南京市', 'area': '建邺区', 'detail': 1, 'uid': '8b6f29cfdc1da7882fb96d38', 'detail_info': {'tag': '丽人;美发', 'detail_url': 'http://api.map.baidu.com/place/detail?uid=8b6f29cfdc1da7882fb96d38&output=html&source=placeapi_v2', 'children': [], 'lat': 32.00933343098867, 'lng': 118.72669747848322}}"
"{'name': '芭图造型', 'location': {'lat': 32.010939910915724, 'lng': 118.7172165815101}, 'address': '江苏省南京市建邺区河西中央商务区河西中央商务区江东中路329号金奥国际购物中心芭图造型', 'province': '江苏省', 'city': '南京市', 'area': '建邺区', 'detail': 1, 'uid': '76d739d23d8914e1d618b7c9', 'detail_info': {'tag': '丽人;美发', 'type': 'beauty', 'detail_url': 'http://api.map.baidu.com/place/detail?uid=76d739d23d8914e1d618b7c9&output=html&source=placeapi_v2', 'children': [], 'lat': 32.010939910915724, 'lng': 118.7172165815101}}"
"{'name': '天韵国际美容SPA(东宝路店)', 'location': {'lat': 32.04496113298495, 'lng': 118.72702741834823}, 'address': '江苏省南京市鼓楼区东宝路29号', 'province': '江苏省', 'city': '南京市', 'area': '鼓楼区', 'street_id': 'edcd337a00734bf858f6be89', 'telephone': '(025)86587902', 'detail': 1, 'uid': 'edcd337a00734bf858f6be89', 'detail_info': {'tag': '丽人;美容', 'navi_location': {'lng': 118.73888177879, 'lat': 32.048798965094}, 'type': 'beauty', 'detail_url': 'http://api.map.baidu.com/place/detail?uid=edcd337a00734bf858f6be89&output=html&source=placeapi_v2', 'overall_rating': '4.3', 'comment_num': '4', 'children': [], 'lat': 32.04496113298495, 'lng': 118.72702741834823}}"
"{'name': '白壁上妍の日本徒手小颜整骨院(苏宁慧谷店)', 'location': {'lat': 32.03465459511919, 'lng': 118.71774280771166}, 'address': '集庆门大街苏宁慧谷E08-1栋2020室', 'province': '江苏省', 'city': '南京市', 'area': '鼓楼区', 'telephone': '17312143182', 'detail': 1, 'uid': '83c080480bcea189e115f97d', 'detail_info': {'tag': '丽人;美容', 'type': 'beauty', 'detail_url': 'http://api.map.baidu.com/place/detail?uid=83c080480bcea189e115f97d&output=html&source=placeapi_v2', 'overall_rating': '4.2', 'comment_num': '6', 'children': [], 'lat': 32.03465459511919, 'lng': 118.71774280771166}}"
"{'name': '奥林专业纤体养生(湘江路店)', 'location': {'lat': 32.051847289248144, 'lng': 118.72594733645519}, 'address': '江苏省南京市鼓楼区湘江路18号', 'province': '江苏省', 'city': '南京市', 'area': '鼓楼区', 'street_id': 'dd647b4c9caf22f317948ef2', 'telephone': '(025)83337150', 'detail': 1, 'uid': 'dd647b4c9caf22f317948ef2', 'detail_info': {'tag': '丽人;美容', 'navi_location': {'lng': 118.73773635842, 'lat': 32.055360021462}, 'type': 'beauty', 'detail_url': 'http://api.map.baidu.com/place/detail?uid=dd647b4c9caf22f317948ef2&output=html&source=placeapi_v2', 'price': '130.0', 'overall_rating': '4.2', 'comment_num': '4', 'children': [], 'lat': 32.051847289248144, 'lng': 118.72594733645519}}"
"{'name': '浪花美发(清江路店)', 'location': {'lat': 32.044327569125066, 'lng': 118.72556947251545}, 'address': '南京市鼓楼区清江路44号', 'province': '江苏省', 'city': '南京市', 'area': '鼓楼区', 'street_id': 'a0c0d440024897e1eb12e45b', 'detail': 1, 'uid': 'a0c0d440024897e1eb12e45b', 'detail_info': {'tag': '丽人;美发', 'type': 'beauty', 'detail_url': 'http://api.map.baidu.com/place/detail?uid=a0c0d440024897e1eb12e45b&output=html&source=placeapi_v2', 'overall_rating': '5.0', 'comment_num': '2', 'children': [], 'lat': 32.044327569125066, 'lng': 118.72556947251545}}"
"{'name': '华仔纽恋(东宝路店)', 'location': {'lat': 32.04498042617136, 'lng': 118.72738143002948}, 'address': '东宝路29号', 'province': '江苏省', 'city': '南京市', 'area': '鼓楼区', 'street_id': '269f28847ec0c61c223bf2a0', 'telephone': '(025)86557729', 'detail': 1, 'uid': '269f28847ec0c61c223bf2a0', 'detail_info': {'tag': '购物;商铺', 'type': 'shopping', 'detail_url': 'http://api.map.baidu.com/place/detail?uid=269f28847ec0c61c223bf2a0&output=html&source=placeapi_v2', 'overall_rating': '3.3', 'comment_num': '10', 'children': [], 'lat': 32.04498042617136, 'lng': 118.72738143002948}}"
"{'name': '靓岛(苏宁睿城店)', 'location': {'lat': 32.033793526145374, 'lng': 118.72749921824914}, 'address': '南京市鼓楼区集贤路与燕山路交叉路口向西约100米(苏宁睿城银河国际街区-东区)', 'province': '江苏省', 'city': '南京市', 'area': '鼓楼区', 'street_id': '0d46230436cab6bc31f71d84', 'telephone': '(025)86522055', 'detail': 1, 'uid': '0d46230436cab6bc31f71d84', 'detail_info': {'tag': '丽人;美发', 'type': 'beauty', 'detail_url': 'http://api.map.baidu.com/place/detail?uid=0d46230436cab6bc31f71d84&output=html&source=placeapi_v2', 'price': '905.0', 'overall_rating': '1.4', 'comment_num': '19', 'children': [], 'lat': 32.033793526145374, 'lng': 118.72749921824914}}"
"{'name': '可诺丹婷美颜美体(苏宁环球商贸城店)', 'location': {'lat': 32.04614187913232, 'lng': 118.72488074546418}, 'address': '南京市鼓楼区清江路99号苏宁环球商贸城F1', 'province': '江苏省', 'city': '南京市', 'area': '鼓楼区', 'street_id': '533fdd0174af63f75bf6be40', 'detail': 1, 'uid': '533fdd0174af63f75bf6be40', 'detail_info': {'tag': '丽人;美容', 'indoor_floor': 'F1', 'type': 'beauty', 'detail_url': 'http://api.map.baidu.com/place/detail?uid=533fdd0174af63f75bf6be40&output=html&source=placeapi_v2', 'overall_rating': '3.0', 'comment_num': '1', 'children': [], 'lat': 32.04614187913232, 'lng': 118.72488074546418}}"
"{'name': '美伊发型', 'location': {'lat': 32.03322354664989, 'lng': 118.72296367180995}, 'address': '清江南路5号佳和园小区', 'province': '江苏省', 'city': '南京市', 'area': '鼓楼区', 'street_id': '7c64a85751c6e54804fef5c9', 'detail': 1, 'uid': '7c64a85751c6e54804fef5c9', 'detail_info': {'tag': '丽人;美发', 'type': 'beauty', 'detail_url': 'http://api.map.baidu.com/place/detail?uid=7c64a85751c6e54804fef5c9&output=html&source=placeapi_v2', 'overall_rating': '5.0', 'comment_num': '1', 'children': [], 'lat': 32.03322354664989, 'lng': 118.72296367180995}}"
"{'name': '智颜美容', 'location': {'lat': 32.044095370129185, 'lng': 118.7278571621056}, 'address': '锦江路6号', 'province': '江苏省', 'city': '南京市', 'area': '鼓楼区', 'detail': 1, 'uid': '843b880eb9fe094d8bb98819', 'detail_info': {'tag': '丽人;美容', 'detail_url': 'http://api.map.baidu.com/place/detail?uid=843b880eb9fe094d8bb98819&output=html&source=placeapi_v2', 'children': [], 'lat': 32.044095370129185, 'lng': 118.7278571621056}}"
"{'name': '风彩发型(银城街店)', 'location': {'lat': 32.055541526116656, 'lng': 118.72638456302118}, 'address': '南京市鼓楼区银城花园15号102', 'province': '江苏省', 'city': '南京市', 'area': '鼓楼区', 'street_id': '90154a7482880f411df74d94', 'detail': 1, 'uid': '90154a7482880f411df74d94', 'detail_info': {'tag': '丽人;美发', 'type': 'beauty', 'detail_url': 'http://api.map.baidu.com/place/detail?uid=90154a7482880f411df74d94&output=html&source=placeapi_v2', 'overall_rating': '5.0', 'comment_num': '4', 'children': [], 'lat': 32.055541526116656, 'lng': 118.72638456302118}}"
"{'name': '华艺发型(湘江路店)', 'location': {'lat': 32.0518291349279, 'lng': 118.72647177423612}, 'address': '湘江路18号长江之家02幢6单元101室', 'province': '江苏省', 'city': '南京市', 'area': '鼓楼区', 'street_id': '61085211273285b8c41b758c', 'telephone': '(025)86216413', 'detail': 1, 'uid': '61085211273285b8c41b758c', 'detail_info': {'tag': '丽人;美发', 'type': 'beauty', 'detail_url': 'http://api.map.baidu.com/place/detail?uid=61085211273285b8c41b758c&output=html&source=placeapi_v2', 'overall_rating': '0.0', 'comment_num': '1', 'children': [], 'lat': 32.0518291349279, 'lng': 118.72647177423612}}"
"{'name': '无双发艺(锦江路店)', 'location': {'lat': 32.04480312373249, 'lng': 118.72765390507507}, 'address': '东宝路嘉景苑01幢B座东宝路旁-门面房', 'province': '江苏省', 'city': '南京市', 'area': '鼓楼区', 'street_id': '9f97b1c580d9b21fb74f548a', 'telephone': '13451821301', 'detail': 1, 'uid': '9f97b1c580d9b21fb74f548a', 'detail_info': {'tag': '丽人;美发', 'type': 'beauty', 'detail_url': 'http://api.map.baidu.com/place/detail?uid=9f97b1c580d9b21fb74f548a&output=html&source=placeapi_v2', 'overall_rating': '3.0', 'comment_num': '3', 'children': [], 'lat': 32.04480312373249, 'lng': 118.72765390507507}}"
"{'name': '巴黎欧莱雅时尚沙龙', 'location': {'lat': 32.03381430683282, 'lng': 118.71854563690454}, 'address': '集庆门大街268号苏宁慧谷E08一楼', 'province': '江苏省', 'city': '南京市', 'area': '鼓楼区', 'street_id': '869f53bc4077f27b4251c075', 'detail': 1, 'uid': '869f53bc4077f27b4251c075', 'detail_info': {'tag': '丽人;美发', 'type': 'beauty', 'detail_url': 'http://api.map.baidu.com/place/detail?uid=869f53bc4077f27b4251c075&output=html&source=placeapi_v2', 'overall_rating': '5.0', 'comment_num': '2', 'children': [], 'lat': 32.03381430683282, 'lng': 118.71854563690454}}"
"{'name': '云飞堂', 'location': {'lat': 32.04789711184108, 'lng': 118.72445033237638}, 'address': '南京市鼓楼区育才公寓西片50号2楼', 'province': '江苏省', 'city': '南京市', 'area': '鼓楼区', 'street_id': '30deb57f39bc2eb504fef5de', 'detail': 1, 'uid': '30deb57f39bc2eb504fef5de', 'detail_info': {'tag': '丽人', 'type': 'beauty', 'detail_url': 'http://api.map.baidu.com/place/detail?uid=30deb57f39bc2eb504fef5de&output=html&source=placeapi_v2', 'children': [], 'lat': 32.04789711184108, 'lng': 118.72445033237638}}"
"{'name': '青春不散场营养会所', 'location': {'lat': 32.045012062925295, 'lng': 118.72388149355317}, 'address': '江苏省南京市鼓楼区江东街道清河新寓二村10号', 'province': '江苏省', 'city': '南京市', 'area': '鼓楼区', 'detail': 1, 'uid': '50a9cf1b97d11b7ef90cad1f', 'detail_info': {'tag': '丽人;美容', 'type': 'beauty', 'detail_url': 'http://api.map.baidu.com/place/detail?uid=50a9cf1b97d11b7ef90cad1f&output=html&source=placeapi_v2', 'children': [], 'lat': 32.045012062925295, 'lng': 118.72388149355317}}"
"{'name': '发现造型直营店', 'location': {'lat': 32.04908871842654, 'lng': 118.72683651094394}, 'address': '清凉门大街296号', 'province': '江苏省', 'city': '南京市', 'area': '鼓楼区', 'street_id': '51335bd39d508d51626858bc', 'detail': 1, 'uid': '51335bd39d508d51626858bc', 'detail_info': {'tag': '丽人;美发', 'type': 'beauty', 'detail_url': 'http://api.map.baidu.com/place/detail?uid=51335bd39d508d51626858bc&output=html&source=placeapi_v2', 'overall_rating': '3.0', 'comment_num': '5', 'children': [], 'lat': 32.04908871842654, 'lng': 118.72683651094394}}"
"{'name': 'Amshine希望护肤中心', 'location': {'lat': 32.03419707672107, 'lng': 118.71830046400517}, 'address': '集庆门大街268号苏宁慧谷E8-2栋2706室(苏宁慧谷E08-1栋1102)', 'province': '江苏省', 'city': '南京市', 'area': '鼓楼区', 'telephone': '17366337647,17888105341', 'detail': 1, 'uid': '2560ee56242f9cfb94031991', 'detail_info': {'tag': '丽人;美容', 'type': 'beauty', 'detail_url': 'http://api.map.baidu.com/place/detail?uid=2560ee56242f9cfb94031991&output=html&source=placeapi_v2', 'price': '440.0', 'children': [], 'lat': 32.03419707672107, 'lng': 118.71830046400517}}"
"{'name': 'WINGKONG茵康健康管理', 'location': {'lat': 32.03515849432384, 'lng': 118.71665594953988}, 'address': '江苏省南京市鼓楼区清河路288号苏宁睿城E07-2栋2705', 'province': '江苏省', 'city': '南京市', 'area': '鼓楼区', 'detail': 1, 'uid': '8589299ab4c08b8c704b878f', 'detail_info': {'tag': '丽人', 'type': 'beauty', 'detail_url': 'http://api.map.baidu.com/place/detail?uid=8589299ab4c08b8c704b878f&output=html&source=placeapi_v2', 'overall_rating': '0.0', 'comment_num': '1', 'children': [], 'lat': 32.03515849432384, 'lng': 118.71665594953988}}"
"{'name': 'lamelia皮肤管理身材管理', 'location': {'lat': 32.03368613946178, 'lng': 118.72668158882773}, 'address': '南京市鼓楼区集贤路与润江路交叉路口东侧(苏宁睿城银河国际街区)', 'province': '江苏省', 'city': '南京市', 'area': '鼓楼区', 'detail': 1, 'uid': '96d507682c93525cc61b7579', 'detail_info': {'tag': '丽人;美容', 'type': 'beauty', 'detail_url': 'http://api.map.baidu.com/place/detail?uid=96d507682c93525cc61b7579&output=html&source=placeapi_v2', 'children': [], 'lat': 32.03368613946178, 'lng': 118.72668158882773}}"
"{'name': '仙度(河西万达店)', 'location': {'lat': 32.033694732500564, 'lng': 118.72786237424032}, 'address': '集贤路7号', 'province': '江苏省', 'city': '南京市', 'area': '鼓楼区', 'street_id': 'ec8052814199d61238221ca6', 'detail': 1, 'uid': 'ec8052814199d61238221ca6', 'detail_info': {'tag': '丽人;美容', 'type': 'cater', 'detail_url': 'http://api.map.baidu.com/place/detail?uid=ec8052814199d61238221ca6&output=html&source=placeapi_v2', 'children': [], 'lat': 32.033694732500564, 'lng': 118.72786237424032}}"
"{'name': '花漾美作空间设计', 'location': {'lat': 32.0338561171967, 'lng': 118.71807792523384}, 'address': '苏宁慧谷E8-2栋1606室', 'province': '江苏省', 'city': '南京市', 'area': '鼓楼区', 'telephone': '(025)84400877', 'detail': 1, 'uid': 'd46557a59f5737f30782c204', 'detail_info': {'tag': '丽人', 'type': 'beauty', 'detail_url': 'http://api.map.baidu.com/place/detail?uid=d46557a59f5737f30782c204&output=html&source=placeapi_v2', 'children': [], 'lat': 32.0338561171967, 'lng': 118.71807792523384}}"
"{'name': '艳子美甲(苏宁环球商贸城店)', 'location': {'lat': 32.046669290924676, 'lng': 118.72481340087724}, 'address': '南京市鼓楼区清江路99号苏宁环球商贸城F1', 'province': '江苏省', 'city': '南京市', 'area': '鼓楼区', 'street_id': '7fcf6dff4201bf749222e01f', 'detail': 1, 'uid': '7fcf6dff4201bf749222e01f', 'detail_info': {'tag': '丽人;美甲', 'indoor_floor': 'F1', 'type': 'beauty', 'detail_url': 'http://api.map.baidu.com/place/detail?uid=7fcf6dff4201bf749222e01f&output=html&source=placeapi_v2', 'children': [], 'lat': 32.046669290924676, 'lng': 118.72481340087724}}"
"{'name': '超美美甲(苏宁环球商贸城店)', 'location': {'lat': 32.04668546393832, 'lng': 118.72471671318034}, 'address': '南京市鼓楼区清江路99号苏宁环球商贸城F1', 'province': '江苏省', 'city': '南京市', 'area': '鼓楼区', 'street_id': '27c8f71e2604dfcffda778b8', 'detail': 1, 'uid': '27c8f71e2604dfcffda778b8', 'detail_info': {'tag': '丽人;美甲', 'indoor_floor': 'F1', 'type': 'beauty', 'detail_url': 'http://api.map.baidu.com/place/detail?uid=27c8f71e2604dfcffda778b8&output=html&source=placeapi_v2', 'children': [], 'lat': 32.04668546393832, 'lng': 118.72471671318034}}"
"{'name': '歌曼丽专业减肥馆(清凉门大街店)', 'location': {'lat': 32.04906147970117, 'lng': 118.72773610350953}, 'address': '江苏省南京市鼓楼区清凉门大街160号附近', 'province': '江苏省', 'city': '南京市', 'area': '鼓楼区', 'street_id': '4b26f114c49a2388a1acc447', 'detail': 1, 'uid': '4b26f114c49a2388a1acc447', 'detail_info': {'tag': '丽人;美体', 'type': 'beauty', 'detail_url': 'http://api.map.baidu.com/place/detail?uid=4b26f114c49a2388a1acc447&output=html&source=placeapi_v2', 'children': [], 'lat': 32.04906147970117, 'lng': 118.72773610350953}}"
"{'name': '宗鑫耀盈刺青处', 'location': {'lat': 32.04192026260116, 'lng': 118.71795288164603}, 'address': '扬子江大道208号涵碧楼行馆1531', 'province': '江苏省', 'city': '南京市', 'area': '建邺区', 'detail': 1, 'uid': '15ca0d75c5e0dce85bf6be01', 'detail_info': {'tag': '丽人;其他', 'type': 'beauty', 'detail_url': 'http://api.map.baidu.com/place/detail?uid=15ca0d75c5e0dce85bf6be01&output=html&source=placeapi_v2', 'price': '0.0', 'overall_rating': '5.0', 'comment_num': '1', 'children': [], 'lat': 32.04192026260116, 'lng': 118.71795288164603}}"
"{'name': '东京艺剪发型设计', 'location': {'lat': 32.05538954704773, 'lng': 118.72485455752101}, 'address': '南京市鼓楼区银城花园20号101室', 'province': '江苏省', 'city': '南京市', 'area': '鼓楼区', 'street_id': '032199594d8ff161f4eafc39', 'telephone': '13951671912', 'detail': 1, 'uid': '032199594d8ff161f4eafc39', 'detail_info': {'tag': '丽人;美发', 'type': 'beauty', 'detail_url': 'http://api.map.baidu.com/place/detail?uid=032199594d8ff161f4eafc39&output=html&source=placeapi_v2', 'overall_rating': '0.0', 'children': [], 'lat': 32.05538954704773, 'lng': 118.72485455752101}}"
"{'name': '艺强发型', 'location': {'lat': 32.059323249774174, 'lng': 118.7266088495186}, 'address': '南京市鼓楼区草场门大街143号', 'province': '江苏省', 'city': '南京市', 'area': '鼓楼区', 'street_id': '5683f725caf418d11b94c61c', 'detail': 1, 'uid': '5683f725caf418d11b94c61c', 'detail_info': {'tag': '丽人;美发', 'navi_location': {'lng': 118.73854112697, 'lat': 32.06322724429}, 'type': 'beauty', 'detail_url': 'http://api.map.baidu.com/place/detail?uid=5683f725caf418d11b94c61c&output=html&source=placeapi_v2', 'overall_rating': '2.2', 'children': [], 'lat': 32.059323249774174, 'lng': 118.7266088495186}}"
"{'name': '前尚美发中心', 'location': {'lat': 32.05985404715355, 'lng': 118.72748204036688}, 'address': '草场门大街242号', 'province': '江苏省', 'city': '南京市', 'area': '鼓楼区', 'detail': 1, 'uid': 'ec7ae1a54c45e65e83a00c17', 'detail_info': {'tag': '丽人;美发', 'type': 'beauty', 'detail_url': 'http://api.map.baidu.com/place/detail?uid=ec7ae1a54c45e65e83a00c17&output=html&source=placeapi_v2', 'children': [], 'lat': 32.05985404715355, 'lng': 118.72748204036688}}"
"{'name': '真艺专业发型店', 'location': {'lat': 32.059277596212056, 'lng': 118.72651615326325}, 'address': '南京市鼓楼区草场门大街147号华保新寓北门', 'province': '江苏省', 'city': '南京市', 'area': '鼓楼区', 'street_id': '6fdfe09391a00b570869d9a6', 'detail': 1, 'uid': '6fdfe09391a00b570869d9a6', 'detail_info': {'tag': '丽人;美发', 'type': 'beauty', 'detail_url': 'http://api.map.baidu.com/place/detail?uid=6fdfe09391a00b570869d9a6&output=html&source=placeapi_v2', 'children': [], 'lat': 32.059277596212056, 'lng': 118.72651615326325}}"
"{'name': '王春美容SPA(江东中路店)', 'location': {'lat': 32.031888731828325, 'lng': 118.73486461976225}, 'address': '江苏省南京市建邺区江东中路87号', 'province': '江苏省', 'city': '南京市', 'area': '建邺区', 'street_id': 'eba597c90b902995ede4a527', 'telephone': '(025)83221871', 'detail': 1, 'uid': 'eba597c90b902995ede4a527', 'detail_info': {'tag': '丽人;美容', 'navi_location': {'lng': 118.74620016958, 'lat': 32.035361200536}, 'type': 'beauty', 'detail_url': 'http://api.map.baidu.com/place/detail?uid=eba597c90b902995ede4a527&output=html&source=placeapi_v2', 'price': '1792.0', 'overall_rating': '4.8', 'comment_num': '29', 'children': [], 'lat': 32.031888731828325, 'lng': 118.73486461976225}}"
"{'name': '佑米造型(德盈国际大厦店)', 'location': {'lat': 32.010517374193164, 'lng': 118.75948479462254}, 'address': '江苏省南京市雨花台区长虹路222号德盈国际大厦2幢5楼520室(虹悦城)', 'province': '江苏省', 'city': '南京市', 'area': '雨花台区', 'street_id': 'd9e8132d76e325b6a0acc42a', 'telephone': '13451518860', 'detail': 1, 'uid': 'd9e8132d76e325b6a0acc42a', 'detail_info': {'tag': '丽人;美发', 'type': 'beauty', 'detail_url': 'http://api.map.baidu.com/place/detail?uid=d9e8132d76e325b6a0acc42a&output=html&source=placeapi_v2', 'price': '95.0', 'overall_rating': '4.5', 'comment_num': '46', 'children': [], 'lat': 32.010517374193164, 'lng': 118.75948479462254}}"
"{'name': '美丽田园(虹悦城店)', 'location': {'lat': 32.01088539565457, 'lng': 118.7598346819406}, 'address': '南京市雨花台区应天大街619号虹悦城F1', 'province': '江苏省', 'city': '南京市', 'area': '雨花台区', 'street_id': '0a55642e39c6f22bacb22a37', 'telephone': '(025)86513029', 'detail': 1, 'uid': '0a55642e39c6f22bacb22a37', 'detail_info': {'tag': '丽人;美容', 'navi_location': {'lng': 118.77110761941, 'lat': 32.013585443651}, 'indoor_floor': 'F1', 'type': 'beauty', 'detail_url': 'http://api.map.baidu.com/place/detail?uid=0a55642e39c6f22bacb22a37&output=html&source=placeapi_v2', 'price': '301.0', 'overall_rating': '4.9', 'comment_num': '36', 'children': [], 'lat': 32.01088539565457, 'lng': 118.7598346819406}}"
"{'name': '唯美婷美容养生(万达店)', 'location': {'lat': 32.03138358231202, 'lng': 118.72958068626203}, 'address': '江苏省南京市建邺区集庆门大街224号', 'province': '江苏省', 'city': '南京市', 'area': '建邺区', 'detail': 1, 'uid': '4865bdec75433f1385420e02', 'detail_info': {'tag': '丽人;美容', 'type': 'beauty', 'detail_url': 'http://api.map.baidu.com/place/detail?uid=4865bdec75433f1385420e02&output=html&source=placeapi_v2', 'overall_rating': '5.0', 'comment_num': '2', 'children': [], 'lat': 32.03138358231202, 'lng': 118.72958068626203}}"
"{'name': '酷美体国际(长虹路店)', 'location': {'lat': 32.00613159155114, 'lng': 118.76089001776411}, 'address': '南京市雨花台区长虹路439号锦虹美苑2幢101西云寸公交车站旁(小区外门面房)', 'province': '江苏省', 'city': '南京市', 'area': '雨花台区', 'street_id': '5b30f2d3cf2df7aec5f50d5e', 'telephone': '(025)58017775,(025)58017772', 'detail': 1, 'uid': '5b30f2d3cf2df7aec5f50d5e', 'detail_info': {'tag': '丽人;美容', 'navi_location': {'lng': 118.77279019863, 'lat': 32.009828292987}, 'type': 'beauty', 'detail_url': 'http://api.map.baidu.com/place/detail?uid=5b30f2d3cf2df7aec5f50d5e&output=html&source=placeapi_v2', 'price': '104.0', 'overall_rating': '4.7', 'comment_num': '24', 'children': [], 'lat': 32.00613159155114, 'lng': 118.76089001776411}}"
"{'name': 'MAGI美界造型(虹悦城店)', 'location': {'lat': 32.01130462948191, 'lng': 118.76005687528462}, 'address': '南京市雨花台区应天大街619号虹悦城F3', 'province': '江苏省', 'city': '南京市', 'area': '雨花台区', 'street_id': 'd60596d8a83e1bbe17c8f621', 'telephone': '(025)52275900', 'detail': 1, 'uid': 'd60596d8a83e1bbe17c8f621', 'detail_info': {'tag': '丽人;美发', 'navi_location': {'lng': 118.77487886583, 'lat': 32.015365047147}, 'indoor_floor': 'F3', 'type': 'beauty', 'detail_url': 'http://api.map.baidu.com/place/detail?uid=d60596d8a83e1bbe17c8f621&output=html&source=placeapi_v2', 'price': '277.0', 'overall_rating': '4.6', 'comment_num': '37', 'children': [], 'lat': 32.01130462948191, 'lng': 118.76005687528462}}"
"{'name': '靓岛(利德花园店)', 'location': {'lat': 32.030652908995485, 'lng': 118.73633246140683}, 'address': '南京市建邺区集庆门大街198号', 'province': '江苏省', 'city': '南京市', 'area': '建邺区', 'street_id': 'a9d8ada21c73b26181a12e58', 'telephone': '(025)86405882', 'detail': 1, 'uid': 'a9d8ada21c73b26181a12e58', 'detail_info': {'tag': '丽人;美容', 'navi_location': {'lng': 118.74804300022, 'lat': 32.034217016741}, 'type': 'beauty', 'detail_url': 'http://api.map.baidu.com/place/detail?uid=a9d8ada21c73b26181a12e58&output=html&source=placeapi_v2', 'price': '122.0', 'overall_rating': '2.2', 'comment_num': '38', 'children': [], 'lat': 32.030652908995485, 'lng': 118.73633246140683}}"
"{'name': '魅力时美容美体SPA(江东中路店)', 'location': {'lat': 32.020354425620724, 'lng': 118.73106218103702}, 'address': '南京市建邺区江东中路150-1-A', 'province': '江苏省', 'city': '南京市', 'area': '建邺区', 'street_id': 'bfc356cbdd6ba9412bb97cdb', 'telephone': '(025)58850304', 'detail': 1, 'uid': 'bfc356cbdd6ba9412bb97cdb', 'detail_info': {'tag': '丽人;美容', 'navi_location': {'lng': 118.74300990763, 'lat': 32.024036287461}, 'type': 'beauty', 'detail_url': 'http://api.map.baidu.com/place/detail?uid=bfc356cbdd6ba9412bb97cdb&output=html&source=placeapi_v2', 'price': '200.0', 'overall_rating': '4.4', 'comment_num': '27', 'children': [], 'lat': 32.020354425620724, 'lng': 118.73106218103702}}"
"{'name': '头道汤养生馆(南京直营所街店)', 'location': {'lat': 32.0207832878548, 'lng': 118.74853247364632}, 'address': '江苏省南京市建邺区所街89号', 'province': '江苏省', 'city': '南京市', 'area': '建邺区', 'telephone': '(025)85382863', 'detail': 1, 'uid': '005429c027152f334251c06c', 'detail_info': {'tag': '丽人;美容', 'type': 'beauty', 'detail_url': 'http://api.map.baidu.com/place/detail?uid=005429c027152f334251c06c&output=html&source=placeapi_v2', 'overall_rating': '4.2', 'comment_num': '6', 'children': [], 'lat': 32.0207832878548, 'lng': 118.74853247364632}}"
"{'name': '苗坊净颜专业祛痘(云锦路店)', 'location': {'lat': 32.031841145977566, 'lng': 118.73777667247212}, 'address': '云锦路94-4号', 'province': '江苏省', 'city': '南京市', 'area': '建邺区', 'street_id': '678a50dcfb00639d31870a7e', 'telephone': '(025)52317443', 'detail': 1, 'uid': 'affae9254c99c80016a1902f', 'detail_info': {'tag': '丽人;美容', 'navi_location': {'lng': 118.74971396165, 'lat': 32.034821728536}, 'type': 'beauty', 'detail_url': 'http://api.map.baidu.com/place/detail?uid=affae9254c99c80016a1902f&output=html&source=placeapi_v2', 'price': '27.0', 'overall_rating': '4.9', 'comment_num': '13', 'children': [], 'lat': 32.031841145977566, 'lng': 118.73777667247212}}"
"{'name': '王氏果菜美容院(集庆门店)', 'location': {'lat': 32.023153624193725, 'lng': 118.75534138994891}, 'address': '南京市建邺区集庆门大街47-2', 'province': '江苏省', 'city': '南京市', 'area': '建邺区', 'street_id': 'e889a7443ab89bac8605bf4e', 'telephone': '(025)86410415,18761847622', 'detail': 1, 'uid': 'e889a7443ab89bac8605bf4e', 'detail_info': {'tag': '丽人;美容', 'type': 'beauty', 'detail_url': 'http://api.map.baidu.com/place/detail?uid=e889a7443ab89bac8605bf4e&output=html&source=placeapi_v2', 'price': '0.0', 'overall_rating': '1.6', 'comment_num': '26', 'children': [], 'lat': 32.023153624193725, 'lng': 118.75534138994891}}"
"{'name': '安黛尔五行养生美容会所(直营连锁云河路店)', 'location': {'lat': 32.024029279578954, 'lng': 118.75767947816848}, 'address': '集庆门云河路23号云河湾门面', 'province': '江苏省', 'city': '南京市', 'area': '建邺区', 'street_id': '477a6bb16a8b932496ca075a', 'telephone': '18252037084,(025)86411945', 'detail': 1, 'uid': '477a6bb16a8b932496ca075a', 'detail_info': {'tag': '丽人;美容', 'type': 'beauty', 'detail_url': 'http://api.map.baidu.com/place/detail?uid=477a6bb16a8b932496ca075a&output=html&source=placeapi_v2', 'price': '115.0', 'overall_rating': '4.4', 'comment_num': '7', 'children': [], 'lat': 32.024029279578954, 'lng': 118.75767947816848}}"
"{'name': '克丽缇娜(云锦路店)', 'location': {'lat': 32.02749053871369, 'lng': 118.73730435961369}, 'address': '江苏省南京市建邺区云锦路139号', 'province': '江苏省', 'city': '南京市', 'area': '建邺区', 'street_id': '816139e17b801fdaa4c75644', 'telephone': '(025)86627083', 'detail': 1, 'uid': '816139e17b801fdaa4c75644', 'detail_info': {'tag': '丽人;美容', 'type': 'beauty', 'detail_url': 'http://api.map.baidu.com/place/detail?uid=816139e17b801fdaa4c75644&output=html&source=placeapi_v2', 'price': '185.0', 'overall_rating': '5.0', 'comment_num': '7', 'children': [], 'lat': 32.02749053871369, 'lng': 118.73730435961369}}"
"{'name': '金陵美皮肤护理中心(涟城店)', 'location': {'lat': 32.01258750558472, 'lng': 118.75021621110064}, 'address': '南京市建邺区怡康街18号108', 'province': '江苏省', 'city': '南京市', 'area': '建邺区', 'street_id': '13737e9668104538ad0457e4', 'detail': 1, 'uid': '13737e9668104538ad0457e4', 'detail_info': {'tag': '丽人;美容', 'type': 'beauty', 'detail_url': 'http://api.map.baidu.com/place/detail?uid=13737e9668104538ad0457e4&output=html&source=placeapi_v2', 'overall_rating': '5.0', 'comment_num': '8', 'children': [], 'lat': 32.01258750558472, 'lng': 118.75021621110064}}"
"{'name': '艺之剪丽人国际(金鹰世界店)', 'location': {'lat': 32.02614070164275, 'lng': 118.73467968213176}, 'address': '江苏省南京市建邺区应天大街888号金鹰世界2层L230', 'province': '江苏省', 'city': '南京市', 'area': '建邺区', 'street_id': 'c4e9f2ac49c4bc7696ca075d', 'telephone': '(025)86613833', 'detail': 1, 'uid': 'c4e9f2ac49c4bc7696ca075d', 'detail_info': {'tag': '丽人;美发', 'navi_location': {'lng': 118.747273, 'lat': 32.027020015431}, 'type': 'beauty', 'detail_url': 'http://api.map.baidu.com/place/detail?uid=c4e9f2ac49c4bc7696ca075d&output=html&source=placeapi_v2', 'price': '289.0', 'comment_num': '47', 'children': [], 'lat': 32.02614070164275, 'lng': 118.73467968213176}}"
"{'name': '丹凤眼(万达店)', 'location': {'lat': 32.031390443284565, 'lng': 118.7305658118305}, 'address': '建邺区建邺万达西地2街区6号出口', 'province': '江苏省', 'city': '南京市', 'area': '建邺区', 'street_id': 'df7d700d17b81ca3eaf85349', 'telephone': '(025)86271077', 'detail': 1, 'uid': 'df7d700d17b81ca3eaf85349', 'detail_info': {'tag': '丽人;美容', 'navi_location': {'lng': 118.74243263315, 'lat': 32.034911712577}, 'type': 'beauty', 'detail_url': 'http://api.map.baidu.com/place/detail?uid=df7d700d17b81ca3eaf85349&output=html&source=placeapi_v2', 'price': '267.0', 'overall_rating': '3.1', 'comment_num': '11', 'children': [], 'lat': 32.031390443284565, 'lng': 118.7305658118305}}"
"{'name': '艾莎尼护肤造型会所', 'location': {'lat': 32.01270635442909, 'lng': 118.75082355486224}, 'address': '南京市建邺区怡康街与吉山路交叉路口往东南约100米(涟城北区西南侧)', 'province': '江苏省', 'city': '南京市', 'area': '建邺区', 'street_id': '2996a7c7496bf0a8e115f9eb', 'detail': 1, 'uid': '2996a7c7496bf0a8e115f9eb', 'detail_info': {'tag': '丽人;美容', 'type': 'beauty', 'detail_url': 'http://api.map.baidu.com/place/detail?uid=2996a7c7496bf0a8e115f9eb&output=html&source=placeapi_v2', 'overall_rating': '5.0', 'comment_num': '47', 'children': [], 'lat': 32.01270635442909, 'lng': 118.75082355486224}}"
"{'name': '蕾特恩专业祛痘(虹悦城店)', 'location': {'lat': 32.0110227009041, 'lng': 118.76004884335232}, 'address': '江苏省南京市雨花台区长虹路222号德盈广场1栋614室', 'province': '江苏省', 'city': '南京市', 'area': '雨花台区', 'detail': 1, 'uid': 'f93e874ca1efbf893ce23119', 'detail_info': {'tag': '丽人;美容', 'type': 'beauty', 'detail_url': 'http://api.map.baidu.com/place/detail?uid=f93e874ca1efbf893ce23119&output=html&source=placeapi_v2', 'overall_rating': '5.0', 'comment_num': '7', 'children': [], 'lat': 32.0110227009041, 'lng': 118.76004884335232}}"
"{'name': '所憶美发美甲美睫', 'location': {'lat': 32.02098364056923, 'lng': 118.74808887284286}, 'address': '南京市建邺区南苑街道所街107号', 'province': '江苏省', 'city': '南京市', 'area': '建邺区', 'street_id': '4e5efe570a6554345cbe8600', 'telephone': '18652035171,18751800054', 'detail': 1, 'uid': '4e5efe570a6554345cbe8600', 'detail_info': {'tag': '丽人;美容', 'type': 'beauty', 'detail_url': 'http://api.map.baidu.com/place/detail?uid=4e5efe570a6554345cbe8600&output=html&source=placeapi_v2', 'price': '223.0', 'overall_rating': '4.2', 'comment_num': '4', 'children': [], 'lat': 32.02098364056923, 'lng': 118.74808887284286}}"
"{'name': '格丽缇姿(集庆门总店)', 'location': {'lat': 32.02129497413242, 'lng': 118.75827627257706}, 'address': '集庆门大街21号', 'province': '江苏省', 'city': '南京市', 'area': '建邺区', 'street_id': 'a7062b20687938346d20b919', 'telephone': '18013309338', 'detail': 1, 'uid': 'a7062b20687938346d20b919', 'detail_info': {'tag': '丽人;美容', 'type': 'beauty', 'detail_url': 'http://api.map.baidu.com/place/detail?uid=a7062b20687938346d20b919&output=html&source=placeapi_v2', 'overall_rating': '4.9', 'comment_num': '10', 'children': [], 'lat': 32.02129497413242, 'lng': 118.75827627257706}}"
"{'name': 'DK潮牌全国连锁(河西万达店)', 'location': {'lat': 32.031877236040366, 'lng': 118.73189628842475}, 'address': '兴隆街道福园街133号万达广场万达中心g座1811室dk潮牌美发店', 'province': '江苏省', 'city': '南京市', 'area': '建邺区', 'telephone': '18351951564', 'detail': 1, 'uid': '7e2e570b7498d3651811d505', 'detail_info': {'tag': '购物;商铺', 'type': 'shopping', 'detail_url': 'http://api.map.baidu.com/place/detail?uid=7e2e570b7498d3651811d505&output=html&source=placeapi_v2', 'overall_rating': '4.5', 'comment_num': '21', 'children': [], 'lat': 32.031877236040366, 'lng': 118.73189628842475}}"
"{'name': '咪咪专业脱毛连锁机构(建邺万达店)', 'location': {'lat': 32.03155634445995, 'lng': 118.732458884271}, 'address': '江东中路102号河西万达广场D座', 'province': '江苏省', 'city': '南京市', 'area': '建邺区', 'telephone': '(025)83709591', 'detail': 1, 'uid': '7aea7025bb23c559abf72945', 'detail_info': {'tag': '丽人;美容', 'type': 'beauty', 'detail_url': 'http://api.map.baidu.com/place/detail?uid=7aea7025bb23c559abf72945&output=html&source=placeapi_v2', 'price': '89.0', 'overall_rating': '4.8', 'comment_num': '64', 'children': [], 'lat': 32.03155634445995, 'lng': 118.732458884271}}"
"{'name': 'HOMA荷玛彩妆造型馆', 'location': {'lat': 32.02791594318267, 'lng': 118.76652192898513}, 'address': '南京市秦淮区来凤街菱角市66号国家领军人物创业园39栋103号', 'province': '江苏省', 'city': '南京市', 'area': '秦淮区', 'street_id': '86e03db29e46bb1d25d2bbbd', 'telephone': '(025)86664970,(025)85512996', 'detail': 1, 'uid': '86e03db29e46bb1d25d2bbbd', 'detail_info': {'tag': '丽人;美发', 'type': 'beauty', 'detail_url': 'http://api.map.baidu.com/place/detail?uid=86e03db29e46bb1d25d2bbbd&output=html&source=placeapi_v2', 'price': '0.0', 'overall_rating': '5.0', 'comment_num': '39', 'children': [], 'lat': 32.02791594318267, 'lng': 118.76652192898513}}"
"{'name': '圣蒂芙(虹悦城店)', 'location': {'lat': 32.01160431737473, 'lng': 118.76110563388032}, 'address': '南京市雨花台区应天大街619号虹悦城F3', 'province': '江苏省', 'city': '南京市', 'area': '雨花台区', 'street_id': '26870f962fb22b197c29bd7a', 'telephone': '(025)52275820', 'detail': 1, 'uid': '26870f962fb22b197c29bd7a', 'detail_info': {'tag': '丽人;美容', 'navi_location': {'lng': 118.77406675184, 'lat': 32.014731989898}, 'indoor_floor': 'F3', 'type': 'beauty', 'detail_url': 'http://api.map.baidu.com/place/detail?uid=26870f962fb22b197c29bd7a&output=html&source=placeapi_v2', 'price': '190.0', 'overall_rating': '4.1', 'comment_num': '33', 'children': [], 'lat': 32.01160431737473, 'lng': 118.76110563388032}}"
"{'name': '任太太D.nail日式美甲美睫', 'location': {'lat': 32.029878337693816, 'lng': 118.7331956497252}, 'address': '江东中路118号德盈大厦14楼1406室', 'province': '江苏省', 'city': '南京市', 'area': '建邺区', 'street_id': 'cc64634dcd347c4aaf045766', 'telephone': '(025)52633349,17715296517,18602558933', 'detail': 1, 'uid': 'cc64634dcd347c4aaf045766', 'detail_info': {'tag': '丽人;美甲', 'navi_location': {'lng': 118.74550886061, 'lat': 32.033980378741}, 'type': 'beauty', 'detail_url': 'http://api.map.baidu.com/place/detail?uid=cc64634dcd347c4aaf045766&output=html&source=placeapi_v2', 'price': '301.0', 'overall_rating': '4.9', 'comment_num': '151', 'children': [], 'lat': 32.029878337693816, 'lng': 118.7331956497252}}"
"{'name': '言叶之庭皮肤管理(虹悦城店)', 'location': {'lat': 32.011355271418154, 'lng': 118.76076375408155}, 'address': '长虹路222号德盈国际广场2栋1217室虹悦城(近虹悦城商场)', 'province': '江苏省', 'city': '南京市', 'area': '雨花台区', 'detail': 1, 'uid': 'e1f604c36a0d957ae3110392', 'detail_info': {'tag': '丽人;美容', 'type': 'beauty', 'detail_url': 'http://api.map.baidu.com/place/detail?uid=e1f604c36a0d957ae3110392&output=html&source=placeapi_v2', 'price': '106.0', 'overall_rating': '4.9', 'comment_num': '131', 'children': [], 'lat': 32.011355271418154, 'lng': 118.76076375408155}}"
"{'name': '98·k美发salon(万达店)', 'location': {'lat': 32.03162378502767, 'lng': 118.73215619032331}, 'address': '福园街河西万达G座517室', 'province': '江苏省', 'city': '南京市', 'area': '建邺区', 'telephone': '17751753724,13305173729', 'detail': 1, 'uid': 'a7cfb1dae99ea2554bcc4a45', 'detail_info': {'tag': '丽人;美发', 'type': 'beauty', 'detail_url': 'http://api.map.baidu.com/place/detail?uid=a7cfb1dae99ea2554bcc4a45&output=html&source=placeapi_v2', 'price': '31.0', 'overall_rating': '4.9', 'comment_num': '36', 'children': [], 'lat': 32.03162378502767, 'lng': 118.73215619032331}}"
"{'name': '永琪美容美发(集庆门店)', 'location': {'lat': 32.02442233515226, 'lng': 118.75402636979408}, 'address': '江苏省南京市建邺区集庆门大街63', 'province': '江苏省', 'city': '南京市', 'area': '建邺区', 'street_id': 'd7fd2ad37cf4834d0accdd81', 'telephone': '15005161896', 'detail': 1, 'uid': 'd7fd2ad37cf4834d0accdd81', 'detail_info': {'tag': '丽人;美发', 'navi_location': {'lng': 118.76645087371, 'lat': 32.027954333289}, 'type': 'beauty', 'detail_url': 'http://api.map.baidu.com/place/detail?uid=d7fd2ad37cf4834d0accdd81&output=html&source=placeapi_v2', 'price': '238.0', 'overall_rating': '4.3', 'comment_num': '36', 'children': [], 'lat': 32.02442233515226, 'lng': 118.75402636979408}}"
"{'name': '巨诚护肤造型SPA(所街店)', 'location': {'lat': 32.020413198749246, 'lng': 118.75018664533779}, 'address': '江苏省南京市建邺区所街73号附近', 'province': '江苏省', 'city': '南京市', 'area': '建邺区', 'telephone': '(025)86669672', 'detail': 1, 'uid': 'f43cad4bdbd6d1c429fc489a', 'detail_info': {'tag': '丽人;美容', 'navi_location': {'lng': 118.7621186301, 'lat': 32.024268405007}, 'type': 'beauty', 'detail_url': 'http://api.map.baidu.com/place/detail?uid=f43cad4bdbd6d1c429fc489a&output=html&source=placeapi_v2', 'price': '249.0', 'overall_rating': '4.4', 'comment_num': '32', 'children': [], 'lat': 32.020413198749246, 'lng': 118.75018664533779}}"
"{'name': '星涛造型(长虹路店)', 'location': {'lat': 32.00664720089814, 'lng': 118.7604084657645}, 'address': '赛虹桥街道南京长虹路439号5-105', 'province': '江苏省', 'city': '南京市', 'area': '雨花台区', 'street_id': '2ced3bb2283c3d094d6d469c', 'telephone': '15195888914', 'detail': 1, 'uid': '2ced3bb2283c3d094d6d469c', 'detail_info': {'tag': '丽人;美发', 'type': 'beauty', 'detail_url': 'http://api.map.baidu.com/place/detail?uid=2ced3bb2283c3d094d6d469c&output=html&source=placeapi_v2', 'price': '28.0', 'overall_rating': '4.8', 'comment_num': '5', 'children': [], 'lat': 32.00664720089814, 'lng': 118.7604084657645}}"
"{'name': '华仔彩逸炫(应天大街店)', 'location': {'lat': 32.01854926727847, 'lng': 118.74593045984375}, 'address': '江苏省南京市建邺区应天大街799号', 'province': '江苏省', 'city': '南京市', 'area': '建邺区', 'street_id': '4cf8d24e02deede49df779af', 'telephone': '(025)86431330', 'detail': 1, 'uid': '4cf8d24e02deede49df779af', 'detail_info': {'tag': '丽人;美发', 'type': 'beauty', 'detail_url': 'http://api.map.baidu.com/place/detail?uid=4cf8d24e02deede49df779af&output=html&source=placeapi_v2', 'overall_rating': '3.4', 'comment_num': '18', 'children': [], 'lat': 32.01854926727847, 'lng': 118.74593045984375}}"
"{'name': '米兰造型(集庆门大街店)', 'location': {'lat': 32.02372484326178, 'lng': 118.75476226160022}, 'address': '南京市建邺区集庆门大街53-4', 'province': '江苏省', 'city': '南京市', 'area': '建邺区', 'street_id': 'fa03c37048f12b782cb17e95', 'telephone': '13770915916', 'detail': 1, 'uid': 'fa03c37048f12b782cb17e95', 'detail_info': {'tag': '丽人;美发', 'navi_location': {'lng': 118.76648239525, 'lat': 32.02759071846}, 'type': 'beauty', 'detail_url': 'http://api.map.baidu.com/place/detail?uid=fa03c37048f12b782cb17e95&output=html&source=placeapi_v2', 'price': '248.0', 'overall_rating': '4.8', 'comment_num': '51', 'children': [], 'lat': 32.02372484326178, 'lng': 118.75476226160022}}"
"{'name': '苗方清颜专业祛痘(雨花区店)', 'location': {'lat': 32.01053253467633, 'lng': 118.75947574570085}, 'address': '赛虹桥虹悦城德盈国际广场2幢615室', 'province': '江苏省', 'city': '南京市', 'area': '雨花台区', 'street_id': 'afef7d7574d0b3a07069d3d5', 'telephone': '18001592832,17749552169,(025)86456667', 'detail': 1, 'uid': 'afef7d7574d0b3a07069d3d5', 'detail_info': {'tag': '丽人;美容', 'type': 'beauty', 'detail_url': 'http://api.map.baidu.com/place/detail?uid=afef7d7574d0b3a07069d3d5&output=html&source=placeapi_v2', 'price': '114.0', 'overall_rating': '4.9', 'comment_num': '66', 'children': [], 'lat': 32.01053253467633, 'lng': 118.75947574570085}}"
"{'name': '云诺美阁', 'location': {'lat': 32.031832942215914, 'lng': 118.73223688947154}, 'address': '集庆门大街建邺万达g座1220', 'province': '江苏省', 'city': '南京市', 'area': '建邺区', 'telephone': '19951786813,15380405520', 'detail': 1, 'uid': '960cae04d6d5ef87fe0eb0fd', 'detail_info': {'tag': '丽人;美容', 'type': 'beauty', 'detail_url': 'http://api.map.baidu.com/place/detail?uid=960cae04d6d5ef87fe0eb0fd&output=html&source=placeapi_v2', 'price': '110.0', 'overall_rating': '4.9', 'comment_num': '16', 'children': [], 'lat': 32.031832942215914, 'lng': 118.73223688947154}}"
"{'name': '朴道美业', 'location': {'lat': 32.02132591720996, 'lng': 118.75822096572682}, 'address': '江苏省南京市建邺区集庆门大街23-2号', 'province': '江苏省', 'city': '南京市', 'area': '建邺区', 'street_id': 'd563e8ccb93c57457ec87657', 'telephone': '13222053634', 'detail': 1, 'uid': 'd563e8ccb93c57457ec87657', 'detail_info': {'tag': '丽人;美发', 'type': 'beauty', 'detail_url': 'http://api.map.baidu.com/place/detail?uid=d563e8ccb93c57457ec87657&output=html&source=placeapi_v2', 'overall_rating': '5.0', 'comment_num': '2', 'children': [], 'lat': 32.02132591720996, 'lng': 118.75822096572682}}"
"{'name': '剪·艺峰(应天大街店)', 'location': {'lat': 32.02178119316842, 'lng': 118.73873107940607}, 'address': '南京市建邺区应天大街855-1', 'province': '江苏省', 'city': '南京市', 'area': '建邺区', 'street_id': '38ce4846c250752ceb56fad3', 'detail': 1, 'uid': '38ce4846c250752ceb56fad3', 'detail_info': {'tag': '丽人;美发', 'type': 'beauty', 'detail_url': 'http://api.map.baidu.com/place/detail?uid=38ce4846c250752ceb56fad3&output=html&source=placeapi_v2', 'price': '29.0', 'overall_rating': '4.2', 'comment_num': '7', 'children': [], 'lat': 32.02178119316842, 'lng': 118.73873107940607}}"
"{'name': '莎蔓莉莎美容院(云河路店)', 'location': {'lat': 32.023984495915194, 'lng': 118.75837513005378}, 'address': '云河路11-4号', 'province': '江苏省', 'city': '南京市', 'area': '建邺区', 'street_id': '2c0bd6c5406cdcb343ab9aff', 'telephone': '(025)52365332', 'detail': 1, 'uid': '2c0bd6c5406cdcb343ab9aff', 'detail_info': {'tag': '丽人;美发', 'type': 'beauty', 'detail_url': 'http://api.map.baidu.com/place/detail?uid=2c0bd6c5406cdcb343ab9aff&output=html&source=placeapi_v2', 'overall_rating': '3.8', 'comment_num': '7', 'children': [], 'lat': 32.023984495915194, 'lng': 118.75837513005378}}"
"{'name': 'RE●韩国护肤美容', 'location': {'lat': 32.009703902164894, 'lng': 118.75949986488662}, 'address': '德盈广场2栋606室', 'province': '江苏省', 'city': '南京市', 'area': '雨花台区', 'street_id': '8835e3b9b9a007ccabf0cd62', 'detail': 1, 'uid': '8835e3b9b9a007ccabf0cd62', 'detail_info': {'tag': '丽人;美容', 'type': 'beauty', 'detail_url': 'http://api.map.baidu.com/place/detail?uid=8835e3b9b9a007ccabf0cd62&output=html&source=placeapi_v2', 'overall_rating': '5.0', 'comment_num': '21', 'children': [], 'lat': 32.009703902164894, 'lng': 118.75949986488662}}"
"{'name': 'tiya studio美甲美睫工作室', 'location': {'lat': 32.02658309244482, 'lng': 118.73618493565719}, 'address': '江苏省南京市建邺区所街116号乐基广场2号楼1104', 'province': '江苏省', 'city': '南京市', 'area': '建邺区', 'detail': 1, 'uid': '542bc8b6e6ba4713fa0cadf2', 'detail_info': {'tag': '丽人;美甲', 'type': 'beauty', 'detail_url': 'http://api.map.baidu.com/place/detail?uid=542bc8b6e6ba4713fa0cadf2&output=html&source=placeapi_v2', 'overall_rating': '5.0', 'comment_num': '2', 'children': [], 'lat': 32.02658309244482, 'lng': 118.73618493565719}}"
"{'name': '靓之堂美容养生中心', 'location': {'lat': 32.03162378502767, 'lng': 118.73215619032331}, 'address': '江东中路万达中心G座711室', 'province': '江苏省', 'city': '南京市', 'area': '建邺区', 'telephone': '18066048515', 'detail': 1, 'uid': 'cd709f54b08cffc932870a37', 'detail_info': {'tag': '丽人;美容', 'type': 'beauty', 'detail_url': 'http://api.map.baidu.com/place/detail?uid=cd709f54b08cffc932870a37&output=html&source=placeapi_v2', 'overall_rating': '4.7', 'comment_num': '67', 'children': [], 'lat': 32.03162378502767, 'lng': 118.73215619032331}}"
"{'name': '艺之剪专业美发沙龙(虹悦后街店)', 'location': {'lat': 32.010335625094854, 'lng': 118.75882928458412}, 'address': '长虹路415号虹悦谷2楼', 'province': '江苏省', 'city': '南京市', 'area': '雨花台区', 'street_id': 'fc2126030fc3035c17a19008', 'telephone': '(025)52360687', 'detail': 1, 'uid': 'fc2126030fc3035c17a19008', 'detail_info': {'tag': '丽人;美发', 'type': 'beauty', 'detail_url': 'http://api.map.baidu.com/place/detail?uid=fc2126030fc3035c17a19008&output=html&source=placeapi_v2', 'price': '166.0', 'overall_rating': '3.6', 'comment_num': '42', 'children': [], 'lat': 32.010335625094854, 'lng': 118.75882928458412}}"
"{'name': '克丽缇娜(万达西地店)', 'location': {'lat': 32.03170050483406, 'lng': 118.73058348673493}, 'address': '万达西地220-16号(星丽华府北大门,集庆门大街地铁出口)', 'province': '江苏省', 'city': '南京市', 'area': '建邺区', 'street_id': '12bf3fd2c48cb8e090114c94', 'telephone': '(025)86717177', 'detail': 1, 'uid': '12bf3fd2c48cb8e090114c94', 'detail_info': {'tag': '丽人;美容', 'type': 'beauty', 'detail_url': 'http://api.map.baidu.com/place/detail?uid=12bf3fd2c48cb8e090114c94&output=html&source=placeapi_v2', 'price': '98.0', 'overall_rating': '4.3', 'comment_num': '16', 'children': [], 'lat': 32.03170050483406, 'lng': 118.73058348673493}}"
"{'name': '盈玥高科皮肤美容管理中心', 'location': {'lat': 32.01043659707047, 'lng': 118.75935509653047}, 'address': '长虹路222号德盈国际广场2幢1214室(近虹悦城)', 'province': '江苏省', 'city': '南京市', 'area': '雨花台区', 'detail': 1, 'uid': '168f8a21ea4bf5ffc3364410', 'detail_info': {'tag': '丽人;美容', 'type': 'beauty', 'detail_url': 'http://api.map.baidu.com/place/detail?uid=168f8a21ea4bf5ffc3364410&output=html&source=placeapi_v2', 'price': '62.0', 'overall_rating': '5.0', 'comment_num': '2', 'children': [], 'lat': 32.01043659707047, 'lng': 118.75935509653047}}"
"{'name': '诗美诗格美容美体养生馆(南湖店)', 'location': {'lat': 32.03101685396678, 'lng': 118.75380495243355}, 'address': '南湖体育馆1楼22号(华世佳宝旁)', 'province': '江苏省', 'city': '南京市', 'area': '建邺区', 'street_id': 'ccb8b6fd2050f2396c476033', 'telephone': '15261452968', 'detail': 1, 'uid': 'ccb8b6fd2050f2396c476033', 'detail_info': {'tag': '丽人;美容', 'type': 'beauty', 'detail_url': 'http://api.map.baidu.com/place/detail?uid=ccb8b6fd2050f2396c476033&output=html&source=placeapi_v2', 'price': '340.0', 'overall_rating': '3.0', 'comment_num': '2', 'children': [], 'lat': 32.03101685396678, 'lng': 118.75380495243355}}"
"{'name': '美拉美容尊荣会所', 'location': {'lat': 32.01107983158122, 'lng': 118.75986986680142}, 'address': '南京市雨花台区长虹路222号德盈国际2栋302室', 'province': '江苏省', 'city': '南京市', 'area': '雨花台区', 'detail': 1, 'uid': '6898913dea397b95b917e77d', 'detail_info': {'tag': '丽人;美容', 'type': 'beauty', 'detail_url': 'http://api.map.baidu.com/place/detail?uid=6898913dea397b95b917e77d&output=html&source=placeapi_v2', 'price': '68.0', 'overall_rating': '4.6', 'comment_num': '43', 'children': [], 'lat': 32.01107983158122, 'lng': 118.75986986680142}}"
"{'name': '杰轩养生护肤', 'location': {'lat': 32.02340004694233, 'lng': 118.75519050757276}, 'address': '集庆门大街51号', 'province': '江苏省', 'city': '南京市', 'area': '建邺区', 'detail': 1, 'uid': 'ce13b25c6b230efe6f3e1b46', 'detail_info': {'tag': '丽人;美容', 'type': 'beauty', 'detail_url': 'http://api.map.baidu.com/place/detail?uid=ce13b25c6b230efe6f3e1b46&output=html&source=placeapi_v2', 'children': [], 'lat': 32.02340004694233, 'lng': 118.75519050757276}}"
"{'name': '美匠瘦身皮肤管理中心', 'location': {'lat': 32.01099783363937, 'lng': 118.75998348795748}, 'address': '虹悦路德盈国际广场1栋402室', 'province': '江苏省', 'city': '南京市', 'area': '雨花台区', 'detail': 1, 'uid': '13573707f532fdf0d6b74ed6', 'detail_info': {'tag': '丽人;美容', 'type': 'beauty', 'detail_url': 'http://api.map.baidu.com/place/detail?uid=13573707f532fdf0d6b74ed6&output=html&source=placeapi_v2', 'price': '130.0', 'overall_rating': '4.6', 'comment_num': '20', 'children': [], 'lat': 32.01099783363937, 'lng': 118.75998348795748}}"
"{'name': '澜慧儿美容护肤中心(乐基店)', 'location': {'lat': 32.02686537210802, 'lng': 118.73602872402218}, 'address': '所街116号乐基广场2栋803室', 'province': '江苏省', 'city': '南京市', 'area': '建邺区', 'detail': 1, 'uid': '12a52eaa3cd7aedebb17e7c3', 'detail_info': {'tag': '丽人;美容', 'type': 'beauty', 'detail_url': 'http://api.map.baidu.com/place/detail?uid=12a52eaa3cd7aedebb17e7c3&output=html&source=placeapi_v2', 'overall_rating': '4.0', 'comment_num': '1', 'children': [], 'lat': 32.02686537210802, 'lng': 118.73602872402218}}"
"{'name': '钟小猫的抗衰皮肤管理中心(河西店)', 'location': {'lat': 32.029460770091084, 'lng': 118.73378950974299}, 'address': '江东中路118号德盈大厦1404室', 'province': '江苏省', 'city': '南京市', 'area': '建邺区', 'street_id': '6b96d8f138a73f9460180951', 'detail': 1, 'uid': '6b96d8f138a73f9460180951', 'detail_info': {'tag': '丽人;美容', 'type': 'beauty', 'detail_url': 'http://api.map.baidu.com/place/detail?uid=6b96d8f138a73f9460180951&output=html&source=placeapi_v2', 'price': '144.0', 'overall_rating': '4.8', 'comment_num': '6', 'children': [], 'lat': 32.029460770091084, 'lng': 118.73378950974299}}"
"{'name': '永琪美容美发(应天大街店)', 'location': {'lat': 32.02112672022838, 'lng': 118.74007769987857}, 'address': '新城科技园应天大街849号', 'province': '江苏省', 'city': '南京市', 'area': '建邺区', 'street_id': 'e7e719da1053470557bfffae', 'telephone': '(025)83242889', 'detail': 1, 'uid': 'e7e719da1053470557bfffae', 'detail_info': {'tag': '丽人;美发', 'type': 'beauty', 'detail_url': 'http://api.map.baidu.com/place/detail?uid=e7e719da1053470557bfffae&output=html&source=placeapi_v2', 'overall_rating': '3.8', 'comment_num': '10', 'children': [], 'lat': 32.02112672022838, 'lng': 118.74007769987857}}"
"{'name': '佳期有约科技美肤(乐基广场店)', 'location': {'lat': 32.02668186967801, 'lng': 118.73630785595961}, 'address': '云锦路乐基广场1号楼507', 'province': '江苏省', 'city': '南京市', 'area': '建邺区', 'telephone': '13851408777', 'detail': 1, 'uid': 'c623836d21be672e932ca3f3', 'detail_info': {'tag': '丽人;美容', 'type': 'beauty', 'detail_url': 'http://api.map.baidu.com/place/detail?uid=c623836d21be672e932ca3f3&output=html&source=placeapi_v2', 'price': '289.0', 'overall_rating': '4.7', 'comment_num': '28', 'children': [], 'lat': 32.02668186967801, 'lng': 118.73630785595961}}"
"{'name': '聚爱卓月月子会所', 'location': {'lat': 32.03101213747229, 'lng': 118.7386009239761}, 'address': '集庆门大街188号', 'province': '江苏省', 'city': '南京市', 'area': '建邺区', 'street_id': 'fe86e2a5ca52c89f61685817', 'telephone': '(025)85319988', 'detail': 1, 'uid': 'fe86e2a5ca52c89f61685817', 'detail_info': {'tag': '丽人;其他', 'navi_location': {'lng': 118.75027627036, 'lat': 32.034043451132}, 'type': 'beauty', 'detail_url': 'http://api.map.baidu.com/place/detail?uid=fe86e2a5ca52c89f61685817&output=html&source=placeapi_v2', 'price': '0.0', 'comment_num': '51', 'children': [], 'lat': 32.03101213747229, 'lng': 118.7386009239761}}"
"{'name': '慧姿美容瘦身馆(集庆门大街店)', 'location': {'lat': 32.029559944474784, 'lng': 118.74048107405277}, 'address': '集庆门大街169-6号', 'province': '江苏省', 'city': '南京市', 'area': '建邺区', 'street_id': 'aae62da23535e7bfb320a82c', 'detail': 1, 'uid': 'aae62da23535e7bfb320a82c', 'detail_info': {'tag': '丽人;美容', 'type': 'beauty', 'detail_url': 'http://api.map.baidu.com/place/detail?uid=aae62da23535e7bfb320a82c&output=html&source=placeapi_v2', 'price': '247.0', 'overall_rating': '4.6', 'comment_num': '8', 'children': [], 'lat': 32.029559944474784, 'lng': 118.74048107405277}}"
"{'name': '她很漂亮韩国皮肤管理中心(乐基广场店)', 'location': {'lat': 32.0267258275292, 'lng': 118.73633082153772}, 'address': '所街116号乐基广场2号楼501室(金鹰世界北面对面)', 'province': '江苏省', 'city': '南京市', 'area': '建邺区', 'detail': 1, 'uid': 'e7912bc7be498b810c0a70c3', 'detail_info': {'tag': '丽人;美容', 'type': 'beauty', 'detail_url': 'http://api.map.baidu.com/place/detail?uid=e7912bc7be498b810c0a70c3&output=html&source=placeapi_v2', 'price': '266.0', 'overall_rating': '4.6', 'comment_num': '28', 'children': [], 'lat': 32.0267258275292, 'lng': 118.73633082153772}}"
"{'name': 'MENGYA&日式美甲美睫', 'location': {'lat': 32.01064722077254, 'lng': 118.75874081286693}, 'address': '长虹路222号德盈国际广场2栋606室', 'province': '江苏省', 'city': '南京市', 'area': '雨花台区', 'telephone': '13405849099', 'detail': 1, 'uid': '7fdc6802f05094a0a004645e', 'detail_info': {'tag': '丽人;美甲', 'type': 'beauty', 'detail_url': 'http://api.map.baidu.com/place/detail?uid=7fdc6802f05094a0a004645e&output=html&source=placeapi_v2', 'price': '289.0', 'overall_rating': '5.0', 'comment_num': '29', 'children': [], 'lat': 32.01064722077254, 'lng': 118.75874081286693}}"
"{'name': '欧文造型(集庆门店)', 'location': {'lat': 32.0211990237912, 'lng': 118.75961143136465}, 'address': '集庆门大街9号(国色天香美容院旁)', 'province': '江苏省', 'city': '南京市', 'area': '建邺区', 'street_id': '532bab489c00c97cadb22aa3', 'telephone': '17626043803', 'detail': 1, 'uid': '532bab489c00c97cadb22aa3', 'detail_info': {'tag': '丽人;美发', 'type': 'beauty', 'detail_url': 'http://api.map.baidu.com/place/detail?uid=532bab489c00c97cadb22aa3&output=html&source=placeapi_v2', 'price': '99.0', 'overall_rating': '5.0', 'comment_num': '21', 'children': [], 'lat': 32.0211990237912, 'lng': 118.75961143136465}}"
"{'name': '欧伶皮肤管理中心', 'location': {'lat': 32.03158634609951, 'lng': 118.73245985465347}, 'address': '江东中路110号万达广场D座3006-3007室', 'province': '江苏省', 'city': '南京市', 'area': '建邺区', 'telephone': '(025)58817580', 'detail': 1, 'uid': 'db1734296cd596ce9ff77971', 'detail_info': {'tag': '丽人;美容', 'type': 'beauty', 'detail_url': 'http://api.map.baidu.com/place/detail?uid=db1734296cd596ce9ff77971&output=html&source=placeapi_v2', 'price': '408.0', 'overall_rating': '5.0', 'comment_num': '9', 'children': [], 'lat': 32.03158634609951, 'lng': 118.73245985465347}}"
"{'name': '美诗美嘉(河西金鹰世界店)', 'location': {'lat': 32.02611169984206, 'lng': 118.73468070370562}, 'address': '江苏省南京市建邺区应天大街888号金鹰世界2层', 'province': '江苏省', 'city': '南京市', 'area': '建邺区', 'telephone': '(025)85632231', 'detail': 1, 'uid': '9610c2f2d8c9c938f942b246', 'detail_info': {'tag': '丽人;美容', 'type': 'beauty', 'detail_url': 'http://api.map.baidu.com/place/detail?uid=9610c2f2d8c9c938f942b246&output=html&source=placeapi_v2', 'price': '221.0', 'comment_num': '60', 'children': [], 'lat': 32.02611169984206, 'lng': 118.73468070370562}}"
"{'name': '亦芙祛痘·IF健康管理中心(乐基店)', 'location': {'lat': 32.02674290640472, 'lng': 118.73628980817595}, 'address': '云锦路乐基广场2号318室', 'province': '江苏省', 'city': '南京市', 'area': '建邺区', 'telephone': '13776652020', 'detail': 1, 'uid': '69af657ff758444b9900508b', 'detail_info': {'tag': '丽人;美容', 'type': 'beauty', 'detail_url': 'http://api.map.baidu.com/place/detail?uid=69af657ff758444b9900508b&output=html&source=placeapi_v2', 'overall_rating': '5.0', 'comment_num': '1', 'children': [], 'lat': 32.02674290640472, 'lng': 118.73628980817595}}"
"{'name': '魅力优雅养生美容', 'location': {'lat': 32.029925335194875, 'lng': 118.7331926104048}, 'address': '江东中路118号德盈大厦1815室', 'province': '江苏省', 'city': '南京市', 'area': '建邺区', 'detail': 1, 'uid': '30857e35a7332329c829154d', 'detail_info': {'tag': '丽人;美容', 'detail_url': 'http://api.map.baidu.com/place/detail?uid=30857e35a7332329c829154d&output=html&source=placeapi_v2', 'children': [], 'lat': 32.029925335194875, 'lng': 118.7331926104048}}"
"{'name': 'V Salon(金鹰店)', 'location': {'lat': 32.02584226477659, 'lng': 118.73530865400024}, 'address': '建邺区应天大街888号3楼317', 'province': '江苏省', 'city': '南京市', 'area': '建邺区', 'street_id': 'a75324bd796ccb0f40024500', 'telephone': '(025)86292980', 'detail': 1, 'uid': 'a75324bd796ccb0f40024500', 'detail_info': {'tag': '丽人;美发', 'type': 'beauty', 'detail_url': 'http://api.map.baidu.com/place/detail?uid=a75324bd796ccb0f40024500&output=html&source=placeapi_v2', 'price': '650.0', 'overall_rating': '4.8', 'comment_num': '87', 'children': [], 'lat': 32.02584226477659, 'lng': 118.73530865400024}}"
"{'name': '释美舍美容养生会所', 'location': {'lat': 32.02654300556914, 'lng': 118.73623196534683}, 'address': '云锦路169号乐基广场2号楼807', 'province': '江苏省', 'city': '南京市', 'area': '建邺区', 'detail': 1, 'uid': 'daaedc67b5c1a98f61685820', 'detail_info': {'tag': '丽人;美容', 'type': 'beauty', 'detail_url': 'http://api.map.baidu.com/place/detail?uid=daaedc67b5c1a98f61685820&output=html&source=placeapi_v2', 'overall_rating': '5.0', 'comment_num': '2', 'children': [], 'lat': 32.02654300556914, 'lng': 118.73623196534683}}"
"{'name': '展望发艺(所街店)', 'location': {'lat': 32.02020175436933, 'lng': 118.74983844122616}, 'address': '所街71号', 'province': '江苏省', 'city': '南京市', 'area': '建邺区', 'street_id': '447ce097b2450f9c6fa3cc30', 'telephone': '13390928173', 'detail': 1, 'uid': '447ce097b2450f9c6fa3cc30', 'detail_info': {'tag': '丽人;美发', 'navi_location': {'lng': 118.76175332967, 'lat': 32.024011292996}, 'type': 'beauty', 'detail_url': 'http://api.map.baidu.com/place/detail?uid=447ce097b2450f9c6fa3cc30&output=html&source=placeapi_v2', 'overall_rating': '4.0', 'comment_num': '4', 'children': [], 'lat': 32.02020175436933, 'lng': 118.74983844122616}}"
"{'name': '香港超妍美容SPA(南湖路店)', 'location': {'lat': 32.02310722671974, 'lng': 118.74682764434786}, 'address': '南湖路34号-3', 'province': '江苏省', 'city': '南京市', 'area': '建邺区', 'street_id': '0a46dc0f6be90e5e316212af', 'detail': 1, 'uid': '0a46dc0f6be90e5e316212af', 'detail_info': {'tag': '丽人;美容', 'navi_location': {'lng': 118.75874089718, 'lat': 32.026595372393}, 'type': 'beauty', 'detail_url': 'http://api.map.baidu.com/place/detail?uid=0a46dc0f6be90e5e316212af&output=html&source=placeapi_v2', 'price': '287.0', 'overall_rating': '3.5', 'comment_num': '5', 'children': [], 'lat': 32.02310722671974, 'lng': 118.74682764434786}}"
"{'name': '璟润养生·美容SPA(万达店)', 'location': {'lat': 32.03120975349693, 'lng': 118.73214060131113}, 'address': '集庆门大街万达广场D座2705室', 'province': '江苏省', 'city': '南京市', 'area': '建邺区', 'telephone': '(025)86816162', 'detail': 1, 'uid': '4a1d75bf927ea1cbd7b74e54', 'detail_info': {'tag': '丽人;美容', 'type': 'beauty', 'detail_url': 'http://api.map.baidu.com/place/detail?uid=4a1d75bf927ea1cbd7b74e54&output=html&source=placeapi_v2', 'price': '193.0', 'overall_rating': '4.9', 'comment_num': '54', 'children': [], 'lat': 32.03120975349693, 'lng': 118.73214060131113}}"
"{'name': 'DG STYLE蒂姬造型(河西万达店)', 'location': {'lat': 32.031886467046334, 'lng': 118.73200213865047}, 'address': '建邺区万达G座7楼718室(河西希尔顿酒店后面写字楼G座)', 'province': '江苏省', 'city': '南京市', 'area': '建邺区', 'street_id': '9b4c1307730baa26cb213d10', 'telephone': '15551028033,13913879388,15251718999', 'detail': 1, 'uid': '9b4c1307730baa26cb213d10', 'detail_info': {'tag': '丽人;美发', 'type': 'beauty', 'detail_url': 'http://api.map.baidu.com/place/detail?uid=9b4c1307730baa26cb213d10&output=html&source=placeapi_v2', 'price': '31.0', 'overall_rating': '4.9', 'comment_num': '33', 'children': [], 'lat': 32.031886467046334, 'lng': 118.73200213865047}}"
"{'name': '香境美甲', 'location': {'lat': 32.006605712876876, 'lng': 118.7606638643023}, 'address': '长虹南路439号锦虹美苑门面房5幢102室(亚东国际小区苏果超市正对面--过马路;宝合大酒店旁--北面)(虹悦城)', 'province': '江苏省', 'city': '南京市', 'area': '雨花台区', 'street_id': 'bffde91ff03564c1ce04ef72', 'telephone': '(025)83781668', 'detail': 1, 'uid': 'bffde91ff03564c1ce04ef72', 'detail_info': {'tag': '丽人;美甲', 'type': 'beauty', 'detail_url': 'http://api.map.baidu.com/place/detail?uid=bffde91ff03564c1ce04ef72&output=html&source=placeapi_v2', 'price': '66.0', 'overall_rating': '4.8', 'comment_num': '23', 'children': [], 'lat': 32.006605712876876, 'lng': 118.7606638643023}}"
"{'name': '千丝秀(嵩山路店)', 'location': {'lat': 32.01810091436909, 'lng': 118.74680616825025}, 'address': '应天大街791-13号', 'province': '江苏省', 'city': '南京市', 'area': '建邺区', 'street_id': 'e8277d3120cdf0290f0a70be', 'telephone': '18625184669', 'detail': 1, 'uid': 'e8277d3120cdf0290f0a70be', 'detail_info': {'tag': '丽人;美发', 'navi_location': {'lng': 118.7586212357, 'lat': 32.021957348442}, 'type': 'beauty', 'detail_url': 'http://api.map.baidu.com/place/detail?uid=e8277d3120cdf0290f0a70be&output=html&source=placeapi_v2', 'price': '90.0', 'overall_rating': '2.7', 'comment_num': '8', 'children': [], 'lat': 32.01810091436909, 'lng': 118.74680616825025}}"
"{'name': '帝景造型(欧洲城店)', 'location': {'lat': 32.013178671807054, 'lng': 118.73030780329573}, 'address': '南京市建邺区江东中路221-8号', 'province': '江苏省', 'city': '南京市', 'area': '建邺区', 'street_id': '9a48115d137b286feee4a5cd', 'telephone': '(025)86628298', 'detail': 1, 'uid': '9a48115d137b286feee4a5cd', 'detail_info': {'tag': '丽人;美发', 'type': 'beauty', 'detail_url': 'http://api.map.baidu.com/place/detail?uid=9a48115d137b286feee4a5cd&output=html&source=placeapi_v2', 'overall_rating': '4.0', 'comment_num': '31', 'children': [], 'lat': 32.013178671807054, 'lng': 118.73030780329573}}"
"{'name': '流行美(集庆门大街店)', 'location': {'lat': 32.0307385972336, 'lng': 118.73507261669927}, 'address': '江东南路63号苏宁电器1楼', 'province': '江苏省', 'city': '南京市', 'area': '建邺区', 'street_id': '3ea74eed2159af22250bd055', 'telephone': '13584017588', 'detail': 1, 'uid': '3ea74eed2159af22250bd055', 'detail_info': {'tag': '购物;商铺', 'navi_location': {'lng': 118.74693591503, 'lat': 32.034121201095}, 'type': 'shopping', 'detail_url': 'http://api.map.baidu.com/place/detail?uid=3ea74eed2159af22250bd055&output=html&source=placeapi_v2', 'overall_rating': '4.3', 'comment_num': '19', 'children': [], 'lat': 32.0307385972336, 'lng': 118.73507261669927}}"
"{'name': 'Yeah Studio 野原创美甲美睫工作室(乐基店)', 'location': {'lat': 32.02679891253796, 'lng': 118.73628776414263}, 'address': '所街116号乐基广场一期二栋一楼门店(金鹰天地我的咖啡旁)', 'province': '江苏省', 'city': '南京市', 'area': '建邺区', 'detail': 1, 'uid': 'b6700fba2d689d776c3e1bc0', 'detail_info': {'tag': '丽人;美甲', 'type': 'beauty', 'detail_url': 'http://api.map.baidu.com/place/detail?uid=b6700fba2d689d776c3e1bc0&output=html&source=placeapi_v2', 'price': '165.0', 'overall_rating': '4.8', 'comment_num': '15', 'children': [], 'lat': 32.02679891253796, 'lng': 118.73628776414263}}"
"{'name': '顶上秀造型(泰山路店)', 'location': {'lat': 32.01694961693611, 'lng': 118.74887130894271}, 'address': '泰山路1-5号', 'province': '江苏省', 'city': '南京市', 'area': '建邺区', 'street_id': '25ec69fcc0c1af64c36c149e', 'telephone': '18061496620', 'detail': 1, 'uid': '25ec69fcc0c1af64c36c149e', 'detail_info': {'tag': '丽人;美发', 'type': 'beauty', 'detail_url': 'http://api.map.baidu.com/place/detail?uid=25ec69fcc0c1af64c36c149e&output=html&source=placeapi_v2', 'price': '107.0', 'overall_rating': '2.0', 'comment_num': '7', 'children': [], 'lat': 32.01694961693611, 'lng': 118.74887130894271}}"
"{'name': '艺柏美业', 'location': {'lat': 32.031145185417955, 'lng': 118.74457916520228}, 'address': '湖西街94号', 'province': '江苏省', 'city': '南京市', 'area': '建邺区', 'detail': 1, 'uid': 'f4d5fdee62f1a4b7e50738d5', 'detail_info': {'tag': '丽人;其他', 'type': 'beauty', 'detail_url': 'http://api.map.baidu.com/place/detail?uid=f4d5fdee62f1a4b7e50738d5&output=html&source=placeapi_v2', 'overall_rating': '1.0', 'comment_num': '3', 'children': [], 'lat': 32.031145185417955, 'lng': 118.74457916520228}}"
"{'name': '南京木易刺青艺术设计工作室', 'location': {'lat': 32.011120173749255, 'lng': 118.75985076142108}, 'address': '德盈国际广场1幢410室', 'province': '江苏省', 'city': '南京市', 'area': '雨花台区', 'telephone': '18805198889', 'detail': 1, 'uid': 'e624190c03c53c52d81318d6', 'detail_info': {'tag': '丽人', 'type': 'beauty', 'detail_url': 'http://api.map.baidu.com/place/detail?uid=e624190c03c53c52d81318d6&output=html&source=placeapi_v2', 'price': '988.0', 'overall_rating': '5.0', 'comment_num': '9', 'children': [], 'lat': 32.011120173749255, 'lng': 118.75985076142108}}"
"{'name': '7号沙龙(庐山路店)', 'location': {'lat': 32.01977098318637, 'lng': 118.73821579729903}, 'address': '南京市建邺区兴达新寓2村1幢1单元', 'province': '江苏省', 'city': '南京市', 'area': '建邺区', 'street_id': '23d2cf7420c60b68306212e9', 'telephone': '13701470520', 'detail': 1, 'uid': 'b8235da38b6135f093114cca', 'detail_info': {'tag': '丽人;美发', 'type': 'beauty', 'detail_url': 'http://api.map.baidu.com/place/detail?uid=b8235da38b6135f093114cca&output=html&source=placeapi_v2', 'price': '50.0', 'overall_rating': '4.4', 'comment_num': '5', 'children': [], 'lat': 32.01977098318637, 'lng': 118.73821579729903}}"
"{'name': 'mary造型', 'location': {'lat': 32.02610272970854, 'lng': 118.75040283200796}, 'address': '集庆门大街宇园8栋102室', 'province': '江苏省', 'city': '南京市', 'area': '建邺区', 'street_id': '0f94706568fab90af50e773f', 'telephone': '13915988921', 'detail': 1, 'uid': '0f94706568fab90af50e773f', 'detail_info': {'tag': '丽人;美发', 'type': 'beauty', 'detail_url': 'http://api.map.baidu.com/place/detail?uid=0f94706568fab90af50e773f&output=html&source=placeapi_v2', 'price': '55.0', 'overall_rating': '5.0', 'comment_num': '2', 'children': [], 'lat': 32.02610272970854, 'lng': 118.75040283200796}}"
"{'name': '华仔·彩逸炫(怡康街直营店)', 'location': {'lat': 32.013204020821576, 'lng': 118.74878189654524}, 'address': '怡康街华隆新寓5幢1楼', 'province': '江苏省', 'city': '南京市', 'area': '建邺区', 'street_id': '4d2197de87a8748415c90576', 'detail': 1, 'uid': '4d2197de87a8748415c90576', 'detail_info': {'tag': '丽人;美发', 'navi_location': {'lng': 118.76054092266, 'lat': 32.016791922155}, 'type': 'beauty', 'detail_url': 'http://api.map.baidu.com/place/detail?uid=4d2197de87a8748415c90576&output=html&source=placeapi_v2', 'children': [], 'lat': 32.013204020821576, 'lng': 118.74878189654524}}"
"{'name': '露禾日式美甲美睫(河西万达店)', 'location': {'lat': 32.03156933760751, 'lng': 118.73245487665993}, 'address': '江东中路110号建邺河西万达写字楼D座15楼1512-B室', 'province': '江苏省', 'city': '南京市', 'area': '建邺区', 'telephone': '17798550869,(025)85751512,17751761512', 'detail': 1, 'uid': 'ca85c2cf3479ab57f6c59c68', 'detail_info': {'tag': '丽人;美甲', 'type': 'beauty', 'detail_url': 'http://api.map.baidu.com/place/detail?uid=ca85c2cf3479ab57f6c59c68&output=html&source=placeapi_v2', 'price': '285.0', 'overall_rating': '4.9', 'comment_num': '150', 'children': [], 'lat': 32.03156933760751, 'lng': 118.73245487665993}}"
"{'name': 'A-Z.NAIL.日式美甲美睫', 'location': {'lat': 32.0222247656261, 'lng': 118.7675963362204}, 'address': '江苏省南京市秦淮区来凤小区金粟庵路12号101室', 'province': '江苏省', 'city': '南京市', 'area': '秦淮区', 'street_id': '96e0a5c96ce414e6f119378f', 'telephone': '15365177202,13851650228', 'detail': 1, 'uid': '96e0a5c96ce414e6f119378f', 'detail_info': {'tag': '丽人;美甲', 'type': 'beauty', 'detail_url': 'http://api.map.baidu.com/place/detail?uid=96e0a5c96ce414e6f119378f&output=html&source=placeapi_v2', 'price': '77.0', 'overall_rating': '4.9', 'comment_num': '8', 'children': [], 'lat': 32.0222247656261, 'lng': 118.7675963362204}}"
"{'name': 'AprildaySalon美甲美睫美肤', 'location': {'lat': 32.010439563074165, 'lng': 118.7593571073356}, 'address': '德盈国际广场2栋421室', 'province': '江苏省', 'city': '南京市', 'area': '雨花台区', 'telephone': '18251959364,13814084551,(025)84481625,13851837049,15251877229,13770967424,18051089955,18795995376,18115621977', 'detail': 1, 'uid': '5ae2642f80bcde2746572682', 'detail_info': {'tag': '丽人;美容', 'type': 'beauty', 'detail_url': 'http://api.map.baidu.com/place/detail?uid=5ae2642f80bcde2746572682&output=html&source=placeapi_v2', 'price': '200.0', 'comment_num': '59', 'children': [], 'lat': 32.010439563074165, 'lng': 118.7593571073356}}"
"{'name': '展望美发', 'location': {'lat': 32.029433688476715, 'lng': 118.75315548215374}, 'address': '南京市建邺区南湖东路与文体西街交叉路口往南约50米(文体村)', 'province': '江苏省', 'city': '南京市', 'area': '建邺区', 'detail': 1, 'uid': 'ec54b59712d0c26015c90503', 'detail_info': {'tag': '丽人;美发', 'type': 'beauty', 'detail_url': 'http://api.map.baidu.com/place/detail?uid=ec54b59712d0c26015c90503&output=html&source=placeapi_v2', 'overall_rating': '3.0', 'comment_num': '1', 'children': [], 'lat': 32.029433688476715, 'lng': 118.75315548215374}}"
"{'name': '悠悦荟', 'location': {'lat': 32.019204320169855, 'lng': 118.73019623110136}, 'address': '江苏省南京市建邺区江东中路156-7号', 'province': '江苏省', 'city': '南京市', 'area': '建邺区', 'telephone': '(025)58351577', 'detail': 1, 'uid': 'be517c161836765c9de32120', 'detail_info': {'tag': '丽人;其他', 'type': 'beauty', 'detail_url': 'http://api.map.baidu.com/place/detail?uid=be517c161836765c9de32120&output=html&source=placeapi_v2', 'price': '192.0', 'overall_rating': '4.7', 'comment_num': '42', 'children': [], 'lat': 32.019204320169855, 'lng': 118.73019623110136}}"
"{'name': '原宿造型', 'location': {'lat': 32.02150873761865, 'lng': 118.74765817956336}, 'address': '江苏省南京市建邺区所街113号附近', 'province': '江苏省', 'city': '南京市', 'area': '建邺区', 'street_id': '0881cc2c77ab36581029358d', 'telephone': '15005151124', 'detail': 1, 'uid': '0881cc2c77ab36581029358d', 'detail_info': {'tag': '丽人;美发', 'type': 'beauty', 'detail_url': 'http://api.map.baidu.com/place/detail?uid=0881cc2c77ab36581029358d&output=html&source=placeapi_v2', 'overall_rating': '5.0', 'comment_num': '1', 'children': [], 'lat': 32.02150873761865, 'lng': 118.74765817956336}}"
"{'name': '艺把剪发型工作室', 'location': {'lat': 32.02628921683974, 'lng': 118.7534493914076}, 'address': '东升村3栋', 'province': '江苏省', 'city': '南京市', 'area': '建邺区', 'street_id': 'a2895cb9ee5181381f3894c3', 'telephone': '13851519914', 'detail': 1, 'uid': '7dcfe9cf0b6fd8510c0e6b38', 'detail_info': {'tag': '丽人;美发', 'type': 'beauty', 'detail_url': 'http://api.map.baidu.com/place/detail?uid=7dcfe9cf0b6fd8510c0e6b38&output=html&source=placeapi_v2', 'overall_rating': '4.0', 'comment_num': '3', 'children': [], 'lat': 32.02628921683974, 'lng': 118.7534493914076}}"
"{'name': '特美健康生活馆', 'location': {'lat': 32.022921187101694, 'lng': 118.76627115815619}, 'address': '南京市秦淮区五福街与来凤里交叉路口西南侧(南京夫子庙-秦淮风光带)', 'province': '江苏省', 'city': '南京市', 'area': '秦淮区', 'detail': 1, 'uid': 'b60dd6b0533921ef2d4733e5', 'detail_info': {'tag': '丽人;美容', 'type': 'beauty', 'detail_url': 'http://api.map.baidu.com/place/detail?uid=b60dd6b0533921ef2d4733e5&output=html&source=placeapi_v2', 'children': [], 'lat': 32.022921187101694, 'lng': 118.76627115815619}}"
"{'name': '艾美理念烫染', 'location': {'lat': 32.0199696602474, 'lng': 118.75103617792847}, 'address': '南苑街道所街道与文体路交口贡园11栋106', 'province': '江苏省', 'city': '南京市', 'area': '建邺区', 'street_id': '66fb14c843fb0330373a71b2', 'telephone': '18652004353', 'detail': 1, 'uid': '66fb14c843fb0330373a71b2', 'detail_info': {'tag': '丽人;美发', 'type': 'beauty', 'detail_url': 'http://api.map.baidu.com/place/detail?uid=66fb14c843fb0330373a71b2&output=html&source=placeapi_v2', 'price': '105.0', 'overall_rating': '3.8', 'comment_num': '11', 'children': [], 'lat': 32.0199696602474, 'lng': 118.75103617792847}}"
"{'name': '爱亿佳产后恢复中心', 'location': {'lat': 32.02997425778291, 'lng': 118.73311863775116}, 'address': '江东中路118号德盈大厦6层601室', 'province': '江苏省', 'city': '南京市', 'area': '建邺区', 'detail': 1, 'uid': 'fb968870268c543cae31e587', 'detail_info': {'tag': '丽人;美体', 'type': 'beauty', 'detail_url': 'http://api.map.baidu.com/place/detail?uid=fb968870268c543cae31e587&output=html&source=placeapi_v2', 'price': '0.0', 'overall_rating': '5.0', 'comment_num': '1', 'children': [], 'lat': 32.02997425778291, 'lng': 118.73311863775116}}"
"{'name': '瑞莲堂大美人', 'location': {'lat': 32.0208026351461, 'lng': 118.74095497971729}, 'address': '江苏省南京市建邺区苏建豪庭02幢(应天大街南)', 'province': '江苏省', 'city': '南京市', 'area': '建邺区', 'street_id': '22ce22d637aca52d441a324c', 'telephone': '13357729425', 'detail': 1, 'uid': '22ce22d637aca52d441a324c', 'detail_info': {'tag': '购物;其他', 'type': 'shopping', 'detail_url': 'http://api.map.baidu.com/place/detail?uid=22ce22d637aca52d441a324c&output=html&source=placeapi_v2', 'overall_rating': '4.1', 'comment_num': '10', 'children': [], 'lat': 32.0208026351461, 'lng': 118.74095497971729}}"
"{'name': '海燕时尚发型(凤栖路店)', 'location': {'lat': 32.03174760062602, 'lng': 118.73940388409957}, 'address': '凤栖路83号(近凤栖苑)', 'province': '江苏省', 'city': '南京市', 'area': '建邺区', 'street_id': '816ad2257f57ec3acd04effe', 'telephone': '13851854765', 'detail': 1, 'uid': '816ad2257f57ec3acd04effe', 'detail_info': {'tag': '丽人;美发', 'navi_location': {'lng': 118.75143344775, 'lat': 32.035188796462}, 'type': 'beauty', 'detail_url': 'http://api.map.baidu.com/place/detail?uid=816ad2257f57ec3acd04effe&output=html&source=placeapi_v2', 'price': '90.0', 'overall_rating': '4.9', 'comment_num': '11', 'children': [], 'lat': 32.03174760062602, 'lng': 118.73940388409957}}"
"{'name': '诗绮护肤造型', 'location': {'lat': 32.02217645233919, 'lng': 118.73787233216986}, 'address': '江苏省南京市建邺区应天大街881号附近', 'province': '江苏省', 'city': '南京市', 'area': '建邺区', 'street_id': 'ac7f36377287110b0f0a70bd', 'telephone': '13851780290', 'detail': 1, 'uid': 'ac7f36377287110b0f0a70bd', 'detail_info': {'tag': '丽人;美容', 'type': 'beauty', 'detail_url': 'http://api.map.baidu.com/place/detail?uid=ac7f36377287110b0f0a70bd&output=html&source=placeapi_v2', 'children': [], 'lat': 32.02217645233919, 'lng': 118.73787233216986}}"
"{'name': '瑧美丽科技美肤', 'location': {'lat': 32.011489048701335, 'lng': 118.75876289965146}, 'address': '虹悦城2栋509', 'province': '江苏省', 'city': '南京市', 'area': '雨花台区', 'telephone': '(025)66061819', 'detail': 1, 'uid': '5c3bf84e2099ba5d16764359', 'detail_info': {'tag': '丽人;美容', 'type': 'beauty', 'detail_url': 'http://api.map.baidu.com/place/detail?uid=5c3bf84e2099ba5d16764359&output=html&source=placeapi_v2', 'children': [], 'lat': 32.011489048701335, 'lng': 118.75876289965146}}"
"{'name': '你好Bubble皮肤管理中心', 'location': {'lat': 32.026815068251224, 'lng': 118.73620375316234}, 'address': '乐基广场2栋305室(金鹰天地广场正对面)', 'province': '江苏省', 'city': '南京市', 'area': '建邺区', 'detail': 1, 'uid': '21645e9e2e80ccd35e17c382', 'detail_info': {'tag': '丽人;美容', 'type': 'beauty', 'detail_url': 'http://api.map.baidu.com/place/detail?uid=21645e9e2e80ccd35e17c382&output=html&source=placeapi_v2', 'price': '290.0', 'children': [], 'lat': 32.026815068251224, 'lng': 118.73620375316234}}"
"{'name': '领袖美发', 'location': {'lat': 32.02074764131996, 'lng': 118.74938650070922}, 'address': '思园4幢103室', 'province': '江苏省', 'city': '南京市', 'area': '建邺区', 'street_id': 'e51e9ed6a2b2cbeec1f1cfba', 'telephone': '15895890656', 'detail': 1, 'uid': 'e51e9ed6a2b2cbeec1f1cfba', 'detail_info': {'tag': '丽人;美发', 'navi_location': {'lng': 118.76096126226, 'lat': 32.024363773086}, 'type': 'beauty', 'detail_url': 'http://api.map.baidu.com/place/detail?uid=e51e9ed6a2b2cbeec1f1cfba&output=html&source=placeapi_v2', 'price': '60.0', 'overall_rating': '3.3', 'comment_num': '8', 'children': [], 'lat': 32.02074764131996, 'lng': 118.74938650070922}}"
"{'name': '布布刺青', 'location': {'lat': 32.010515130416906, 'lng': 118.75938324755637}, 'address': '南京德盈国际广场2栋627', 'province': '江苏省', 'city': '南京市', 'area': '雨花台区', 'detail': 1, 'uid': 'dde3506961b3491d4afc8df6', 'detail_info': {'tag': '丽人;其他', 'type': 'beauty', 'detail_url': 'http://api.map.baidu.com/place/detail?uid=dde3506961b3491d4afc8df6&output=html&source=placeapi_v2', 'price': '70.0', 'overall_rating': '5.0', 'comment_num': '33', 'children': [], 'lat': 32.010515130416906, 'lng': 118.75938324755637}}"
"{'name': '花期科美(万达店)', 'location': {'lat': 32.03134958624844, 'lng': 118.72981624538879}, 'address': '江苏省南京市建邺区集庆门大街222-3', 'province': '江苏省', 'city': '南京市', 'area': '建邺区', 'telephone': '(025)86559323', 'detail': 1, 'uid': '40fb0a0aa19ba365cd04ef7e', 'detail_info': {'tag': '丽人;其他', 'type': 'beauty', 'detail_url': 'http://api.map.baidu.com/place/detail?uid=40fb0a0aa19ba365cd04ef7e&output=html&source=placeapi_v2', 'overall_rating': '0.0', 'comment_num': '1', 'children': [], 'lat': 32.03134958624844, 'lng': 118.72981624538879}}"
"{'name': '青睐专业祛斑', 'location': {'lat': 32.01048331353289, 'lng': 118.75937218825884}, 'address': '长虹路222号虹悦城德盈国际广场2栋', 'province': '江苏省', 'city': '南京市', 'area': '雨花台区', 'telephone': '13921415788,18752009518', 'detail': 1, 'uid': 'ccbeaf0224977830e6e9654a', 'detail_info': {'tag': '丽人;美容', 'type': 'beauty', 'detail_url': 'http://api.map.baidu.com/place/detail?uid=ccbeaf0224977830e6e9654a&output=html&source=placeapi_v2', 'children': [], 'lat': 32.01048331353289, 'lng': 118.75937218825884}}"
"{'name': 'BTF超透白(虹悦城店)', 'location': {'lat': 32.010443428387795, 'lng': 118.7587840441234}, 'address': '长虹路415号虹悦后街2楼', 'province': '江苏省', 'city': '南京市', 'area': '雨花台区', 'telephone': '14751061065,15905161637', 'detail': 1, 'uid': '341ad6323a4e9a3d3ce23104', 'detail_info': {'tag': '丽人;其他', 'type': 'beauty', 'detail_url': 'http://api.map.baidu.com/place/detail?uid=341ad6323a4e9a3d3ce23104&output=html&source=placeapi_v2', 'price': '151.0', 'comment_num': '70', 'children': [], 'lat': 32.010443428387795, 'lng': 118.7587840441234}}"
"{'name': 'ASIABEAUTE维美锶科技美学中心', 'location': {'lat': 32.026697102771955, 'lng': 118.73618184668685}, 'address': '莫愁湖街道所街116-2号乐基广场2号楼一楼商铺金鹰世界vamis维美锶精研修护中心', 'province': '江苏省', 'city': '南京市', 'area': '建邺区', 'telephone': '(025)66161889', 'detail': 1, 'uid': 'd2dba6ed5933773e6d20b921', 'detail_info': {'tag': '丽人;其他', 'type': 'beauty', 'detail_url': 'http://api.map.baidu.com/place/detail?uid=d2dba6ed5933773e6d20b921&output=html&source=placeapi_v2', 'price': '0.0', 'children': [], 'lat': 32.026697102771955, 'lng': 118.73618184668685}}"
"{'name': '丝域养发馆(涟城店)', 'location': {'lat': 32.01260496257125, 'lng': 118.75025736633069},