"{'name': '南京中国绿化博览园', 'location': {'lat': 32.021700052805095, 'lng': 118.70440597609462}, 'address': '江苏省南京建邺区扬子江大道228号', 'province': '江苏省', 'city': '南京市', 'area': '建邺区', 'street_id': 'eef2d52832b1cfdb3be4a655', 'telephone': '(025)86467521', 'detail': 1, 'uid': 'eef2d52832b1cfdb3be4a655', 'detail_info': {'tag': '旅游景点;植物园', 'navi_location': {'lng': 118.72034535239, 'lat': 32.029186869949}, 'type': 'scope', 'detail_url': 'http://api.map.baidu.com/place/detail?uid=eef2d52832b1cfdb3be4a655&output=html&source=placeapi_v2', 'overall_rating': '4.5', 'comment_num': '73', 'children': [], 'lat': 32.021700052805095, 'lng': 118.70440597609462}}"
"{'name': '荷兰园', 'location': {'lat': 32.0201370216764, 'lng': 118.7020993073366}, 'address': '南京市建邺区扬子江大道228号滨江公园南京中国绿化博览园内', 'province': '江苏省', 'city': '南京市', 'area': '建邺区', 'street_id': '847ec173519543ada1d230d0', 'detail': 1, 'uid': '847ec173519543ada1d230d0', 'detail_info': {'tag': '旅游景点;景点', 'navi_location': {'lng': 118.71463504166, 'lat': 32.023812452817}, 'type': 'scope', 'detail_url': 'http://api.map.baidu.com/place/detail?uid=847ec173519543ada1d230d0&output=html&source=placeapi_v2', 'overall_rating': '4.5', 'comment_num': '2', 'children': [], 'lat': 32.0201370216764, 'lng': 118.7020993073366}}"
"{'name': '左岸花海', 'location': {'lat': 32.01559118886778, 'lng': 118.70127067443062}, 'address': '南京市建邺区扬子江大道228号滨江公园内', 'province': '江苏省', 'city': '南京市', 'area': '建邺区', 'street_id': '1d756ce51a07808a2bd7ab58', 'detail': 1, 'uid': '1d756ce51a07808a2bd7ab58', 'detail_info': {'tag': '旅游景点;其他', 'type': 'scope', 'detail_url': 'http://api.map.baidu.com/place/detail?uid=1d756ce51a07808a2bd7ab58&output=html&source=placeapi_v2', 'overall_rating': '4.4', 'comment_num': '5', 'children': [], 'lat': 32.01559118886778, 'lng': 118.70127067443062}}"
"{'name': '绿色人居', 'location': {'lat': 32.02358170173434, 'lng': 118.70304790062865}, 'address': '南京市建邺区扬子江大道228号滨江公园南京中国绿化博览园内', 'province': '江苏省', 'city': '南京市', 'area': '建邺区', 'street_id': '6bba8e8d32b1f15eb64f54e9', 'detail': 1, 'uid': '6bba8e8d32b1f15eb64f54e9', 'detail_info': {'tag': '旅游景点;景点', 'type': 'scope', 'detail_url': 'http://api.map.baidu.com/place/detail?uid=6bba8e8d32b1f15eb64f54e9&output=html&source=placeapi_v2', 'overall_rating': '5.0', 'comment_num': '1', 'children': [], 'lat': 32.02358170173434, 'lng': 118.70304790062865}}"
"{'name': '滨江公园(扬子江大道)', 'location': {'lat': 32.012634120895186, 'lng': 118.71343552079539}, 'address': '南京市建邺区扬子江大道122号', 'province': '江苏省', 'city': '南京市', 'area': '建邺区', 'street_id': 'efd9d6d8cf721727ad31e57e', 'telephone': '(025)86467521', 'detail': 1, 'uid': 'efd9d6d8cf721727ad31e57e', 'detail_info': {'tag': '旅游景点;公园', 'navi_location': {'lng': 118.72579351602, 'lat': 32.016923686158}, 'type': 'scope', 'detail_url': 'http://api.map.baidu.com/place/detail?uid=efd9d6d8cf721727ad31e57e&output=html&source=placeapi_v2', 'overall_rating': '4.4', 'comment_num': '26', 'children': [], 'lat': 32.012634120895186, 'lng': 118.71343552079539}}"
"{'name': '南京市方志馆', 'location': {'lat': 32.016512677043735, 'lng': 118.71718677880364}, 'address': '南京市梦都大街168号', 'province': '江苏省', 'city': '南京市', 'area': '建邺区', 'street_id': '589007c0a0a7f4f4b35c6a7b', 'detail': 1, 'uid': '589007c0a0a7f4f4b35c6a7b', 'detail_info': {'tag': '旅游景点;景点', 'navi_location': {'lng': 118.7290877254, 'lat': 32.020547441327}, 'type': 'scope', 'detail_url': 'http://api.map.baidu.com/place/detail?uid=589007c0a0a7f4f4b35c6a7b&output=html&source=placeapi_v2', 'overall_rating': '3.3', 'comment_num': '3', 'children': [], 'lat': 32.016512677043735, 'lng': 118.71718677880364}}"
"{'name': '亲子沙趣园', 'location': {'lat': 32.02774759019534, 'lng': 118.70665370121033}, 'address': '南京市建邺区扬子江大道228号滨江公园南京中国绿化博览园内', 'province': '江苏省', 'city': '南京市', 'area': '建邺区', 'street_id': 'dc7c2121b9a5e8568d772732', 'detail': 1, 'uid': 'dc7c2121b9a5e8568d772732', 'detail_info': {'tag': '旅游景点;景点', 'navi_location': {'lng': 118.71972008145, 'lat': 32.028893218196}, 'type': 'scope', 'detail_url': 'http://api.map.baidu.com/place/detail?uid=dc7c2121b9a5e8568d772732&output=html&source=placeapi_v2', 'overall_rating': '4.0', 'comment_num': '2', 'children': [], 'lat': 32.02774759019534, 'lng': 118.70665370121033}}"
"{'name': '绿博园儿童游乐场', 'location': {'lat': 32.02692955459654, 'lng': 118.7052735271802}, 'address': '江苏省南京市建邺区扬子江大道228号滨江公园南京中国绿化博览园内', 'province': '江苏省', 'city': '南京市', 'area': '建邺区', 'street_id': '5b8d92abed96a3544bcc4a9d', 'detail': 1, 'uid': '5b8d92abed96a3544bcc4a9d', 'detail_info': {'tag': '旅游景点;游乐园', 'navi_location': {'lng': 118.71758964753, 'lat': 32.023339651527}, 'type': 'scope', 'detail_url': 'http://api.map.baidu.com/place/detail?uid=5b8d92abed96a3544bcc4a9d&output=html&source=placeapi_v2', 'overall_rating': '4.7', 'comment_num': '23', 'children': [], 'lat': 32.02692955459654, 'lng': 118.7052735271802}}"
"{'name': '荷兰风车', 'location': {'lat': 32.020129422158, 'lng': 118.7012430526581}, 'address': '南京市建邺区扬子江大道228号滨江公园南京中国绿化博览园荷兰园内', 'province': '江苏省', 'city': '南京市', 'area': '建邺区', 'street_id': 'ca5f2cdae2bddf4cb05c6acd', 'detail': 1, 'uid': 'ca5f2cdae2bddf4cb05c6acd', 'detail_info': {'tag': '旅游景点;景点', 'type': 'scope', 'detail_url': 'http://api.map.baidu.com/place/detail?uid=ca5f2cdae2bddf4cb05c6acd&output=html&source=placeapi_v2', 'overall_rating': '3.5', 'comment_num': '2', 'children': [], 'lat': 32.020129422158, 'lng': 118.7012430526581}}"
"{'name': '泉林竞秀', 'location': {'lat': 32.01524711025613, 'lng': 118.70434910640793}, 'address': '南京市建邺区扬子江大道228号滨江公园内', 'province': '江苏省', 'city': '南京市', 'area': '建邺区', 'street_id': 'f12ad763c9c956519d82ea24', 'detail': 1, 'uid': 'f12ad763c9c956519d82ea24', 'detail_info': {'tag': '旅游景点;景点', 'type': 'scope', 'detail_url': 'http://api.map.baidu.com/place/detail?uid=f12ad763c9c956519d82ea24&output=html&source=placeapi_v2', 'overall_rating': '5.0', 'comment_num': '1', 'children': [], 'lat': 32.01524711025613, 'lng': 118.70434910640793}}"
"{'name': '恐怖城', 'location': {'lat': 32.02740051439535, 'lng': 118.70515493392666}, 'address': '南京市建邺区扬子江大道228号滨江公园南京中国绿化博览园绿博园儿童游乐场内', 'province': '江苏省', 'city': '南京市', 'area': '建邺区', 'street_id': '44e6bdfe94ccc1d4931fc999', 'detail': 1, 'uid': '44e6bdfe94ccc1d4931fc999', 'detail_info': {'tag': '旅游景点;景点', 'type': 'scope', 'detail_url': 'http://api.map.baidu.com/place/detail?uid=44e6bdfe94ccc1d4931fc999&output=html&source=placeapi_v2', 'overall_rating': '0.0', 'comment_num': '4', 'children': [], 'lat': 32.02740051439535, 'lng': 118.70515493392666}}"
"{'name': '金鹰当代', 'location': {'lat': 32.0088562505969, 'lng': 118.7030573712357}, 'address': '南京市建邺区扬子江大道228号滨江公园内', 'province': '江苏省', 'city': '南京市', 'area': '建邺区', 'street_id': 'ba451c08c3f8beb846e274f4', 'detail': 1, 'uid': 'ba451c08c3f8beb846e274f4', 'detail_info': {'tag': '旅游景点;文物古迹', 'navi_location': {'lng': 118.71436092193, 'lat': 32.012703676082}, 'type': 'scope', 'detail_url': 'http://api.map.baidu.com/place/detail?uid=ba451c08c3f8beb846e274f4&output=html&source=placeapi_v2', 'overall_rating': '4.5', 'comment_num': '2', 'children': [], 'lat': 32.0088562505969, 'lng': 118.7030573712357}}"
"{'name': '姑苏园', 'location': {'lat': 32.022906393500925, 'lng': 118.70597080479739}, 'address': '南京市建邺区扬子江大道228号滨江公园南京中国绿化博览园内', 'province': '江苏省', 'city': '南京市', 'area': '建邺区', 'street_id': 'e7b1efc1c42883b6e8e58239', 'detail': 1, 'uid': 'e7b1efc1c42883b6e8e58239', 'detail_info': {'tag': '旅游景点;景点', 'type': 'scope', 'detail_url': 'http://api.map.baidu.com/place/detail?uid=e7b1efc1c42883b6e8e58239&output=html&source=placeapi_v2', 'overall_rating': '3.0', 'comment_num': '1', 'children': [], 'lat': 32.022906393500925, 'lng': 118.70597080479739}}"
"{'name': '江苏园', 'location': {'lat': 32.02317251037144, 'lng': 118.70574612546562}, 'address': '南京市建邺区扬子江大道228号滨江公园南京中国绿化博览园内', 'province': '江苏省', 'city': '南京市', 'area': '建邺区', 'street_id': '6b21018f16671959081cc7e6', 'detail': 1, 'uid': '6b21018f16671959081cc7e6', 'detail_info': {'tag': '旅游景点;景点', 'type': 'scope', 'detail_url': 'http://api.map.baidu.com/place/detail?uid=6b21018f16671959081cc7e6&output=html&source=placeapi_v2', 'overall_rating': '4.5', 'comment_num': '4', 'children': [], 'lat': 32.02317251037144, 'lng': 118.70574612546562}}"
"{'name': '基督教圣训堂', 'location': {'lat': 32.016057345688914, 'lng': 118.71209284626883}, 'address': '乐山路150号', 'province': '江苏省', 'city': '南京市', 'area': '建邺区', 'street_id': '1fff8b558cc1158cd8d89136', 'detail': 1, 'uid': '1fff8b558cc1158cd8d89136', 'detail_info': {'tag': '旅游景点;教堂', 'navi_location': {'lng': 118.72609540417, 'lat': 32.01848749329}, 'type': 'scope', 'detail_url': 'http://api.map.baidu.com/place/detail?uid=1fff8b558cc1158cd8d89136&output=html&source=placeapi_v2', 'overall_rating': '3.9', 'comment_num': '8', 'children': [], 'lat': 32.016057345688914, 'lng': 118.71209284626883}}"
"{'name': '滨江栈道', 'location': {'lat': 32.02346350571949, 'lng': 118.70199007878648}, 'address': '南京市建邺区扬子江大道228号滨江公园南京中国绿化博览园内', 'province': '江苏省', 'city': '南京市', 'area': '建邺区', 'detail': 1, 'uid': 'b237acae2a4f7eac03ff2d5c', 'detail_info': {'tag': '旅游景点;景点', 'type': 'scope', 'detail_url': 'http://api.map.baidu.com/place/detail?uid=b237acae2a4f7eac03ff2d5c&output=html&source=placeapi_v2', 'overall_rating': '0.0', 'children': [], 'lat': 32.02346350571949, 'lng': 118.70199007878648}}"
"{'name': '阳光草坪', 'location': {'lat': 32.022256266630144, 'lng': 118.70510497258249}, 'address': '南京市建邺区扬子江大道228号滨江公园南京中国绿化博览园内', 'province': '江苏省', 'city': '南京市', 'area': '建邺区', 'street_id': '0201fec912600d53abf0cdbe', 'detail': 1, 'uid': '0201fec912600d53abf0cdbe', 'detail_info': {'tag': '旅游景点;景点', 'type': 'scope', 'detail_url': 'http://api.map.baidu.com/place/detail?uid=0201fec912600d53abf0cdbe&output=html&source=placeapi_v2', 'overall_rating': '5.0', 'comment_num': '1', 'children': [], 'lat': 32.022256266630144, 'lng': 118.70510497258249}}"
"{'name': '绿博园沙滩', 'location': {'lat': 32.00872396267573, 'lng': 118.70298484825705}, 'address': '扬子江大道226号', 'province': '江苏省', 'city': '南京市', 'area': '建邺区', 'detail': 1, 'uid': '27bbfdda88093a282fb17ec3', 'detail_info': {'tag': '旅游景点', 'type': 'scope', 'detail_url': 'http://api.map.baidu.com/place/detail?uid=27bbfdda88093a282fb17ec3&output=html&source=placeapi_v2', 'overall_rating': '4.5', 'comment_num': '8', 'children': [], 'lat': 32.00872396267573, 'lng': 118.70298484825705}}"
"{'name': '侵华日军南京大屠杀上新河地区遇难同胞纪念碑', 'location': {'lat': 32.010328403738384, 'lng': 118.70058203774852}, 'address': '南京市建邺区太阳宫路(绿博园高尔夫会所北侧约150米)', 'province': '江苏省', 'city': '南京市', 'area': '建邺区', 'street_id': '7423ee2e9100ce174302458a', 'detail': 1, 'uid': '7423ee2e9100ce174302458a', 'detail_info': {'tag': '旅游景点;文物古迹', 'type': 'scope', 'detail_url': 'http://api.map.baidu.com/place/detail?uid=7423ee2e9100ce174302458a&output=html&source=placeapi_v2', 'children': [], 'lat': 32.010328403738384, 'lng': 118.70058203774852}}"
"{'name': '韩国园', 'location': {'lat': 32.02114593338898, 'lng': 118.70463277518513}, 'address': '南京市建邺区扬子江大道228号滨江公园南京中国绿化博览园内', 'province': '江苏省', 'city': '南京市', 'area': '建邺区', 'street_id': 'f1047429a7c712d3c9c3db4f', 'detail': 1, 'uid': 'f1047429a7c712d3c9c3db4f', 'detail_info': {'tag': '旅游景点;景点', 'type': 'scope', 'detail_url': 'http://api.map.baidu.com/place/detail?uid=f1047429a7c712d3c9c3db4f&output=html&source=placeapi_v2', 'overall_rating': '3.5', 'comment_num': '2', 'children': [], 'lat': 32.02114593338898, 'lng': 118.70463277518513}}"
"{'name': '江堤舞台', 'location': {'lat': 32.02517154802993, 'lng': 118.70504937839493}, 'address': '南京市建邺区扬子江大道228号滨江公园南京中国绿化博览园内', 'province': '江苏省', 'city': '南京市', 'area': '建邺区', 'street_id': 'd18b9c85f9a6df800f0e6b80', 'detail': 1, 'uid': 'd18b9c85f9a6df800f0e6b80', 'detail_info': {'tag': '旅游景点;景点', 'type': 'scope', 'detail_url': 'http://api.map.baidu.com/place/detail?uid=d18b9c85f9a6df800f0e6b80&output=html&source=placeapi_v2', 'overall_rating': '0.0', 'children': [], 'lat': 32.02517154802993, 'lng': 118.70504937839493}}"
"{'name': '农舍', 'location': {'lat': 32.02057040044874, 'lng': 118.70188452235978}, 'address': '南京市建邺区扬子江大道228号滨江公园南京中国绿化博览园荷兰园内', 'province': '江苏省', 'city': '南京市', 'area': '建邺区', 'street_id': '6d894d1ada40f7f9f90cad10', 'detail': 1, 'uid': '6d894d1ada40f7f9f90cad10', 'detail_info': {'tag': '旅游景点;景点', 'type': 'scope', 'detail_url': 'http://api.map.baidu.com/place/detail?uid=6d894d1ada40f7f9f90cad10&output=html&source=placeapi_v2', 'overall_rating': '3.0', 'comment_num': '2', 'children': [], 'lat': 32.02057040044874, 'lng': 118.70188452235978}}"
"{'name': '赣之韵', 'location': {'lat': 32.02035698203522, 'lng': 118.70504345644736}, 'address': '南京市建邺区扬子江大道228号滨江公园南京中国绿化博览园内', 'province': '江苏省', 'city': '南京市', 'area': '建邺区', 'street_id': '2029cc05adf267b7f603b8d5', 'detail': 1, 'uid': '2029cc05adf267b7f603b8d5', 'detail_info': {'tag': '旅游景点;景点', 'navi_location': {'lng': 118.71649338782, 'lat': 32.023929944702}, 'type': 'scope', 'detail_url': 'http://api.map.baidu.com/place/detail?uid=2029cc05adf267b7f603b8d5&output=html&source=placeapi_v2', 'overall_rating': '3.0', 'comment_num': '1', 'children': [], 'lat': 32.02035698203522, 'lng': 118.70504345644736}}"
"{'name': '野生动物观察站', 'location': {'lat': 32.02063557795687, 'lng': 118.70089412302251}, 'address': '南京市建邺区扬子江大道228号滨江公园南京中国绿化博览园内', 'province': '江苏省', 'city': '南京市', 'area': '建邺区', 'detail': 1, 'uid': '9294a63e709a48419de3215d', 'detail_info': {'tag': '旅游景点;景点', 'type': 'scope', 'detail_url': 'http://api.map.baidu.com/place/detail?uid=9294a63e709a48419de3215d&output=html&source=placeapi_v2', 'overall_rating': '3.0', 'comment_num': '1', 'children': [], 'lat': 32.02063557795687, 'lng': 118.70089412302251}}"
"{'name': '四季花海', 'location': {'lat': 32.026247358468254, 'lng': 118.7057816869219}, 'address': '扬子江大道228', 'province': '江苏省', 'city': '南京市', 'area': '建邺区', 'street_id': '7ded99ec135174110482c222', 'detail': 1, 'uid': '7ded99ec135174110482c222', 'detail_info': {'tag': '旅游景点;其他', 'navi_location': {'lng': 118.71974679436, 'lat': 32.02993532652}, 'type': 'scope', 'detail_url': 'http://api.map.baidu.com/place/detail?uid=7ded99ec135174110482c222&output=html&source=placeapi_v2', 'overall_rating': '0.0', 'children': [], 'lat': 32.026247358468254, 'lng': 118.7057816869219}}"
"{'name': '江苏省民防教育体验馆', 'location': {'lat': 32.02422295974414, 'lng': 118.71735397965313}, 'address': '江苏省南京市建邺区月安街51号', 'province': '江苏省', 'city': '南京市', 'area': '建邺区', 'street_id': '8055d71456cef2af3310af56', 'telephone': '(025)86339797', 'detail': 1, 'uid': '8055d71456cef2af3310af56', 'detail_info': {'tag': '文化传媒;展览馆', 'navi_location': {'lng': 118.729080194, 'lat': 32.028089484307}, 'type': 'enterprise', 'detail_url': 'http://api.map.baidu.com/place/detail?uid=8055d71456cef2af3310af56&output=html&source=placeapi_v2', 'overall_rating': '4.9', 'comment_num': '7', 'children': [], 'lat': 32.02422295974414, 'lng': 118.71735397965313}}"
"{'name': '七彩跑酷', 'location': {'lat': 32.029406068560924, 'lng': 118.70742817632052}, 'address': '扬子江大道228', 'province': '江苏省', 'city': '南京市', 'area': '建邺区', 'street_id': '90366fa2f98834c025d2bbd8', 'detail': 1, 'uid': '90366fa2f98834c025d2bbd8', 'detail_info': {'tag': '旅游景点;景点', 'navi_location': {'lng': 118.72079844871, 'lat': 32.033209525173}, 'type': 'scope', 'detail_url': 'http://api.map.baidu.com/place/detail?uid=90366fa2f98834c025d2bbd8&output=html&source=placeapi_v2', 'overall_rating': '0.0', 'children': [], 'lat': 32.029406068560924, 'lng': 118.70742817632052}}"
"{'name': '水车房', 'location': {'lat': 32.02078386261594, 'lng': 118.70173441446116}, 'address': '南京市建邺区扬子江大道228号滨江公园南京中国绿化博览园荷兰园内', 'province': '江苏省', 'city': '南京市', 'area': '建邺区', 'street_id': 'af52f2c1d99e523f364aae08', 'detail': 1, 'uid': 'af52f2c1d99e523f364aae08', 'detail_info': {'tag': '旅游景点;景点', 'navi_location': {'lng': 118.71413677584, 'lat': 32.023599916733}, 'type': 'scope', 'detail_url': 'http://api.map.baidu.com/place/detail?uid=af52f2c1d99e523f364aae08&output=html&source=placeapi_v2', 'overall_rating': '3.0', 'comment_num': '1', 'children': [], 'lat': 32.02078386261594, 'lng': 118.70173441446116}}"
"{'name': '南京碧瑶感恩圣母堂', 'location': {'lat': 32.00806941204451, 'lng': 118.70832927796238}, 'address': '南京市建邺区楠溪江西街(碧瑶花园)', 'province': '江苏省', 'city': '南京市', 'area': '建邺区', 'street_id': '9eb3fb9720a1d41c9cf779e9', 'telephone': '(025)83738393', 'detail': 1, 'uid': '9eb3fb9720a1d41c9cf779e9', 'detail_info': {'tag': '旅游景点;教堂', 'navi_location': {'lng': 118.71984700843, 'lat': 32.012205370874}, 'type': 'scope', 'detail_url': 'http://api.map.baidu.com/place/detail?uid=9eb3fb9720a1d41c9cf779e9&output=html&source=placeapi_v2', 'overall_rating': '5.0', 'comment_num': '2', 'children': [], 'lat': 32.00806941204451, 'lng': 118.70832927796238}}"
"{'name': '乐山路人口文化园', 'location': {'lat': 32.00871605167373, 'lng': 118.71150421780635}, 'address': '奥体大街199附近', 'province': '江苏省', 'city': '南京市', 'area': '建邺区', 'street_id': 'c3d79ff6ecbd0b194d776e9b', 'detail': 1, 'uid': 'c3d79ff6ecbd0b194d776e9b', 'detail_info': {'tag': '旅游景点;其他', 'navi_location': {'lng': 118.72342696339, 'lat': 32.012632781509}, 'type': 'scope', 'detail_url': 'http://api.map.baidu.com/place/detail?uid=c3d79ff6ecbd0b194d776e9b&output=html&source=placeapi_v2', 'overall_rating': '0.0', 'comment_num': '1', 'children': [], 'lat': 32.00871605167373, 'lng': 118.71150421780635}}"
"{'name': '埃及园', 'location': {'lat': 32.01985005559997, 'lng': 118.70493642853029}, 'address': '南京市建邺区扬子江大道228号滨江公园南京中国绿化博览园内', 'province': '江苏省', 'city': '南京市', 'area': '建邺区', 'street_id': '4b36b596d89420c89d9d68c1', 'detail': 1, 'uid': '4b36b596d89420c89d9d68c1', 'detail_info': {'tag': '旅游景点;景点', 'type': 'scope', 'detail_url': 'http://api.map.baidu.com/place/detail?uid=4b36b596d89420c89d9d68c1&output=html&source=placeapi_v2', 'overall_rating': '3.0', 'comment_num': '1', 'children': [], 'lat': 32.01985005559997, 'lng': 118.70493642853029}}"
"{'name': '休闲木屋区', 'location': {'lat': 32.02096776744968, 'lng': 118.70416401159082}, 'address': '扬子江大道228', 'province': '江苏省', 'city': '南京市', 'area': '建邺区', 'street_id': '11d82ad95f4b53d3d03ce3b6', 'detail': 1, 'uid': '11d82ad95f4b53d3d03ce3b6', 'detail_info': {'tag': '旅游景点;景点', 'navi_location': {'lng': 118.71527440881, 'lat': 32.024264650043}, 'type': 'scope', 'detail_url': 'http://api.map.baidu.com/place/detail?uid=11d82ad95f4b53d3d03ce3b6&output=html&source=placeapi_v2', 'overall_rating': '3.0', 'comment_num': '1', 'children': [], 'lat': 32.02096776744968, 'lng': 118.70416401159082}}"
"{'name': '沈阳园', 'location': {'lat': 32.02218102261947, 'lng': 118.70606860710355}, 'address': '南京市建邺区扬子江大道228号滨江公园南京中国绿化博览园内', 'province': '江苏省', 'city': '南京市', 'area': '建邺区', 'street_id': '37d9746f0da835c5018972b1', 'detail': 1, 'uid': '37d9746f0da835c5018972b1', 'detail_info': {'tag': '旅游景点;景点', 'type': 'scope', 'detail_url': 'http://api.map.baidu.com/place/detail?uid=37d9746f0da835c5018972b1&output=html&source=placeapi_v2', 'overall_rating': '3.0', 'comment_num': '1', 'children': [], 'lat': 32.02218102261947, 'lng': 118.70606860710355}}"
"{'name': '钟春园', 'location': {'lat': 32.02228093132647, 'lng': 118.70485562226912}, 'address': '南京市建邺区扬子江大道228号滨江公园南京中国绿化博览园内', 'province': '江苏省', 'city': '南京市', 'area': '建邺区', 'street_id': '89a150cbab6c565cad0457ed', 'detail': 1, 'uid': '89a150cbab6c565cad0457ed', 'detail_info': {'tag': '旅游景点;景点', 'type': 'scope', 'detail_url': 'http://api.map.baidu.com/place/detail?uid=89a150cbab6c565cad0457ed&output=html&source=placeapi_v2', 'children': [], 'lat': 32.02228093132647, 'lng': 118.70485562226912}}"
"{'name': '贵州屯堡', 'location': {'lat': 32.022598052698065, 'lng': 118.70503324030538}, 'address': '南京市建邺区扬子江大道228号滨江公园南京中国绿化博览园内', 'province': '江苏省', 'city': '南京市', 'area': '建邺区', 'street_id': '3685ceb9d1cb94bca0acc464', 'detail': 1, 'uid': '3685ceb9d1cb94bca0acc464', 'detail_info': {'tag': '旅游景点;景点', 'navi_location': {'lng': 118.71812622966, 'lat': 32.026045370328}, 'type': 'scope', 'detail_url': 'http://api.map.baidu.com/place/detail?uid=3685ceb9d1cb94bca0acc464&output=html&source=placeapi_v2', 'overall_rating': '0.0', 'children': [], 'lat': 32.022598052698065, 'lng': 118.70503324030538}}"
"{'name': '植物迷宫', 'location': {'lat': 32.0262085572482, 'lng': 118.70481614979818}, 'address': '南京市建邺区扬子江大道228号滨江公园南京中国绿化博览园内', 'province': '江苏省', 'city': '南京市', 'area': '建邺区', 'street_id': '7183d890df8d34bef503b88b', 'detail': 1, 'uid': '7183d890df8d34bef503b88b', 'detail_info': {'tag': '旅游景点;景点', 'type': 'scope', 'detail_url': 'http://api.map.baidu.com/place/detail?uid=7183d890df8d34bef503b88b&output=html&source=placeapi_v2', 'children': [], 'lat': 32.0262085572482, 'lng': 118.70481614979818}}"
"{'name': '王汉洲故居', 'location': {'lat': 32.02834308253289, 'lng': 118.71691508834778}, 'address': '江苏省南京市建邺区河北大街83号', 'province': '江苏省', 'city': '南京市', 'area': '建邺区', 'detail': 1, 'uid': '46cdd9762e8a5cb740e1929f', 'detail_info': {'tag': '旅游景点;文物古迹', 'type': 'scope', 'detail_url': 'http://api.map.baidu.com/place/detail?uid=46cdd9762e8a5cb740e1929f&output=html&source=placeapi_v2', 'overall_rating': '0.0', 'children': [], 'lat': 32.02834308253289, 'lng': 118.71691508834778}}"
"{'name': '内蒙古园', 'location': {'lat': 32.022015290196045, 'lng': 118.70441771109803}, 'address': '南京市建邺区扬子江大道228号滨江公园南京中国绿化博览园内', 'province': '江苏省', 'city': '南京市', 'area': '建邺区', 'street_id': '64ca3123ecec41414054d75d', 'detail': 1, 'uid': '64ca3123ecec41414054d75d', 'detail_info': {'tag': '旅游景点;景点', 'type': 'scope', 'detail_url': 'http://api.map.baidu.com/place/detail?uid=64ca3123ecec41414054d75d&output=html&source=placeapi_v2', 'overall_rating': '3.0', 'comment_num': '1', 'children': [], 'lat': 32.022015290196045, 'lng': 118.70441771109803}}"
"{'name': '全球汉诗大会', 'location': {'lat': 32.0151916122506, 'lng': 118.702062471037}, 'address': '南京市建邺区扬子江大道228号滨江公园内', 'province': '江苏省', 'city': '南京市', 'area': '建邺区', 'street_id': '50d954b6e58e797cbbbd6375', 'detail': 1, 'uid': '50d954b6e58e797cbbbd6375', 'detail_info': {'tag': '旅游景点;景点', 'type': 'scope', 'detail_url': 'http://api.map.baidu.com/place/detail?uid=50d954b6e58e797cbbbd6375&output=html&source=placeapi_v2', 'overall_rating': '0.0', 'children': [], 'lat': 32.0151916122506, 'lng': 118.702062471037}}"
"{'name': '小蜜蜂', 'location': {'lat': 32.02703225704746, 'lng': 118.70508370969168}, 'address': '南京市建邺区扬子江大道228号滨江公园南京中国绿化博览园绿博园儿童游乐场内', 'province': '江苏省', 'city': '南京市', 'area': '建邺区', 'telephone': '18795983893', 'detail': 1, 'uid': 'fe1ccdda4d929bd4c4f50d7d', 'detail_info': {'tag': '旅游景点;景点', 'type': 'scope', 'detail_url': 'http://api.map.baidu.com/place/detail?uid=fe1ccdda4d929bd4c4f50d7d&output=html&source=placeapi_v2', 'overall_rating': '5.0', 'comment_num': '1', 'children': [], 'lat': 32.02703225704746, 'lng': 118.70508370969168}}"
"{'name': '北京园', 'location': {'lat': 32.023573405772105, 'lng': 118.70688929617835}, 'address': '南京市建邺区扬子江大道228号滨江公园南京中国绿化博览园内', 'province': '江苏省', 'city': '南京市', 'area': '建邺区', 'street_id': '3a6ef132f52a2b27c51e5131', 'detail': 1, 'uid': '3a6ef132f52a2b27c51e5131', 'detail_info': {'tag': '旅游景点;景点', 'type': 'scope', 'detail_url': 'http://api.map.baidu.com/place/detail?uid=3a6ef132f52a2b27c51e5131&output=html&source=placeapi_v2', 'overall_rating': '3.0', 'comment_num': '1', 'children': [], 'lat': 32.023573405772105, 'lng': 118.70688929617835}}"
"{'name': '观光小火车地铁广场停车点', 'location': {'lat': 32.02729232999403, 'lng': 118.70779558506648}, 'address': '南京市建邺区扬子江大道228号滨江公园南京中国绿化博览园内', 'province': '江苏省', 'city': '南京市', 'area': '建邺区', 'street_id': 'e3ceaaa296fc90a0fda778bc', 'detail': 1, 'uid': 'e3ceaaa296fc90a0fda778bc', 'detail_info': {'tag': '旅游景点;景点', 'type': 'scope', 'detail_url': 'http://api.map.baidu.com/place/detail?uid=e3ceaaa296fc90a0fda778bc&output=html&source=placeapi_v2', 'overall_rating': '0.0', 'children': [], 'lat': 32.02729232999403, 'lng': 118.70779558506648}}"
"{'name': '激流勇进', 'location': {'lat': 32.027152597372556, 'lng': 118.7052753344454}, 'address': '南京市建邺区扬子江大道228号滨江公园南京中国绿化博览园绿博园儿童游乐场内', 'province': '江苏省', 'city': '南京市', 'area': '建邺区', 'street_id': 'bf41d4752db4fc00e01103bc', 'detail': 1, 'uid': 'bf41d4752db4fc00e01103bc', 'detail_info': {'tag': '旅游景点;景点', 'navi_location': {'lng': 118.71974679436, 'lat': 32.02993532652}, 'type': 'scope', 'detail_url': 'http://api.map.baidu.com/place/detail?uid=bf41d4752db4fc00e01103bc&output=html&source=placeapi_v2', 'children': [], 'lat': 32.027152597372556, 'lng': 118.7052753344454}}"
"{'name': '芜湖园', 'location': {'lat': 32.023604622842925, 'lng': 118.70517563847798}, 'address': '南京市建邺区扬子江大道228号滨江公园南京中国绿化博览园内', 'province': '江苏省', 'city': '南京市', 'area': '建邺区', 'street_id': '9f4981f8bc728839128824a8', 'detail': 1, 'uid': '9f4981f8bc728839128824a8', 'detail_info': {'tag': '旅游景点;景点', 'type': 'scope', 'detail_url': 'http://api.map.baidu.com/place/detail?uid=9f4981f8bc728839128824a8&output=html&source=placeapi_v2', 'overall_rating': '0.0', 'children': [], 'lat': 32.023604622842925, 'lng': 118.70517563847798}}"
"{'name': '亲水平台', 'location': {'lat': 32.022300443837274, 'lng': 118.70146534105605}, 'address': '南京市建邺区扬子江大道228号滨江公园南京中国绿化博览园内', 'province': '江苏省', 'city': '南京市', 'area': '建邺区', 'detail': 1, 'uid': 'fae7177cbfc23dc630621204', 'detail_info': {'tag': '旅游景点;景点', 'type': 'scope', 'detail_url': 'http://api.map.baidu.com/place/detail?uid=fae7177cbfc23dc630621204&output=html&source=placeapi_v2', 'children': [], 'lat': 32.022300443837274, 'lng': 118.70146534105605}}"
"{'name': '《学游泳》', 'location': {'lat': 32.028745671630496, 'lng': 118.70723303764173}, 'address': '南京市建邺区扬子江大道228号滨江公园南京中国绿化博览园亲子沙趣园内', 'province': '江苏省', 'city': '南京市', 'area': '建邺区', 'street_id': '7dc9476e9e34c8e4d718b79d', 'detail': 1, 'uid': '7dc9476e9e34c8e4d718b79d', 'detail_info': {'tag': '旅游景点;景点', 'type': 'scope', 'detail_url': 'http://api.map.baidu.com/place/detail?uid=7dc9476e9e34c8e4d718b79d&output=html&source=placeapi_v2', 'overall_rating': '0.0', 'children': [], 'lat': 32.028745671630496, 'lng': 118.70723303764173}}"
"{'name': '米菲的森林', 'location': {'lat': 32.02268331565665, 'lng': 118.70331966086137}, 'address': '南京市建邺区扬子江大道228号滨江公园南京中国绿化博览园内', 'province': '江苏省', 'city': '南京市', 'area': '建邺区', 'street_id': '2079d630e36ddd7c213bf220', 'detail': 1, 'uid': '2079d630e36ddd7c213bf220', 'detail_info': {'tag': '旅游景点;景点', 'navi_location': {'lng': 118.715074446, 'lat': 32.024396364162}, 'type': 'scope', 'detail_url': 'http://api.map.baidu.com/place/detail?uid=2079d630e36ddd7c213bf220&output=html&source=placeapi_v2', 'overall_rating': '0.0', 'children': [], 'lat': 32.02268331565665, 'lng': 118.70331966086137}}"
"{'name': '养墨堂美术馆', 'location': {'lat': 32.02120195976704, 'lng': 118.72163065576787}, 'address': '建邺区华山路136号', 'province': '江苏省', 'city': '南京市', 'area': '建邺区', 'street_id': 'dc405bbeed17fd8f7dc87632', 'telephone': '(025)86630399', 'detail': 1, 'uid': 'dc405bbeed17fd8f7dc87632', 'detail_info': {'tag': '文化传媒;美术馆', 'navi_location': {'lng': 118.73370269539, 'lat': 32.025026643499}, 'type': 'enterprise', 'detail_url': 'http://api.map.baidu.com/place/detail?uid=dc405bbeed17fd8f7dc87632&output=html&source=placeapi_v2', 'overall_rating': '4.0', 'comment_num': '2', 'children': [], 'lat': 32.02120195976704, 'lng': 118.72163065576787}}"
"{'name': '南京中国绿化博览园烧烤园', 'location': {'lat': 32.02934915730423, 'lng': 118.7073755716127}, 'address': '南京市建邺区扬子江大道228号滨江公园南京中国绿化博览园北门', 'province': '江苏省', 'city': '南京市', 'area': '建邺区', 'telephone': '15195886798', 'detail': 1, 'uid': 'b224fd5916131c517369d3f2', 'detail_info': {'tag': '美食;其他', 'type': 'cater', 'detail_url': 'http://api.map.baidu.com/place/detail?uid=b224fd5916131c517369d3f2&output=html&source=placeapi_v2', 'price': '84.0', 'overall_rating': '4.1', 'comment_num': '25', 'children': [], 'lat': 32.02934915730423, 'lng': 118.7073755716127}}"
"{'name': '金陵本土植物园', 'location': {'lat': 32.022834859039094, 'lng': 118.70410033012266}, 'address': '南京市建邺区扬子江大道228号滨江公园南京中国绿化博览园内', 'province': '江苏省', 'city': '南京市', 'area': '建邺区', 'street_id': 'ab39f5a6d3f5d30b11882434', 'detail': 1, 'uid': 'ab39f5a6d3f5d30b11882434', 'detail_info': {'tag': '旅游景点;景点', 'navi_location': {'lng': 118.7145566627, 'lat': 32.023766874562}, 'type': 'scope', 'detail_url': 'http://api.map.baidu.com/place/detail?uid=ab39f5a6d3f5d30b11882434&output=html&source=placeapi_v2', 'overall_rating': '0.0', 'children': [], 'lat': 32.022834859039094, 'lng': 118.70410033012266}}"
"{'name': '盼归园', 'location': {'lat': 32.021902731556644, 'lng': 118.70588101872221}, 'address': '南京市建邺区扬子江大道228号滨江公园南京中国绿化博览园内', 'province': '江苏省', 'city': '南京市', 'area': '建邺区', 'street_id': '6a09bad853454850c9fa5f03', 'detail': 1, 'uid': '6a09bad853454850c9fa5f03', 'detail_info': {'tag': '旅游景点;景点', 'type': 'scope', 'detail_url': 'http://api.map.baidu.com/place/detail?uid=6a09bad853454850c9fa5f03&output=html&source=placeapi_v2', 'children': [], 'lat': 32.021902731556644, 'lng': 118.70588101872221}}"
"{'name': '永宁园', 'location': {'lat': 32.02298406697104, 'lng': 118.70646945222751}, 'address': '南京市建邺区扬子江大道228号滨江公园南京中国绿化博览园内', 'province': '江苏省', 'city': '南京市', 'area': '建邺区', 'street_id': '82d462b3d83ec22c9c09f7b4', 'detail': 1, 'uid': '82d462b3d83ec22c9c09f7b4', 'detail_info': {'tag': '旅游景点;景点', 'type': 'scope', 'detail_url': 'http://api.map.baidu.com/place/detail?uid=82d462b3d83ec22c9c09f7b4&output=html&source=placeapi_v2', 'children': [], 'lat': 32.02298406697104, 'lng': 118.70646945222751}}"
"{'name': '中国军苑', 'location': {'lat': 32.02594565901593, 'lng': 118.707297907817}, 'address': '南京市建邺区扬子江大道228号滨江公园南京中国绿化博览园内', 'province': '江苏省', 'city': '南京市', 'area': '建邺区', 'street_id': '4fd3fe8cf607ebe6c4f0251f', 'detail': 1, 'uid': '4fd3fe8cf607ebe6c4f0251f', 'detail_info': {'tag': '旅游景点;景点', 'type': 'scope', 'detail_url': 'http://api.map.baidu.com/place/detail?uid=4fd3fe8cf607ebe6c4f0251f&output=html&source=placeapi_v2', 'overall_rating': '0.0', 'comment_num': '0', 'children': [], 'lat': 32.02594565901593, 'lng': 118.707297907817}}"
"{'name': '空中漫步', 'location': {'lat': 32.02797009244702, 'lng': 118.70535909843115}, 'address': '南京市建邺区扬子江大道228号滨江公园南京中国绿化博览园绿博园儿童游乐场内', 'province': '江苏省', 'city': '南京市', 'area': '建邺区', 'street_id': '42e3febc3cec9cca8505bf3d', 'detail': 1, 'uid': '42e3febc3cec9cca8505bf3d', 'detail_info': {'tag': '旅游景点;景点', 'type': 'scope', 'detail_url': 'http://api.map.baidu.com/place/detail?uid=42e3febc3cec9cca8505bf3d&output=html&source=placeapi_v2', 'children': [], 'lat': 32.02797009244702, 'lng': 118.70535909843115}}"
"{'name': '海岱园', 'location': {'lat': 32.02298806376205, 'lng': 118.70491677065955}, 'address': '南京市建邺区扬子江大道228号滨江公园南京中国绿化博览园内', 'province': '江苏省', 'city': '南京市', 'area': '建邺区', 'street_id': 'a79c3cc226c58b0c3a13fd35', 'detail': 1, 'uid': 'a79c3cc226c58b0c3a13fd35', 'detail_info': {'tag': '旅游景点;景点', 'type': 'scope', 'detail_url': 'http://api.map.baidu.com/place/detail?uid=a79c3cc226c58b0c3a13fd35&output=html&source=placeapi_v2', 'overall_rating': '0.0', 'children': [], 'lat': 32.02298806376205, 'lng': 118.70491677065955}}"
"{'name': '水上挑战者', 'location': {'lat': 32.02687716236123, 'lng': 118.70502125152548}, 'address': '南京市建邺区扬子江大道228号滨江公园南京中国绿化博览园绿博园儿童游乐场内', 'province': '江苏省', 'city': '南京市', 'area': '建邺区', 'street_id': '0bffa3dd220704fff8dc857a', 'detail': 1, 'uid': '0bffa3dd220704fff8dc857a', 'detail_info': {'tag': '旅游景点;景点', 'type': 'scope', 'detail_url': 'http://api.map.baidu.com/place/detail?uid=0bffa3dd220704fff8dc857a&output=html&source=placeapi_v2', 'overall_rating': '0.0', 'children': [], 'lat': 32.02687716236123, 'lng': 118.70502125152548}}"
"{'name': '激战鲨鱼', 'location': {'lat': 32.02755351934628, 'lng': 118.70515480831745}, 'address': '南京市建邺区扬子江大道228号滨江公园南京中国绿化博览园绿博园儿童游乐场内', 'province': '江苏省', 'city': '南京市', 'area': '建邺区', 'detail': 1, 'uid': 'c3845db1ec85e914f2193791', 'detail_info': {'tag': '旅游景点;景点', 'type': 'scope', 'detail_url': 'http://api.map.baidu.com/place/detail?uid=c3845db1ec85e914f2193791&output=html&source=placeapi_v2', 'children': [], 'lat': 32.02755351934628, 'lng': 118.70515480831745}}"
"{'name': '摩天环车', 'location': {'lat': 32.02754754152162, 'lng': 118.70527103855783}, 'address': '南京市建邺区扬子江大道228号滨江公园南京中国绿化博览园绿博园儿童游乐场内', 'province': '江苏省', 'city': '南京市', 'area': '建邺区', 'street_id': '40fccc9fd7e52a8b276e9834', 'detail': 1, 'uid': '40fccc9fd7e52a8b276e9834', 'detail_info': {'tag': '旅游景点;景点', 'type': 'scope', 'detail_url': 'http://api.map.baidu.com/place/detail?uid=40fccc9fd7e52a8b276e9834&output=html&source=placeapi_v2', 'children': [], 'lat': 32.02754754152162, 'lng': 118.70527103855783}}"
"{'name': '夏日小溪', 'location': {'lat': 32.026763855208785, 'lng': 118.7060385743026}, 'address': '南京市建邺区扬子江大道228号滨江公园南京中国绿化博览园内', 'province': '江苏省', 'city': '南京市', 'area': '建邺区', 'street_id': 'a23b386959c076be32169be5', 'detail': 1, 'uid': 'a23b386959c076be32169be5', 'detail_info': {'tag': '旅游景点;景点', 'type': 'scope', 'detail_url': 'http://api.map.baidu.com/place/detail?uid=a23b386959c076be32169be5&output=html&source=placeapi_v2', 'children': [], 'lat': 32.026763855208785, 'lng': 118.7060385743026}}"
"{'name': '摇头飞椅', 'location': {'lat': 32.02668707132178, 'lng': 118.70547637061195}, 'address': '南京市建邺区扬子江大道228号滨江公园南京中国绿化博览园绿博园儿童游乐场内', 'province': '江苏省', 'city': '南京市', 'area': '建邺区', 'street_id': 'b11a2655020411f2c809f0ad', 'detail': 1, 'uid': 'b11a2655020411f2c809f0ad', 'detail_info': {'tag': '旅游景点;景点', 'type': 'scope', 'detail_url': 'http://api.map.baidu.com/place/detail?uid=b11a2655020411f2c809f0ad&output=html&source=placeapi_v2', 'children': [], 'lat': 32.02668707132178, 'lng': 118.70547637061195}}"
"{'name': '阳光温室', 'location': {'lat': 32.025204349558905, 'lng': 118.70342522528128}, 'address': '南京市建邺区扬子江大道228号滨江公园南京中国绿化博览园内', 'province': '江苏省', 'city': '南京市', 'area': '建邺区', 'street_id': '6264a95527e4798b40e192d5', 'detail': 1, 'uid': '6264a95527e4798b40e192d5', 'detail_info': {'tag': '旅游景点;景点', 'type': 'scope', 'detail_url': 'http://api.map.baidu.com/place/detail?uid=6264a95527e4798b40e192d5&output=html&source=placeapi_v2', 'children': [], 'lat': 32.025204349558905, 'lng': 118.70342522528128}}"
"{'name': '自控飞机', 'location': {'lat': 32.02808864875035, 'lng': 118.70579311154957}, 'address': '江苏省南京市建邺区扬子江大道228', 'province': '江苏省', 'city': '南京市', 'area': '建邺区', 'street_id': '78cf32e63124692c15a19059', 'detail': 1, 'uid': '78cf32e63124692c15a19059', 'detail_info': {'tag': '旅游景点;景点', 'type': 'scope', 'detail_url': 'http://api.map.baidu.com/place/detail?uid=78cf32e63124692c15a19059&output=html&source=placeapi_v2', 'children': [], 'lat': 32.02808864875035, 'lng': 118.70579311154957}}"
"{'name': '观光小火车绿色人居停靠点', 'location': {'lat': 32.0236069477236, 'lng': 118.70352468450874}, 'address': '南京市建邺区扬子江大道228号滨江公园南京中国绿化博览园内', 'province': '江苏省', 'city': '南京市', 'area': '建邺区', 'street_id': 'a498e4f0b0e2e3950a1cc76c', 'detail': 1, 'uid': 'a498e4f0b0e2e3950a1cc76c', 'detail_info': {'tag': '旅游景点;景点', 'type': 'scope', 'detail_url': 'http://api.map.baidu.com/place/detail?uid=a498e4f0b0e2e3950a1cc76c&output=html&source=placeapi_v2', 'children': [], 'lat': 32.0236069477236, 'lng': 118.70352468450874}}"
"{'name': '衣舍', 'location': {'lat': 32.020631475160904, 'lng': 118.7018884633193}, 'address': '扬子江大道228', 'province': '江苏省', 'city': '南京市', 'area': '建邺区', 'street_id': '61d8910637818ac2b42655e6', 'detail': 1, 'uid': '61d8910637818ac2b42655e6', 'detail_info': {'tag': '旅游景点;景点', 'type': 'scope', 'detail_url': 'http://api.map.baidu.com/place/detail?uid=61d8910637818ac2b42655e6&output=html&source=placeapi_v2', 'children': [], 'lat': 32.020631475160904, 'lng': 118.7018884633193}}"
"{'name': '郁金香花园', 'location': {'lat': 32.020124060675236, 'lng': 118.70186786691198}, 'address': '南京市建邺区扬子江大道228号滨江公园南京中国绿化博览园荷兰园内', 'province': '江苏省', 'city': '南京市', 'area': '建邺区', 'street_id': '9f899e35d33b12d349fd3f36', 'detail': 1, 'uid': '9f899e35d33b12d349fd3f36', 'detail_info': {'tag': '旅游景点;景点', 'navi_location': {'lng': 118.71412903425, 'lat': 32.023591558367}, 'type': 'scope', 'detail_url': 'http://api.map.baidu.com/place/detail?uid=9f899e35d33b12d349fd3f36&output=html&source=placeapi_v2', 'overall_rating': '0.0', 'children': [], 'lat': 32.020124060675236, 'lng': 118.70186786691198}}"
"{'name': '朝晖园', 'location': {'lat': 32.02257373444655, 'lng': 118.70570478171167}, 'address': '南京市建邺区扬子江大道228号滨江公园南京中国绿化博览园内', 'province': '江苏省', 'city': '南京市', 'area': '建邺区', 'street_id': '5837fb7e92adfde9a4c756af', 'detail': 1, 'uid': '5837fb7e92adfde9a4c756af', 'detail_info': {'tag': '旅游景点;景点', 'type': 'scope', 'detail_url': 'http://api.map.baidu.com/place/detail?uid=5837fb7e92adfde9a4c756af&output=html&source=placeapi_v2', 'overall_rating': '0.0', 'children': [], 'lat': 32.02257373444655, 'lng': 118.70570478171167}}"
"{'name': '燕赵魂', 'location': {'lat': 32.02154039951533, 'lng': 118.70442692852983}, 'address': '南京市建邺区扬子江大道228号滨江公园南京中国绿化博览园内', 'province': '江苏省', 'city': '南京市', 'area': '建邺区', 'street_id': 'd48d6483f07dbc5ac9291509', 'detail': 1, 'uid': 'd48d6483f07dbc5ac9291509', 'detail_info': {'tag': '旅游景点;景点', 'type': 'scope', 'detail_url': 'http://api.map.baidu.com/place/detail?uid=d48d6483f07dbc5ac9291509&output=html&source=placeapi_v2', 'overall_rating': '0.0', 'children': [], 'lat': 32.02154039951533, 'lng': 118.70442692852983}}"
"{'name': '太空飞碟', 'location': {'lat': 32.02694118699138, 'lng': 118.70513742504797}, 'address': '南京市建邺区扬子江大道228号滨江公园南京中国绿化博览园绿博园儿童游乐场内', 'province': '江苏省', 'city': '南京市', 'area': '建邺区', 'street_id': '3fc5ed9a93f6b763bbbd6351', 'detail': 1, 'uid': '3fc5ed9a93f6b763bbbd6351', 'detail_info': {'tag': '旅游景点;景点', 'type': 'scope', 'detail_url': 'http://api.map.baidu.com/place/detail?uid=3fc5ed9a93f6b763bbbd6351&output=html&source=placeapi_v2', 'children': [], 'lat': 32.02694118699138, 'lng': 118.70513742504797}}"
"{'name': '藏乡情', 'location': {'lat': 32.02123910076963, 'lng': 118.7051592066791}, 'address': '南京市建邺区扬子江大道228号滨江公园南京中国绿化博览园内', 'province': '江苏省', 'city': '南京市', 'area': '建邺区', 'street_id': '54d7f802e209348a4054d722', 'detail': 1, 'uid': '54d7f802e209348a4054d722', 'detail_info': {'tag': '旅游景点;景点', 'navi_location': {'lng': 118.71619301602, 'lat': 32.024194621831}, 'type': 'scope', 'detail_url': 'http://api.map.baidu.com/place/detail?uid=54d7f802e209348a4054d722&output=html&source=placeapi_v2', 'children': [], 'lat': 32.02123910076963, 'lng': 118.7051592066791}}"
"{'name': '墨西哥园', 'location': {'lat': 32.02025145610914, 'lng': 118.70466901290212}, 'address': '南京市建邺区扬子江大道228号滨江公园南京中国绿化博览园内', 'province': '江苏省', 'city': '南京市', 'area': '建邺区', 'street_id': '8e407110825f8249ae080f6a', 'detail': 1, 'uid': '8e407110825f8249ae080f6a', 'detail_info': {'tag': '旅游景点;景点', 'type': 'scope', 'detail_url': 'http://api.map.baidu.com/place/detail?uid=8e407110825f8249ae080f6a&output=html&source=placeapi_v2', 'overall_rating': '0.0', 'children': [], 'lat': 32.02025145610914, 'lng': 118.70466901290212}}"
"{'name': '绿满鹏城', 'location': {'lat': 32.02768520951428, 'lng': 118.70790355692388}, 'address': '南京市建邺区扬子江大道228号滨江公园南京中国绿化博览园内', 'province': '江苏省', 'city': '南京市', 'area': '建邺区', 'street_id': '0fff8e2ac78577130e0a701b', 'detail': 1, 'uid': '0fff8e2ac78577130e0a701b', 'detail_info': {'tag': '旅游景点;景点', 'type': 'scope', 'detail_url': 'http://api.map.baidu.com/place/detail?uid=0fff8e2ac78577130e0a701b&output=html&source=placeapi_v2', 'children': [], 'lat': 32.02768520951428, 'lng': 118.70790355692388}}"
"{'name': '立环跑车', 'location': {'lat': 32.02781755484885, 'lng': 118.70538604733191}, 'address': '南京市建邺区扬子江大道228号滨江公园南京中国绿化博览园绿博园儿童游乐场内', 'province': '江苏省', 'city': '南京市', 'area': '建邺区', 'street_id': 'e651703e359cc5d38505bf2a', 'detail': 1, 'uid': 'e651703e359cc5d38505bf2a', 'detail_info': {'tag': '旅游景点;景点', 'type': 'scope', 'detail_url': 'http://api.map.baidu.com/place/detail?uid=e651703e359cc5d38505bf2a&output=html&source=placeapi_v2', 'children': [], 'lat': 32.02781755484885, 'lng': 118.70538604733191}}"
"{'name': '楚苑', 'location': {'lat': 32.02661146240312, 'lng': 118.7073420989237}, 'address': '南京市建邺区扬子江大道228号滨江公园南京中国绿化博览园内', 'province': '江苏省', 'city': '南京市', 'area': '建邺区', 'street_id': '4c0d4a70b989afdb97ec8454', 'detail': 1, 'uid': '4c0d4a70b989afdb97ec8454', 'detail_info': {'tag': '旅游景点;景点', 'type': 'scope', 'detail_url': 'http://api.map.baidu.com/place/detail?uid=4c0d4a70b989afdb97ec8454&output=html&source=placeapi_v2', 'overall_rating': '0.0', 'children': [], 'lat': 32.02661146240312, 'lng': 118.7073420989237}}"
"{'name': '观光小火车江堤广场(阳光草坪)停靠点', 'location': {'lat': 32.02540820853732, 'lng': 118.70416610784524}, 'address': '江苏省南京市建邺区扬子江大道228号滨江公园南京中国绿化博览园内', 'province': '江苏省', 'city': '南京市', 'area': '建邺区', 'street_id': '8a8cf2ee39cb8612d8d89198', 'detail': 1, 'uid': '8a8cf2ee39cb8612d8d89198', 'detail_info': {'tag': '旅游景点;景点', 'type': 'scope', 'detail_url': 'http://api.map.baidu.com/place/detail?uid=8a8cf2ee39cb8612d8d89198&output=html&source=placeapi_v2', 'children': [], 'lat': 32.02540820853732, 'lng': 118.70416610784524}}"
"{'name': '花园小屋', 'location': {'lat': 32.02347584713623, 'lng': 118.70328835761465}, 'address': '南京市建邺区扬子江大道228号滨江公园南京中国绿化博览园内', 'province': '江苏省', 'city': '南京市', 'area': '建邺区', 'street_id': '7d5df14042951303acb22ac2', 'detail': 1, 'uid': '7d5df14042951303acb22ac2', 'detail_info': {'tag': '旅游景点;景点', 'type': 'scope', 'detail_url': 'http://api.map.baidu.com/place/detail?uid=7d5df14042951303acb22ac2&output=html&source=placeapi_v2', 'overall_rating': '0.0', 'children': [], 'lat': 32.02347584713623, 'lng': 118.70328835761465}}"
"{'name': '国际友好林', 'location': {'lat': 32.02143329914886, 'lng': 118.7048819474718}, 'address': '南京市建邺区扬子江大道228号滨江公园南京中国绿化博览园内', 'province': '江苏省', 'city': '南京市', 'area': '建邺区', 'street_id': 'f85547e159157ffff02d8380', 'detail': 1, 'uid': 'f85547e159157ffff02d8380', 'detail_info': {'tag': '旅游景点;景点', 'type': 'scope', 'detail_url': 'http://api.map.baidu.com/place/detail?uid=f85547e159157ffff02d8380&output=html&source=placeapi_v2', 'overall_rating': '0.0', 'children': [], 'lat': 32.02143329914886, 'lng': 118.7048819474718}}"
"{'name': '江苏大剧院美术馆', 'location': {'lat': 32.01536822127456, 'lng': 118.7099791695792}, 'address': '梦都大街181号江苏大剧院内', 'province': '江苏省', 'city': '南京市', 'area': '建邺区', 'street_id': 'ffc7687f5c6607dcf72310af', 'telephone': '(025)85775600,(025)85437777', 'detail': 1, 'uid': 'ffc7687f5c6607dcf72310af', 'detail_info': {'tag': '文化传媒;美术馆', 'type': 'enterprise', 'detail_url': 'http://api.map.baidu.com/place/detail?uid=ffc7687f5c6607dcf72310af&output=html&source=placeapi_v2', 'overall_rating': '4.8', 'comment_num': '13', 'children': [], 'lat': 32.01536822127456, 'lng': 118.7099791695792}}"
"{'name': '南京中国绿化博览园-金陵石韵', 'location': {'lat': 32.02620540860303, 'lng': 118.7069360845456}, 'address': '南京市建邺区扬子江大道228号滨江公园南京中国绿化博览园内', 'province': '江苏省', 'city': '南京市', 'area': '建邺区', 'street_id': 'da0dac77c656f589246e9832', 'detail': 1, 'uid': 'da0dac77c656f589246e9832', 'detail_info': {'tag': '旅游景点;景点', 'type': 'scope', 'detail_url': 'http://api.map.baidu.com/place/detail?uid=da0dac77c656f589246e9832&output=html&source=placeapi_v2', 'children': [], 'lat': 32.02620540860303, 'lng': 118.7069360845456}}"
"{'name': '企业园', 'location': {'lat': 32.02201803740833, 'lng': 118.70463326740696}, 'address': '南京市建邺区扬子江大道228号滨江公园南京中国绿化博览园内', 'province': '江苏省', 'city': '南京市', 'area': '建邺区', 'street_id': 'edb0f8d9d0f544ab58f6bedb', 'detail': 1, 'uid': 'edb0f8d9d0f544ab58f6bedb', 'detail_info': {'tag': '旅游景点;景点', 'type': 'scope', 'detail_url': 'http://api.map.baidu.com/place/detail?uid=edb0f8d9d0f544ab58f6bedb&output=html&source=placeapi_v2', 'children': [], 'lat': 32.02201803740833, 'lng': 118.70463326740696}}"
"{'name': '儿童追逐车', 'location': {'lat': 32.02765577217041, 'lng': 118.70534147935825}, 'address': '南京市建邺区扬子江大道228号滨江公园南京中国绿化博览园绿博园儿童游乐场内', 'province': '江苏省', 'city': '南京市', 'area': '建邺区', 'street_id': '617ef4abcebc1a12e5e9659e', 'detail': 1, 'uid': '617ef4abcebc1a12e5e9659e', 'detail_info': {'tag': '旅游景点;景点', 'type': 'scope', 'detail_url': 'http://api.map.baidu.com/place/detail?uid=617ef4abcebc1a12e5e9659e&output=html&source=placeapi_v2', 'overall_rating': '0.0', 'children': [], 'lat': 32.02765577217041, 'lng': 118.70534147935825}}"
"{'name': '双人飞天', 'location': {'lat': 32.028027827638965, 'lng': 118.70557362188538}, 'address': '南京市建邺区扬子江大道228号滨江公园南京中国绿化博览园绿博园儿童游乐场内', 'province': '江苏省', 'city': '南京市', 'area': '建邺区', 'detail': 1, 'uid': '64d19d39d6d3b049fa42b222', 'detail_info': {'tag': '旅游景点;景点', 'type': 'scope', 'detail_url': 'http://api.map.baidu.com/place/detail?uid=64d19d39d6d3b049fa42b222&output=html&source=placeapi_v2', 'overall_rating': '0.0', 'children': [], 'lat': 32.028027827638965, 'lng': 118.70557362188538}}"
"{'name': '碰碰车', 'location': {'lat': 32.02699883889102, 'lng': 118.7054045981998}, 'address': '南京市建邺区扬子江大道228号滨江公园南京中国绿化博览园绿博园儿童游乐场内', 'province': '江苏省', 'city': '南京市', 'area': '建邺区', 'street_id': 'ba316afb161777cf03294fae', 'detail': 1, 'uid': 'ba316afb161777cf03294fae', 'detail_info': {'tag': '旅游景点;景点', 'type': 'scope', 'detail_url': 'http://api.map.baidu.com/place/detail?uid=ba316afb161777cf03294fae&output=html&source=placeapi_v2', 'overall_rating': '0.0', 'children': [], 'lat': 32.02699883889102, 'lng': 118.7054045981998}}"
"{'name': '南粤和园', 'location': {'lat': 32.02800274240071, 'lng': 118.7081079607727}, 'address': '南京市建邺区扬子江大道228号滨江公园南京中国绿化博览园内', 'province': '江苏省', 'city': '南京市', 'area': '建邺区', 'street_id': '469d1e50b562f18df7eafcf5', 'detail': 1, 'uid': '469d1e50b562f18df7eafcf5', 'detail_info': {'tag': '旅游景点;景点', 'type': 'scope', 'detail_url': 'http://api.map.baidu.com/place/detail?uid=469d1e50b562f18df7eafcf5&output=html&source=placeapi_v2', 'overall_rating': '0.0', 'children': [], 'lat': 32.02800274240071, 'lng': 118.7081079607727}}"
"{'name': '旋园', 'location': {'lat': 32.022943650277995, 'lng': 118.70679135308829}, 'address': '南京市建邺区扬子江大道228号滨江公园南京中国绿化博览园内', 'province': '江苏省', 'city': '南京市', 'area': '建邺区', 'street_id': '7dc2cc9480714e4dc036446e', 'detail': 1, 'uid': '7dc2cc9480714e4dc036446e', 'detail_info': {'tag': '旅游景点;景点', 'navi_location': {'lng': 118.71842817979, 'lat': 32.026257561417}, 'type': 'scope', 'detail_url': 'http://api.map.baidu.com/place/detail?uid=7dc2cc9480714e4dc036446e&output=html&source=placeapi_v2', 'overall_rating': '0.0', 'children': [], 'lat': 32.022943650277995, 'lng': 118.70679135308829}}"
"{'name': '体能乐园', 'location': {'lat': 32.028150453108076, 'lng': 118.7056092807109}, 'address': '南京市建邺区扬子江大道228号滨江公园南京中国绿化博览园绿博园儿童游乐场内', 'province': '江苏省', 'city': '南京市', 'area': '建邺区', 'street_id': 'a8fbd8adf7e930ea80a00c7f', 'detail': 1, 'uid': 'a8fbd8adf7e930ea80a00c7f', 'detail_info': {'tag': '旅游景点;景点', 'type': 'scope', 'detail_url': 'http://api.map.baidu.com/place/detail?uid=a8fbd8adf7e930ea80a00c7f&output=html&source=placeapi_v2', 'overall_rating': '0.0', 'children': [], 'lat': 32.028150453108076, 'lng': 118.7056092807109}}"
"{'name': '金陵江滨酒店-会议楼', 'location': {'lat': 32.013708253175096, 'lng': 118.70345246199241}, 'address': '扬子江大道万景园路8号金陵江滨酒店', 'province': '江苏省', 'city': '南京市', 'area': '建邺区', 'street_id': 'ade639def5769b16ad0457f4', 'telephone': '(025)51872888', 'detail': 1, 'uid': 'ade639def5769b16ad0457f4', 'detail_info': {'tag': '教育培训;其他', 'navi_location': {'lng': 118.71550185976, 'lat': 32.017712989789}, 'type': 'enterprise', 'detail_url': 'http://api.map.baidu.com/place/detail?uid=ade639def5769b16ad0457f4&output=html&source=placeapi_v2', 'children': [], 'lat': 32.013708253175096, 'lng': 118.70345246199241}}"
"{'name': '祝园', 'location': {'lat': 32.020230170167935, 'lng': 118.70436505769031}, 'address': '南京市建邺区扬子江大道228号滨江公园南京中国绿化博览园内', 'province': '江苏省', 'city': '南京市', 'area': '建邺区', 'street_id': '2e4de7f4b69b0529343a71e9', 'detail': 1, 'uid': '2e4de7f4b69b0529343a71e9', 'detail_info': {'tag': '旅游景点;景点', 'type': 'scope', 'detail_url': 'http://api.map.baidu.com/place/detail?uid=2e4de7f4b69b0529343a71e9&output=html&source=placeapi_v2', 'children': [], 'lat': 32.020230170167935, 'lng': 118.70436505769031}}"
"{'name': '观光小火车亲子沙趣园(儿童游乐区)停靠点', 'location': {'lat': 32.027464891692325, 'lng': 118.70667181646682}, 'address': '江苏省南京市建邺区扬子江大道228号滨江公园南京中国绿化博览园内', 'province': '江苏省', 'city': '南京市', 'area': '建邺区', 'street_id': '7aa8d98902ebc8d2cbfa5f17', 'detail': 1, 'uid': '7aa8d98902ebc8d2cbfa5f17', 'detail_info': {'tag': '旅游景点;景点', 'type': 'scope', 'detail_url': 'http://api.map.baidu.com/place/detail?uid=7aa8d98902ebc8d2cbfa5f17&output=html&source=placeapi_v2', 'overall_rating': '0.0', 'children': [], 'lat': 32.027464891692325, 'lng': 118.70667181646682}}"
"{'name': '9力童真探索乐园', 'location': {'lat': 32.02442049883812, 'lng': 118.70694832660237}, 'address': '南京市建邺区扬子江大道与兴隆大街交叉路口往西约150米(南京中国绿化博览园)', 'province': '江苏省', 'city': '南京市', 'area': '建邺区', 'detail': 1, 'uid': 'be080707e08de4a582288acb', 'detail_info': {'tag': '旅游景点;游乐园', 'type': 'scope', 'detail_url': 'http://api.map.baidu.com/place/detail?uid=be080707e08de4a582288acb&output=html&source=placeapi_v2', 'overall_rating': '0.0', 'comment_num': '1', 'children': [], 'lat': 32.02442049883812, 'lng': 118.70694832660237}}"
"{'name': '观光小火车荷兰园停靠点', 'location': {'lat': 32.02091125169251, 'lng': 118.70128634806542}, 'address': '南京市建邺区扬子江大道228号滨江公园南京中国绿化博览园内', 'province': '江苏省', 'city': '南京市', 'area': '建邺区', 'street_id': '473e2017c8f0c9633ce23119', 'detail': 1, 'uid': '473e2017c8f0c9633ce23119', 'detail_info': {'tag': '旅游景点;景点', 'type': 'scope', 'detail_url': 'http://api.map.baidu.com/place/detail?uid=473e2017c8f0c9633ce23119&output=html&source=placeapi_v2', 'overall_rating': '0.0', 'children': [], 'lat': 32.02091125169251, 'lng': 118.70128634806542}}"
"{'name': '沙趣游乐区', 'location': {'lat': 32.02676906953143, 'lng': 118.70576339653928}, 'address': '江苏省南京市建邺区扬子江大道228', 'province': '江苏省', 'city': '南京市', 'area': '建邺区', 'detail': 1, 'uid': '2a3987f99f2afef7a4c75683', 'detail_info': {'tag': '旅游景点;游乐园', 'type': 'scope', 'detail_url': 'http://api.map.baidu.com/place/detail?uid=2a3987f99f2afef7a4c75683&output=html&source=placeapi_v2', 'overall_rating': '4.3', 'comment_num': '6', 'children': [], 'lat': 32.02676906953143, 'lng': 118.70576339653928}}"
"{'name': '江汉会馆旧址', 'location': {'lat': 32.02187143242287, 'lng': 118.70981640847819}, 'address': '松花江西街与螺丝桥大街交叉口西北200米', 'province': '江苏省', 'city': '南京市', 'area': '建邺区', 'detail': 1, 'uid': '3b5dd80b8c760d7831f71de7', 'detail_info': {'tag': '旅游景点;文物古迹', 'type': 'life', 'detail_url': 'http://api.map.baidu.com/place/detail?uid=3b5dd80b8c760d7831f71de7&output=html&source=placeapi_v2', 'image_num': '1', 'children': [], 'lat': 32.02187143242287, 'lng': 118.70981640847819}}"
"{'name': '植物工坊', 'location': {'lat': 32.02352261871496, 'lng': 118.70315919321978}, 'address': '南京市建邺区扬子江大道228号滨江公园南京中国绿化博览园内', 'province': '江苏省', 'city': '南京市', 'area': '建邺区', 'detail': 1, 'uid': 'f25a64d102f2aa629f09f761', 'detail_info': {'tag': '旅游景点;景点', 'type': 'scope', 'detail_url': 'http://api.map.baidu.com/place/detail?uid=f25a64d102f2aa629f09f761&output=html&source=placeapi_v2', 'children': [], 'lat': 32.02352261871496, 'lng': 118.70315919321978}}"
"{'name': '宣和美术馆', 'location': {'lat': 32.01110662516667, 'lng': 118.72271319555934}, 'address': '南京市建邺区梦都大街与燕山路交叉路口往南约200米(南京奥林匹克体育中心)', 'province': '江苏省', 'city': '南京市', 'area': '建邺区', 'detail': 1, 'uid': '5f6cb323ab7b4273d4851fec', 'detail_info': {'tag': '文化传媒;美术馆', 'type': 'enterprise', 'detail_url': 'http://api.map.baidu.com/place/detail?uid=5f6cb323ab7b4273d4851fec&output=html&source=placeapi_v2', 'children': [], 'lat': 32.01110662516667, 'lng': 118.72271319555934}}"
"{'name': '宁波园', 'location': {'lat': 32.0224986815072, 'lng': 118.70673798510698}, 'address': '南京市建邺区扬子江大道228号滨江公园南京中国绿化博览园内', 'province': '江苏省', 'city': '南京市', 'area': '建邺区', 'street_id': 'b8b5971bf208fe676ca3cc09', 'detail': 1, 'uid': 'b8b5971bf208fe676ca3cc09', 'detail_info': {'tag': '旅游景点;景点', 'type': 'scope', 'detail_url': 'http://api.map.baidu.com/place/detail?uid=b8b5971bf208fe676ca3cc09&output=html&source=placeapi_v2', 'overall_rating': '0.0', 'children': [], 'lat': 32.0224986815072, 'lng': 118.70673798510698}}"
"{'name': '江心洲展览馆', 'location': {'lat': 32.00841245039398, 'lng': 118.69581620303241}, 'address': '南京市建邺区洲秦路与民安路交叉路口往南约150米(江心洲市民广场西南侧)', 'province': '江苏省', 'city': '南京市', 'area': '建邺区', 'street_id': 'fbd709f0cd066257a6da39ca', 'detail': 1, 'uid': 'fbd709f0cd066257a6da39ca', 'detail_info': {'tag': '文化传媒;展览馆', 'navi_location': {'lng': 118.70771346116, 'lat': 32.012512317663}, 'type': 'enterprise', 'detail_url': 'http://api.map.baidu.com/place/detail?uid=fbd709f0cd066257a6da39ca&output=html&source=placeapi_v2', 'children': [], 'lat': 32.00841245039398, 'lng': 118.69581620303241}}"
"{'name': '艺兰斋美术馆', 'location': {'lat': 32.01074848502784, 'lng': 118.70999571924318}, 'address': '江苏省南京市建邺区江苏大剧院南70米(奥体大街北)', 'province': '江苏省', 'city': '南京市', 'area': '建邺区', 'street_id': '7e7735093553c0c2b54f54bc', 'detail': 1, 'uid': '7e7735093553c0c2b54f54bc', 'detail_info': {'tag': '文化传媒;美术馆', 'type': 'enterprise', 'detail_url': 'http://api.map.baidu.com/place/detail?uid=7e7735093553c0c2b54f54bc&output=html&source=placeapi_v2', 'overall_rating': '3.0', 'comment_num': '2', 'children': [], 'lat': 32.01074848502784, 'lng': 118.70999571924318}}"
"{'name': '海口园', 'location': {'lat': 32.02013511167969, 'lng': 118.70505251020137}, 'address': '南京市建邺区扬子江大道228号滨江公园南京中国绿化博览园内', 'province': '江苏省', 'city': '南京市', 'area': '建邺区', 'street_id': '7d86cfdbbdf0f96c02ec0147', 'detail': 1, 'uid': '7d86cfdbbdf0f96c02ec0147', 'detail_info': {'tag': '旅游景点;景点', 'type': 'scope', 'detail_url': 'http://api.map.baidu.com/place/detail?uid=7d86cfdbbdf0f96c02ec0147&output=html&source=placeapi_v2', 'children': [], 'lat': 32.02013511167969, 'lng': 118.70505251020137}}"
"{'name': '河西中央商务区国际青年会议中心', 'location': {'lat': 32.01101092857651, 'lng': 118.71721657965902}, 'address': '南京市建邺区乐山路(南京奥林匹克体育中心)', 'province': '江苏省', 'city': '南京市', 'area': '建邺区', 'detail': 1, 'uid': 'cdb51c87d71fa26788db73fe', 'detail_info': {'tag': '文化传媒;展览馆', 'type': 'enterprise', 'detail_url': 'http://api.map.baidu.com/place/detail?uid=cdb51c87d71fa26788db73fe&output=html&source=placeapi_v2', 'children': [], 'lat': 32.01101092857651, 'lng': 118.71721657965902}}"
"{'name': '精灵王国梦幻乐园(中央商场店)', 'location': {'lat': 32.00922468033113, 'lng': 118.72688393763843}, 'address': '南京市建邺区江东中路270号中央商场F3', 'province': '江苏省', 'city': '南京市', 'area': '建邺区', 'street_id': '825e7a20ce126830bfa822e4', 'telephone': '13951673469', 'detail': 1, 'uid': '825e7a20ce126830bfa822e4', 'detail_info': {'tag': '休闲娱乐;游戏场所', 'indoor_floor': 'F3', 'type': 'life', 'detail_url': 'http://api.map.baidu.com/place/detail?uid=825e7a20ce126830bfa822e4&output=html&source=placeapi_v2', 'price': '96', 'overall_rating': '4.3', 'comment_num': '33', 'children': [], 'lat': 32.00922468033113, 'lng': 118.72688393763843}}"
"{'name': '小教堂', 'location': {'lat': 32.02100108958258, 'lng': 118.70168760932643}, 'address': '南京市建邺区扬子江大道228号滨江公园南京中国绿化博览园荷兰园内', 'province': '江苏省', 'city': '南京市', 'area': '建邺区', 'street_id': '260e466d5c5dacf114948e8a', 'detail': 1, 'uid': '260e466d5c5dacf114948e8a', 'detail_info': {'tag': '旅游景点;教堂', 'type': 'scope', 'detail_url': 'http://api.map.baidu.com/place/detail?uid=260e466d5c5dacf114948e8a&output=html&source=placeapi_v2', 'overall_rating': '3.0', 'comment_num': '1', 'children': [], 'lat': 32.02100108958258, 'lng': 118.70168760932643}}"
"{'name': '各省市展示园', 'location': {'lat': 32.0223714681041, 'lng': 118.7059780914588}, 'address': '南京市建邺区扬子江大道228号滨江公园南京中国绿化博览园内', 'province': '江苏省', 'city': '南京市', 'area': '建邺区', 'street_id': '575227507cf6c9b5c056aced', 'detail': 1, 'uid': '575227507cf6c9b5c056aced', 'detail_info': {'tag': '文化传媒;展览馆', 'type': 'enterprise', 'detail_url': 'http://api.map.baidu.com/place/detail?uid=575227507cf6c9b5c056aced&output=html&source=placeapi_v2', 'overall_rating': '5.0', 'comment_num': '1', 'children': [], 'lat': 32.0223714681041, 'lng': 118.7059780914588}}"
"{'name': '各省市展示园-南区', 'location': {'lat': 32.020537651890415, 'lng': 118.70531057982106}, 'address': '南京市建邺区扬子江大道228号滨江公园南京中国绿化博览园各省市展示园内', 'province': '江苏省', 'city': '南京市', 'area': '建邺区', 'street_id': '40f840e0e94ed1f017948e76', 'detail': 1, 'uid': '40f840e0e94ed1f017948e76', 'detail_info': {'tag': '文化传媒;展览馆', 'type': 'enterprise', 'detail_url': 'http://api.map.baidu.com/place/detail?uid=40f840e0e94ed1f017948e76&output=html&source=placeapi_v2', 'children': [], 'lat': 32.020537651890415, 'lng': 118.70531057982106}}"
"{'name': '东方魅力(中央商场店)', 'location': {'lat': 32.0093391410579, 'lng': 118.72725092426445}, 'address': '南京市建邺区江东中路235号中央商场F4', 'province': '江苏省', 'city': '南京市', 'area': '建邺区', 'street_id': 'ea83e1e7b382f1f9774ff18b', 'detail': 1, 'uid': 'ea83e1e7b382f1f9774ff18b', 'detail_info': {'tag': '旅游景点;游乐园', 'indoor_floor': 'F4', 'type': 'scope', 'detail_url': 'http://api.map.baidu.com/place/detail?uid=ea83e1e7b382f1f9774ff18b&output=html&source=placeapi_v2', 'children': [], 'lat': 32.0093391410579, 'lng': 118.72725092426445}}"
"{'name': '各省市展示园-北区', 'location': {'lat': 32.02391282235269, 'lng': 118.70708478091183}, 'address': '南京市建邺区扬子江大道228号滨江公园南京中国绿化博览园各省市展示园内', 'province': '江苏省', 'city': '南京市', 'area': '建邺区', 'street_id': '9354b32c9ef7aa9bc2f1cfd0', 'detail': 1, 'uid': '9354b32c9ef7aa9bc2f1cfd0', 'detail_info': {'tag': '文化传媒;展览馆', 'type': 'enterprise', 'detail_url': 'http://api.map.baidu.com/place/detail?uid=9354b32c9ef7aa9bc2f1cfd0&output=html&source=placeapi_v2', 'children': [], 'lat': 32.02391282235269, 'lng': 118.70708478091183}}"
"{'name': '仁恒辉盛阁酒店公寓-会议厅', 'location': {'lat': 32.00788253683671, 'lng': 118.72786614978554}, 'address': '庐山路116号', 'province': '江苏省', 'city': '南京市', 'area': '建邺区', 'street_id': '41ca1c290b680731c42ba1fd', 'telephone': '(025)86268888', 'detail': 1, 'uid': '41ca1c290b680731c42ba1fd', 'detail_info': {'tag': '文化传媒;展览馆', 'type': 'enterprise', 'detail_url': 'http://api.map.baidu.com/place/detail?uid=41ca1c290b680731c42ba1fd&output=html&source=placeapi_v2', 'children': [], 'lat': 32.00788253683671, 'lng': 118.72786614978554}}"
"{'name': '金奥美学艺术馆', 'location': {'lat': 32.01099589721526, 'lng': 118.71721459046125}, 'address': '河西中央商务区金奥美学艺术馆', 'province': '江苏省', 'city': '南京市', 'area': '建邺区', 'detail': 1, 'uid': 'df38b8f199abfcbbfbdc853a', 'detail_info': {'tag': '文化传媒;美术馆', 'type': 'enterprise', 'detail_url': 'http://api.map.baidu.com/place/detail?uid=df38b8f199abfcbbfbdc853a&output=html&source=placeapi_v2', 'children': [], 'lat': 32.01099589721526, 'lng': 118.71721459046125}}"
"{'name': '鸿康艺术馆', 'location': {'lat': 32.01800107911299, 'lng': 118.71979035835956}, 'address': '松花江西街28-2号', 'province': '江苏省', 'city': '南京市', 'area': '建邺区', 'street_id': '86e9bf77804bc6074251c071', 'detail': 1, 'uid': '86e9bf77804bc6074251c071', 'detail_info': {'tag': '文化传媒;美术馆', 'navi_location': {'lng': 118.7315364622, 'lat': 32.021606368365}, 'type': 'enterprise', 'detail_url': 'http://api.map.baidu.com/place/detail?uid=86e9bf77804bc6074251c071&output=html&source=placeapi_v2', 'children': [], 'lat': 32.01800107911299, 'lng': 118.71979035835956}}"
"{'name': '九生堂美术馆', 'location': {'lat': 32.010207879035846, 'lng': 118.70937666383577}, 'address': '奥体大街119号附近', 'province': '江苏省', 'city': '南京市', 'area': '建邺区', 'detail': 1, 'uid': '335524cade5904bed92f28af', 'detail_info': {'tag': '文化传媒;美术馆', 'type': 'enterprise', 'detail_url': 'http://api.map.baidu.com/place/detail?uid=335524cade5904bed92f28af&output=html&source=placeapi_v2', 'children': [], 'lat': 32.010207879035846, 'lng': 118.70937666383577}}"
"{'name': '中旅江苏公司商务会展中心', 'location': {'lat': 32.01484207397444, 'lng': 118.72182234210584}, 'address': '梦都大街150号建筑师工社410中旅江苏公司商务会展中心', 'province': '江苏省', 'city': '南京市', 'area': '建邺区', 'detail': 1, 'uid': '57ab945138b283532cb17ee7', 'detail_info': {'tag': '文化传媒;展览馆', 'type': 'enterprise', 'detail_url': 'http://api.map.baidu.com/place/detail?uid=57ab945138b283532cb17ee7&output=html&source=placeapi_v2', 'children': [], 'lat': 32.01484207397444, 'lng': 118.72182234210584}}"
"{'name': '万景园', 'location': {'lat': 32.036189349131476, 'lng': 118.71145882046689}, 'address': '江苏省南京市建邺区扬子江大道228号滨江公园内', 'province': '江苏省', 'city': '南京市', 'area': '建邺区', 'street_id': 'bbcb3d6b37d4e85ca3acc4bc', 'detail': 1, 'uid': 'bbcb3d6b37d4e85ca3acc4bc', 'detail_info': {'tag': '旅游景点;公园', 'navi_location': {'lng': 118.72241367298, 'lat': 32.037174065172}, 'type': 'scope', 'detail_url': 'http://api.map.baidu.com/place/detail?uid=bbcb3d6b37d4e85ca3acc4bc&output=html&source=placeapi_v2', 'overall_rating': '4.7', 'comment_num': '22', 'children': [], 'lat': 32.036189349131476, 'lng': 118.71145882046689}}"
"{'name': '升龙公园道榛园', 'location': {'lat': 32.04710853635859, 'lng': 118.70886420526725}, 'address': '江苏省南京市建邺区升龙公园道(中新大道东)', 'province': '江苏省', 'city': '南京市', 'area': '建邺区', 'detail': 1, 'uid': '72163f9cef50cad6f72310e2', 'detail_info': {'tag': '旅游景点;景点', 'type': 'scope', 'detail_url': 'http://api.map.baidu.com/place/detail?uid=72163f9cef50cad6f72310e2&output=html&source=placeapi_v2', 'overall_rating': '0.0', 'children': [], 'lat': 32.04710853635859, 'lng': 118.70886420526725}}"
"{'name': '万景园-小教堂', 'location': {'lat': 32.04021590127039, 'lng': 118.71400026082647}, 'address': '南京市建邺区万景园内', 'province': '江苏省', 'city': '南京市', 'area': '建邺区', 'street_id': 'bda0e7905dc5e78117948ed4', 'telephone': '13913841208', 'detail': 1, 'uid': 'bda0e7905dc5e78117948ed4', 'detail_info': {'tag': '旅游景点;教堂', 'type': 'scope', 'detail_url': 'http://api.map.baidu.com/place/detail?uid=bda0e7905dc5e78117948ed4&output=html&source=placeapi_v2', 'overall_rating': '4.5', 'comment_num': '19', 'children': [], 'lat': 32.04021590127039, 'lng': 118.71400026082647}}"
"{'name': '宝船博览苑', 'location': {'lat': 32.05542120142785, 'lng': 118.7235910240177}, 'address': '扬子江大道与银城街交叉口西100米', 'province': '江苏省', 'city': '南京市', 'area': '鼓楼区', 'street_id': 'e98d70e7c386d1f99f82eadc', 'detail': 1, 'uid': 'e98d70e7c386d1f99f82eadc', 'detail_info': {'tag': '旅游景点;景点', 'type': 'scope', 'detail_url': 'http://api.map.baidu.com/place/detail?uid=e98d70e7c386d1f99f82eadc&output=html&source=placeapi_v2', 'children': [], 'lat': 32.05542120142785, 'lng': 118.7235910240177}}"
"{'name': '青奥之家', 'location': {'lat': 32.03421720727437, 'lng': 118.71163181360255}, 'address': '扬子江大道222号万景园内11栋怡园', 'province': '江苏省', 'city': '南京市', 'area': '建邺区', 'street_id': 'f3b55fc114b1025a00ff2d61', 'telephone': '(025)86271552', 'detail': 1, 'uid': 'f3b55fc114b1025a00ff2d61', 'detail_info': {'tag': '旅游景点;风景区', 'type': 'scope', 'detail_url': 'http://api.map.baidu.com/place/detail?uid=f3b55fc114b1025a00ff2d61&output=html&source=placeapi_v2', 'overall_rating': '4.5', 'image_num': '1', 'comment_num': '4', 'children': [], 'lat': 32.03421720727437, 'lng': 118.71163181360255}}"
"{'name': '观江风情区', 'location': {'lat': 32.0398734148969, 'lng': 118.71320230587732}, 'address': '南京市建邺区扬子江大道228号滨江公园万景园内', 'province': '江苏省', 'city': '南京市', 'area': '建邺区', 'street_id': 'f5d79a2dda60b80b83a00cf2', 'detail': 1, 'uid': 'f5d79a2dda60b80b83a00cf2', 'detail_info': {'tag': '旅游景点;景点', 'type': 'scope', 'detail_url': 'http://api.map.baidu.com/place/detail?uid=f5d79a2dda60b80b83a00cf2&output=html&source=placeapi_v2', 'overall_rating': '0.0', 'children': [], 'lat': 32.0398734148969, 'lng': 118.71320230587732}}"
"{'name': '法式乡村风情区', 'location': {'lat': 32.03614152372698, 'lng': 118.71098480095088}, 'address': '扬子江大道222号', 'province': '江苏省', 'city': '南京市', 'area': '建邺区', 'detail': 1, 'uid': '8acd77817b2ff9e915c90566', 'detail_info': {'tag': '旅游景点;景点', 'type': 'scope', 'detail_url': 'http://api.map.baidu.com/place/detail?uid=8acd77817b2ff9e915c90566&output=html&source=placeapi_v2', 'overall_rating': '0.0', 'children': [], 'lat': 32.03614152372698, 'lng': 118.71098480095088}}"
"{'name': '乾隆书画', 'location': {'lat': 32.049049706551706, 'lng': 118.7269831389593}, 'address': '江苏省南京市鼓楼区清凉门大街296号附近', 'province': '江苏省', 'city': '南京市', 'area': '鼓楼区', 'detail': 1, 'uid': 'a8ab6d899705d2b076e5b65d', 'detail_info': {'tag': '旅游景点', 'type': 'scope', 'detail_url': 'http://api.map.baidu.com/place/detail?uid=a8ab6d899705d2b076e5b65d&output=html&source=placeapi_v2', 'children': [], 'lat': 32.049049706551706, 'lng': 118.7269831389593}}"
"{'name': '西亚树林', 'location': {'lat': 32.04148062347407, 'lng': 118.71516622636923}, 'address': '南京市建邺区扬子江大道228号滨江公园万景园内', 'province': '江苏省', 'city': '南京市', 'area': '建邺区', 'street_id': '8dd65ecb3add2b9b43ab9a9b', 'detail': 1, 'uid': '8dd65ecb3add2b9b43ab9a9b', 'detail_info': {'tag': '旅游景点;景点', 'navi_location': {'lng': 118.72701795674, 'lat': 32.045727394505}, 'type': 'scope', 'detail_url': 'http://api.map.baidu.com/place/detail?uid=8dd65ecb3add2b9b43ab9a9b&output=html&source=placeapi_v2', 'overall_rating': '0.0', 'children': [], 'lat': 32.04148062347407, 'lng': 118.71516622636923}}"
"{'name': '苏宁睿城营销展示中心', 'location': {'lat': 32.033552416328085, 'lng': 118.71863048319751}, 'address': '江苏省南京市鼓楼区集庆门大街268号苏宁慧谷', 'province': '江苏省', 'city': '南京市', 'area': '鼓楼区', 'street_id': '5b3159302b47da1db05c6ad0', 'detail': 1, 'uid': '5b3159302b47da1db05c6ad0', 'detail_info': {'tag': '文化传媒;展览馆', 'navi_location': {'lng': 118.72954186734, 'lat': 32.037977863028}, 'type': 'enterprise', 'detail_url': 'http://api.map.baidu.com/place/detail?uid=5b3159302b47da1db05c6ad0&output=html&source=placeapi_v2', 'children': [], 'lat': 32.033552416328085, 'lng': 118.71863048319751}}"
"{'name': '欧洲油画展览馆', 'location': {'lat': 32.03681915026112, 'lng': 118.71311812701173}, 'address': '集庆门大街与扬子江大道交叉口北200米', 'province': '江苏省', 'city': '南京市', 'area': '建邺区', 'street_id': 'deb84440c7b525ef4afd3f82', 'detail': 1, 'uid': 'deb84440c7b525ef4afd3f82', 'detail_info': {'tag': '文化传媒;展览馆', 'type': 'enterprise', 'detail_url': 'http://api.map.baidu.com/place/detail?uid=deb84440c7b525ef4afd3f82&output=html&source=placeapi_v2', 'children': [], 'lat': 32.03681915026112, 'lng': 118.71311812701173}}"
"{'name': '万景园艺术博物馆', 'location': {'lat': 32.03473762924423, 'lng': 118.71190262333543}, 'address': '扬子江大道与扬子江大道立交交叉口北150米', 'province': '江苏省', 'city': '南京市', 'area': '建邺区', 'detail': 1, 'uid': '96c5b7e3539ddf47e507384c', 'detail_info': {'tag': '旅游景点;博物馆', 'type': 'scope', 'detail_url': 'http://api.map.baidu.com/place/detail?uid=96c5b7e3539ddf47e507384c&output=html&source=placeapi_v2', 'overall_rating': '5.0', 'comment_num': '1', 'children': [], 'lat': 32.03473762924423, 'lng': 118.71190262333543}}"
"{'name': '升龙公园道桦园', 'location': {'lat': 32.04825441391126, 'lng': 118.70821617017405}, 'address': '江苏省南京市建邺区文武街27号', 'province': '江苏省', 'city': '南京市', 'area': '建邺区', 'street_id': 'c96b20794a0e9b23b5f42ffb', 'detail': 1, 'uid': 'c96b20794a0e9b23b5f42ffb', 'detail_info': {'tag': '房地产;住宅区', 'navi_location': {'lng': 118.719011249, 'lat': 32.051715212479}, 'type': 'house', 'detail_url': 'http://api.map.baidu.com/place/detail?uid=c96b20794a0e9b23b5f42ffb&output=html&source=placeapi_v2', 'children': [], 'lat': 32.04825441391126, 'lng': 118.70821617017405}}"
"{'name': '升龙公园道桂园', 'location': {'lat': 32.045280863868214, 'lng': 118.70818060769733}, 'address': '中新大道与葡园路交叉口东北100米', 'province': '江苏省', 'city': '南京市', 'area': '建邺区', 'street_id': '9126737713700c0af33cba40', 'detail': 1, 'uid': '9126737713700c0af33cba40', 'detail_info': {'tag': '房地产;住宅区', 'navi_location': {'lng': 118.7196990638, 'lat': 32.049052839591}, 'type': 'house', 'detail_url': 'http://api.map.baidu.com/place/detail?uid=9126737713700c0af33cba40&output=html&source=placeapi_v2', 'children': [], 'lat': 32.045280863868214, 'lng': 118.70818060769733}}"
"{'name': '升龙公园道榕园', 'location': {'lat': 32.046825696435604, 'lng': 118.7070721681261}, 'address': '江苏省南京市建邺区升龙公园道(中新大道西100米)', 'province': '江苏省', 'city': '南京市', 'area': '建邺区', 'street_id': '277597d1488338aadeee8b8d', 'detail': 1, 'uid': '277597d1488338aadeee8b8d', 'detail_info': {'tag': '房地产;住宅区', 'navi_location': {'lng': 118.71893062632, 'lat': 32.051590060769}, 'type': 'house', 'detail_url': 'http://api.map.baidu.com/place/detail?uid=277597d1488338aadeee8b8d&output=html&source=placeapi_v2', 'children': [], 'lat': 32.046825696435604, 'lng': 118.7070721681261}}"
"{'name': '国民政府中央广播电台旧址', 'location': {'lat': 32.038806381985886, 'lng': 118.72673404075417}, 'address': '江苏省南京市鼓楼区江东门北街165号', 'province': '江苏省', 'city': '南京市', 'area': '鼓楼区', 'detail': 1, 'uid': 'f3abbf1521152a53ab175aa5', 'detail_info': {'tag': '文化传媒;广播电视', 'type': 'enterprise', 'detail_url': 'http://api.map.baidu.com/place/detail?uid=f3abbf1521152a53ab175aa5&output=html&source=placeapi_v2', 'overall_rating': '3.0', 'comment_num': '2', 'children': [], 'lat': 32.038806381985886, 'lng': 118.72673404075417}}"
"{'name': '升龙公园道西区', 'location': {'lat': 32.048309440501455, 'lng': 118.70757926035475}, 'address': '江苏省南京市建邺区升龙公园道(文武街北50米)', 'province': '江苏省', 'city': '南京市', 'area': '建邺区', 'detail': 1, 'uid': '45a786897d047fa00c0a70f3', 'detail_info': {'tag': '房地产;住宅区', 'type': 'house', 'detail_url': 'http://api.map.baidu.com/place/detail?uid=45a786897d047fa00c0a70f3&output=html&source=placeapi_v2', 'children': [], 'lat': 32.048309440501455, 'lng': 118.70757926035475}}"
"{'name': '麦芬特美术馆(龙江店)', 'location': {'lat': 32.05184337987829, 'lng': 118.72569811812112}, 'address': '江苏省南京市鼓楼区湘江路32号J52教育广场3楼', 'province': '江苏省', 'city': '南京市', 'area': '鼓楼区', 'detail': 1, 'uid': '60937e6c41186a8c744ff10b', 'detail_info': {'tag': '文化传媒;美术馆', 'navi_location': {'lng': 118.7374440004, 'lat': 32.055418020703}, 'type': 'enterprise', 'detail_url': 'http://api.map.baidu.com/place/detail?uid=60937e6c41186a8c744ff10b&output=html&source=placeapi_v2', 'overall_rating': '5.0', 'comment_num': '2', 'children': [], 'lat': 32.05184337987829, 'lng': 118.72569811812112}}"
"{'name': '品润艺术馆', 'location': {'lat': 32.03396644443077, 'lng': 118.72285435201542}, 'address': '南京市鼓楼区清江南路7号越洋国际218室', 'province': '江苏省', 'city': '南京市', 'area': '鼓楼区', 'street_id': '3a6142177bb44faf3ce231df', 'telephone': '(025)85652515', 'detail': 1, 'uid': '3a6142177bb44faf3ce231df', 'detail_info': {'tag': '文化传媒;美术馆', 'type': 'enterprise', 'detail_url': 'http://api.map.baidu.com/place/detail?uid=3a6142177bb44faf3ce231df&output=html&source=placeapi_v2', 'children': [], 'lat': 32.03396644443077, 'lng': 118.72285435201542}}"
"{'name': '长江南京段展示馆', 'location': {'lat': 32.03948060429949, 'lng': 118.71489495948707}, 'address': '扬子江大道222号', 'province': '江苏省', 'city': '南京市', 'area': '建邺区', 'street_id': '000ae5bcbfb92828f4e73b04', 'detail': 1, 'uid': '000ae5bcbfb92828f4e73b04', 'detail_info': {'tag': '文化传媒;展览馆', 'type': 'enterprise', 'detail_url': 'http://api.map.baidu.com/place/detail?uid=000ae5bcbfb92828f4e73b04&output=html&source=placeapi_v2', 'children': [], 'lat': 32.03948060429949, 'lng': 118.71489495948707}}"
"{'name': '渡江胜利纪念馆', 'location': {'lat': 32.07579274424094, 'lng': 118.72618151792074}, 'address': '南京市鼓楼区渡江路1号', 'province': '江苏省', 'city': '南京市', 'area': '鼓楼区', 'street_id': '869aea264d899daa88b98875', 'telephone': '(025)58719423,(025)84649423', 'detail': 1, 'uid': '869aea264d899daa88b98875', 'detail_info': {'tag': '旅游景点;文物古迹', 'navi_location': {'lng': 118.73880336211, 'lat': 32.078710303359}, 'type': 'scope', 'detail_url': 'http://api.map.baidu.com/place/detail?uid=869aea264d899daa88b98875&output=html&source=placeapi_v2', 'overall_rating': '4.7', 'comment_num': '131', 'children': [], 'lat': 32.07579274424094, 'lng': 118.72618151792074}}"
"{'name': '天妃古庙', 'location': {'lat': 32.06142609153886, 'lng': 118.72562339440458}, 'address': '漓江路57', 'province': '江苏省', 'city': '南京市', 'area': '鼓楼区', 'street_id': 'e5609be4b4fa2970f11937b4', 'detail': 1, 'uid': 'e5609be4b4fa2970f11937b4', 'detail_info': {'tag': '旅游景点;景点', 'navi_location': {'lng': 118.74284191911, 'lat': 32.067565484458}, 'type': 'scope', 'detail_url': 'http://api.map.baidu.com/place/detail?uid=e5609be4b4fa2970f11937b4&output=html&source=placeapi_v2', 'overall_rating': '3.0', 'comment_num': '1', 'children': [], 'lat': 32.06142609153886, 'lng': 118.72562339440458}}"
"{'name': '航海时光', 'location': {'lat': 32.060719905608245, 'lng': 118.72452053179025}, 'address': '扬子江大道与草场门大街交叉口西北150米', 'province': '江苏省', 'city': '南京市', 'area': '鼓楼区', 'street_id': '6bde755648f39da6d13ce318', 'detail': 1, 'uid': '6bde755648f39da6d13ce318', 'detail_info': {'tag': '旅游景点;风景区', 'type': 'scope', 'detail_url': 'http://api.map.baidu.com/place/detail?uid=6bde755648f39da6d13ce318&output=html&source=placeapi_v2', 'children': [], 'lat': 32.060719905608245, 'lng': 118.72452053179025}}"
"{'name': '渡江战役总前委', 'location': {'lat': 32.075236750705386, 'lng': 118.72647958863685}, 'address': '南京市鼓楼区渡江路与郑和南路交叉路口往西约200米(渡江胜利纪念馆)', 'province': '江苏省', 'city': '南京市', 'area': '鼓楼区', 'detail': 1, 'uid': '3712916b8131f34e26d2bba6', 'detail_info': {'tag': '旅游景点;景点', 'type': 'scope', 'detail_url': 'http://api.map.baidu.com/place/detail?uid=3712916b8131f34e26d2bba6&output=html&source=placeapi_v2', 'children': [], 'lat': 32.075236750705386, 'lng': 118.72647958863685}}"
"{'name': '宝船博览苑北区', 'location': {'lat': 32.062037337252804, 'lng': 118.72444394820465}, 'address': '江苏省南京市鼓楼区宝船博览苑北区(宝船厂遗址西)', 'province': '江苏省', 'city': '南京市', 'area': '鼓楼区', 'street_id': 'd28d866b6215054da8f0cd1a', 'detail': 1, 'uid': 'd28d866b6215054da8f0cd1a', 'detail_info': {'tag': '旅游景点;文物古迹', 'navi_location': {'lng': 118.73687464718, 'lat': 32.065596530805}, 'type': 'scope', 'detail_url': 'http://api.map.baidu.com/place/detail?uid=d28d866b6215054da8f0cd1a&output=html&source=placeapi_v2', 'children': [], 'lat': 32.062037337252804, 'lng': 118.72444394820465}}"
"{'name': '郑和铜像', 'location': {'lat': 32.062146281133366, 'lng': 118.72603266473895}, 'address': '漓江路57', 'province': '江苏省', 'city': '南京市', 'area': '鼓楼区', 'street_id': '36e0b0102dbfc94a240bd059', 'detail': 1, 'uid': '36e0b0102dbfc94a240bd059', 'detail_info': {'tag': '旅游景点;景点', 'navi_location': {'lng': 118.73707924794, 'lat': 32.065880769882}, 'type': 'scope', 'detail_url': 'http://api.map.baidu.com/place/detail?uid=36e0b0102dbfc94a240bd059&output=html&source=placeapi_v2', 'overall_rating': '0.0', 'children': [], 'lat': 32.062146281133366, 'lng': 118.72603266473895}}"
"{'name': '十二船舵', 'location': {'lat': 32.063385488381364, 'lng': 118.7276713004012}, 'address': '漓江路57', 'province': '江苏省', 'city': '南京市', 'area': '鼓楼区', 'street_id': 'e0662b93bf6e6ba21fe9994e', 'detail': 1, 'uid': 'e0662b93bf6e6ba21fe9994e', 'detail_info': {'tag': '旅游景点;景点', 'type': 'scope', 'detail_url': 'http://api.map.baidu.com/place/detail?uid=e0662b93bf6e6ba21fe9994e&output=html&source=placeapi_v2', 'children': [], 'lat': 32.063385488381364, 'lng': 118.7276713004012}}"
"{'name': '铁锚', 'location': {'lat': 32.06322554584169, 'lng': 118.72785092765157}, 'address': '漓江路57', 'province': '江苏省', 'city': '南京市', 'area': '鼓楼区', 'street_id': '2b5068aa06eb3f1bbd484236', 'detail': 1, 'uid': '2b5068aa06eb3f1bbd484236', 'detail_info': {'tag': '旅游景点;景点', 'navi_location': {'lng': 118.73913466078, 'lat': 32.067980550332}, 'type': 'scope', 'detail_url': 'http://api.map.baidu.com/place/detail?uid=2b5068aa06eb3f1bbd484236&output=html&source=placeapi_v2', 'children': [], 'lat': 32.06322554584169, 'lng': 118.72785092765157}}"
"{'name': '使节墙', 'location': {'lat': 32.063606397702195, 'lng': 118.72658217922493}, 'address': '漓江路57', 'province': '江苏省', 'city': '南京市', 'area': '鼓楼区', 'street_id': 'b2cf3576615c923d14948ea6', 'detail': 1, 'uid': 'b2cf3576615c923d14948ea6', 'detail_info': {'tag': '旅游景点;景点', 'type': 'scope', 'detail_url': 'http://api.map.baidu.com/place/detail?uid=b2cf3576615c923d14948ea6&output=html&source=placeapi_v2', 'overall_rating': '0.0', 'children': [], 'lat': 32.063606397702195, 'lng': 118.72658217922493}}"
"{'name': '水闸门', 'location': {'lat': 32.06245792054224, 'lng': 118.72652998711533}, 'address': '漓江路57', 'province': '江苏省', 'city': '南京市', 'area': '鼓楼区', 'street_id': '89f0340199dcaca20e3dda92', 'detail': 1, 'uid': '89f0340199dcaca20e3dda92', 'detail_info': {'tag': '旅游景点;景点', 'navi_location': {'lng': 118.73708329032, 'lat': 32.065947705964}, 'type': 'scope', 'detail_url': 'http://api.map.baidu.com/place/detail?uid=89f0340199dcaca20e3dda92&output=html&source=placeapi_v2', 'overall_rating': '0.0', 'children': [], 'lat': 32.06245792054224, 'lng': 118.72652998711533}}"
"{'name': '甜蜜村儿童乐园', 'location': {'lat': 32.08159581438698, 'lng': 118.72693965280025}, 'address': '江苏省南京市鼓楼区南通路118号', 'province': '江苏省', 'city': '南京市', 'area': '鼓楼区', 'street_id': 'f5b04db32289b8a060685817', 'detail': 1, 'uid': 'f5b04db32289b8a060685817', 'detail_info': {'tag': '旅游景点;游乐园', 'type': 'scope', 'detail_url': 'http://api.map.baidu.com/place/detail?uid=f5b04db32289b8a060685817&output=html&source=placeapi_v2', 'overall_rating': '5.0', 'comment_num': '2', 'children': [], 'lat': 32.08159581438698, 'lng': 118.72693965280025}}"
"{'name': '乐奥儿童微乐谷', 'location': {'lat': 32.082622937204505, 'lng': 118.72768903281573}, 'address': '江苏省南京市鼓楼区唐山路190号西60米', 'province': '江苏省', 'city': '南京市', 'area': '鼓楼区', 'detail': 1, 'uid': '6943ff3cf62d0ce5c5effb92', 'detail_info': {'tag': '旅游景点;游乐园', 'type': 'scope', 'detail_url': 'http://api.map.baidu.com/place/detail?uid=6943ff3cf62d0ce5c5effb92&output=html&source=placeapi_v2', 'image_num': '1', 'children': [], 'lat': 32.082622937204505, 'lng': 118.72768903281573}}"
"{'name': '渡江胜利纪念馆-接送点', 'location': {'lat': 32.0750068352249, 'lng': 118.72724042014997}, 'address': '渡江胜利纪念馆附近', 'province': '江苏省', 'city': '南京市', 'area': '鼓楼区', 'detail': 1, 'uid': '411ed8117f44b30588fc06ac', 'detail_info': {'tag': '交通设施;接送点', 'type': 'life', 'detail_url': 'http://api.map.baidu.com/place/detail?uid=411ed8117f44b30588fc06ac&output=html&source=placeapi_v2', 'children': [], 'lat': 32.0750068352249, 'lng': 118.72724042014997}}"
"{'name': '天后宫', 'location': {'lat': 32.03122431490973, 'lng': 118.76672617467986}, 'address': '南京市秦淮区升州路488', 'province': '江苏省', 'city': '南京市', 'area': '秦淮区', 'street_id': 'd014527b5fda4f8683a12e7c', 'detail': 1, 'uid': 'd014527b5fda4f8683a12e7c', 'detail_info': {'tag': '旅游景点;其他', 'navi_location': {'lng': 118.77833019423, 'lat': 32.035036642725}, 'type': 'scope', 'detail_url': 'http://api.map.baidu.com/place/detail?uid=d014527b5fda4f8683a12e7c&output=html&source=placeapi_v2', 'overall_rating': '4.4', 'comment_num': '20', 'children': [], 'lat': 32.03122431490973, 'lng': 118.76672617467986}}"
"{'name': '南湖公园', 'location': {'lat': 32.0295732437059, 'lng': 118.75703280056065}, 'address': '南湖东路与彩虹路交叉口', 'province': '江苏省', 'city': '南京市', 'area': '建邺区', 'street_id': 'fcc3c14bdeccb1190aa8d41f', 'telephone': '13905159745', 'detail': 1, 'uid': 'fcc3c14bdeccb1190aa8d41f', 'detail_info': {'tag': '旅游景点;公园', 'navi_location': {'lng': 118.76872965381, 'lat': 32.032427219422}, 'type': 'scope', 'detail_url': 'http://api.map.baidu.com/place/detail?uid=fcc3c14bdeccb1190aa8d41f&output=html&source=placeapi_v2', 'overall_rating': '4.2', 'comment_num': '18', 'children': [], 'lat': 32.0295732437059, 'lng': 118.75703280056065}}"
"{'name': '赏心亭', 'location': {'lat': 32.03080737985922, 'lng': 118.76363162712434}, 'address': '江苏省南京市秦淮区水西门赏心亭(水西门隧道西50米)', 'province': '江苏省', 'city': '南京市', 'area': '秦淮区', 'street_id': '3bd5f393d47ae52cfa0cade1', 'detail': 1, 'uid': '3bd5f393d47ae52cfa0cade1', 'detail_info': {'tag': '旅游景点;景点', 'navi_location': {'lng': 118.7757059456, 'lat': 32.03439136854}, 'type': 'scope', 'detail_url': 'http://api.map.baidu.com/place/detail?uid=3bd5f393d47ae52cfa0cade1&output=html&source=placeapi_v2', 'overall_rating': '4.6', 'image_num': '1', 'comment_num': '40', 'children': [], 'lat': 32.03080737985922, 'lng': 118.76363162712434}}"
"{'name': '集庆门城墙', 'location': {'lat': 32.0214407799733, 'lng': 118.76342356208346}, 'address': '集庆路267-4号附近(集庆门大街)', 'province': '江苏省', 'city': '南京市', 'area': '秦淮区', 'detail': 1, 'uid': '6af592c34862d8a7b13c8168', 'detail_info': {'tag': '旅游景点;风景区', 'navi_location': {'lng': 118.77530535344, 'lat': 32.025211140773}, 'type': 'scope', 'detail_url': 'http://api.map.baidu.com/place/detail?uid=6af592c34862d8a7b13c8168&output=html&source=placeapi_v2', 'overall_rating': '4.7', 'comment_num': '12', 'children': [], 'lat': 32.0214407799733, 'lng': 118.76342356208346}}"
"{'name': '金粟庵', 'location': {'lat': 32.02256695982835, 'lng': 118.76622611759798}, 'address': '五福街18号', 'province': '江苏省', 'city': '南京市', 'area': '秦淮区', 'street_id': 'ceb37a1794687372c9fa5f93', 'telephone': '(025)52205689', 'detail': 1, 'uid': 'ceb37a1794687372c9fa5f93', 'detail_info': {'tag': '旅游景点;文物古迹', 'navi_location': {'lng': 118.77800383445, 'lat': 32.026480046975}, 'type': 'scope', 'detail_url': 'http://api.map.baidu.com/place/detail?uid=ceb37a1794687372c9fa5f93&output=html&source=placeapi_v2', 'overall_rating': '4.2', 'comment_num': '39', 'children': [], 'lat': 32.02256695982835, 'lng': 118.76622611759798}}"
"{'name': '小戏园', 'location': {'lat': 32.02216815197925, 'lng': 118.73765724234205}, 'address': '江苏省南京市建邺区应天大街883号', 'province': '江苏省', 'city': '南京市', 'area': '建邺区', 'street_id': '37f9b189dbfc26ed3b221c6e', 'telephone': '15366030860', 'detail': 1, 'uid': '37f9b189dbfc26ed3b221c6e', 'detail_info': {'tag': '旅游景点;景点', 'navi_location': {'lng': 118.7495548978, 'lat': 32.025889128211}, 'type': 'scope', 'detail_url': 'http://api.map.baidu.com/place/detail?uid=37f9b189dbfc26ed3b221c6e&output=html&source=placeapi_v2', 'overall_rating': '0.0', 'image_num': '4', 'comment_num': '1', 'children': [], 'lat': 32.02216815197925, 'lng': 118.73765724234205}}"
"{'name': '凤凰台遗址', 'location': {'lat': 32.01903639086258, 'lng': 118.76539416760643}, 'address': '凤游寺47-2号', 'province': '江苏省', 'city': '南京市', 'area': '秦淮区', 'street_id': '1e42478fc45fcd24b6147fda', 'detail': 1, 'uid': '1e42478fc45fcd24b6147fda', 'detail_info': {'tag': '旅游景点;文物古迹', 'type': 'scope', 'detail_url': 'http://api.map.baidu.com/place/detail?uid=1e42478fc45fcd24b6147fda&output=html&source=placeapi_v2', 'overall_rating': '4.0', 'comment_num': '6', 'children': [], 'lat': 32.01903639086258, 'lng': 118.76539416760643}}"
"{'name': '应天池', 'location': {'lat': 32.01650435438809, 'lng': 118.75035992591515}, 'address': '应天大街767-20', 'province': '江苏省', 'city': '南京市', 'area': '建邺区', 'street_id': '083a55fabf129360256e98e3', 'detail': 1, 'uid': '083a55fabf129360256e98e3', 'detail_info': {'tag': '旅游景点;景点', 'type': 'scope', 'detail_url': 'http://api.map.baidu.com/place/detail?uid=083a55fabf129360256e98e3&output=html&source=placeapi_v2', 'overall_rating': '2.3', 'image_num': '23', 'comment_num': '11', 'children': [], 'lat': 32.01650435438809, 'lng': 118.75035992591515}}"
"{'name': '凤游寺', 'location': {'lat': 32.01970547346505, 'lng': 118.76545017960876}, 'address': '南京市秦淮区集庆路167号', 'province': '江苏省', 'city': '南京市', 'area': '秦淮区', 'street_id': 'b23ba82c8864700c3a13fda2', 'detail': 1, 'uid': 'b23ba82c8864700c3a13fda2', 'detail_info': {'tag': '旅游景点;文物古迹', 'navi_location': {'lng': 118.7771866603, 'lat': 32.023665427599}, 'type': 'scope', 'detail_url': 'http://api.map.baidu.com/place/detail?uid=b23ba82c8864700c3a13fda2&output=html&source=placeapi_v2', 'overall_rating': '4.5', 'comment_num': '6', 'children': [], 'lat': 32.01970547346505, 'lng': 118.76545017960876}}"
"{'name': '凤凰台上', 'location': {'lat': 32.01644777648733, 'lng': 118.7642857461969}, 'address': '江苏省南京市秦淮区国家水利风景区内', 'province': '江苏省', 'city': '南京市', 'area': '秦淮区', 'street_id': 'f8239b34ba3e4a9314c8f6d4', 'detail': 1, 'uid': 'f8239b34ba3e4a9314c8f6d4', 'detail_info': {'tag': '旅游景点;景点', 'type': 'scope', 'detail_url': 'http://api.map.baidu.com/place/detail?uid=f8239b34ba3e4a9314c8f6d4&output=html&source=placeapi_v2', 'children': [], 'lat': 32.01644777648733, 'lng': 118.7642857461969}}"
"{'name': '国家水利风景区', 'location': {'lat': 32.01759836898494, 'lng': 118.76342137164093}, 'address': '双塘街道西干长巷271号', 'province': '江苏省', 'city': '南京市', 'area': '秦淮区', 'street_id': 'd0acf9cf3c7bc66e7ec876d8', 'detail': 1, 'uid': 'd0acf9cf3c7bc66e7ec876d8', 'detail_info': {'tag': '旅游景点;风景区', 'navi_location': {'lng': 118.77316996716, 'lat': 32.020810204733}, 'type': 'scope', 'detail_url': 'http://api.map.baidu.com/place/detail?uid=d0acf9cf3c7bc66e7ec876d8&output=html&source=placeapi_v2', 'overall_rating': '5.0', 'comment_num': '2', 'children': [], 'lat': 32.01759836898494, 'lng': 118.76342137164093}}"
"{'name': '光年公园', 'location': {'lat': 32.02467467446733, 'lng': 118.73447886217062}, 'address': '江苏省南京市建邺区月安街190号东北90米', 'province': '江苏省', 'city': '南京市', 'area': '建邺区', 'street_id': 'ee362ce647834c5da8f0cdef', 'detail': 1, 'uid': 'ee362ce647834c5da8f0cdef', 'detail_info': {'tag': '旅游景点;公园', 'type': 'scope', 'detail_url': 'http://api.map.baidu.com/place/detail?uid=ee362ce647834c5da8f0cdef&output=html&source=placeapi_v2', 'overall_rating': '4.4', 'comment_num': '43', 'children': [], 'lat': 32.02467467446733, 'lng': 118.73447886217062}}"
"{'name': '透明博物馆', 'location': {'lat': 32.02536645589603, 'lng': 118.7350520951686}, 'address': '金鹰天地F201', 'province': '江苏省', 'city': '南京市', 'area': '建邺区', 'detail': 1, 'uid': '1c9e463eb2b6cb8902897255', 'detail_info': {'tag': '旅游景点;博物馆', 'type': 'scope', 'detail_url': 'http://api.map.baidu.com/place/detail?uid=1c9e463eb2b6cb8902897255&output=html&source=placeapi_v2', 'overall_rating': '4.5', 'comment_num': '13', 'children': [], 'lat': 32.02536645589603, 'lng': 118.7350520951686}}"
"{'name': '南京秦淮河房车露营公园', 'location': {'lat': 32.02741955119621, 'lng': 118.76193596103894}, 'address': '江苏省南京市建邺区长虹路130', 'province': '江苏省', 'city': '南京市', 'area': '建邺区', 'street_id': 'c1866f141ff062d251e5c546', 'detail': 1, 'uid': 'c1866f141ff062d251e5c546', 'detail_info': {'tag': '旅游景点;公园', 'navi_location': {'lng': 118.77347873902, 'lat': 32.031286240089}, 'type': 'scope', 'detail_url': 'http://api.map.baidu.com/place/detail?uid=c1866f141ff062d251e5c546&output=html&source=placeapi_v2', 'overall_rating': '0.0', 'comment_num': '2', 'children': [], 'lat': 32.02741955119621, 'lng': 118.76193596103894}}"
"{'name': '江南丝绸文化博物馆', 'location': {'lat': 32.027814613986536, 'lng': 118.76642746210489}, 'address': '江苏省南京市秦淮区来凤街国创园41栋', 'province': '江苏省', 'city': '南京市', 'area': '秦淮区', 'street_id': '89538a5d2a0ac2b40b69d9e4', 'telephone': '(025)86890186', 'detail': 1, 'uid': '89538a5d2a0ac2b40b69d9e4', 'detail_info': {'tag': '旅游景点;博物馆', 'navi_location': {'lng': 118.77833049337, 'lat': 32.031656973596}, 'type': 'scope', 'detail_url': 'http://api.map.baidu.com/place/detail?uid=89538a5d2a0ac2b40b69d9e4&output=html&source=placeapi_v2', 'overall_rating': '4.4', 'comment_num': '34', 'children': [], 'lat': 32.027814613986536, 'lng': 118.76642746210489}}"
"{'name': '爷孙乐', 'location': {'lat': 32.02968172856287, 'lng': 118.75092390395834}, 'address': '南湖东路14号', 'province': '江苏省', 'city': '南京市', 'area': '建邺区', 'street_id': 'a018a3f93ed01081b42655d6', 'detail': 1, 'uid': 'a018a3f93ed01081b42655d6', 'detail_info': {'tag': '旅游景点;公园', 'navi_location': {'lng': 118.76252160815, 'lat': 32.033348431521}, 'type': 'scope', 'detail_url': 'http://api.map.baidu.com/place/detail?uid=a018a3f93ed01081b42655d6&output=html&source=placeapi_v2', 'overall_rating': '5.0', 'comment_num': '2', 'children': [], 'lat': 32.02968172856287, 'lng': 118.75092390395834}}"
"{'name': '茶文化博物馆(赏心亭店)', 'location': {'lat': 32.030903850782046, 'lng': 118.76354906440449}, 'address': '江苏省南京市秦淮区双塘凤台路8号-1-3F', 'province': '江苏省', 'city': '南京市', 'area': '秦淮区', 'street_id': '316e46541f4541f7a20464fe', 'telephone': '(025)86285757', 'detail': 1, 'uid': '316e46541f4541f7a20464fe', 'detail_info': {'tag': '旅游景点;博物馆', 'navi_location': {'lng': 118.77571875723, 'lat': 32.034508584472}, 'type': 'scope', 'detail_url': 'http://api.map.baidu.com/place/detail?uid=316e46541f4541f7a20464fe&output=html&source=placeapi_v2', 'overall_rating': '4.2', 'comment_num': '16', 'children': [], 'lat': 32.030903850782046, 'lng': 118.76354906440449}}"
"{'name': '沁园', 'location': {'lat': 32.00788564744754, 'lng': 118.74033972716725}, 'address': '南京市建邺区梦都路30', 'province': '江苏省', 'city': '南京市', 'area': '建邺区', 'street_id': 'b9f07c7eb2323c433586f4a3', 'detail': 1, 'uid': 'b9f07c7eb2323c433586f4a3', 'detail_info': {'tag': '旅游景点;风景区', 'navi_location': {'lng': 118.75204268753, 'lat': 32.011332811972}, 'type': 'scope', 'detail_url': 'http://api.map.baidu.com/place/detail?uid=b9f07c7eb2323c433586f4a3&output=html&source=placeapi_v2', 'overall_rating': '0.0', 'children': [], 'lat': 32.00788564744754, 'lng': 118.74033972716725}}"
"{'name': '南京第二机床厂厂房旧址', 'location': {'lat': 32.027735488546206, 'lng': 118.76508370702146}, 'address': '菱角市66号19号楼', 'province': '江苏省', 'city': '南京市', 'area': '秦淮区', 'detail': 1, 'uid': '3718cd1df0ea7852250bd028', 'detail_info': {'tag': '旅游景点;其他', 'type': 'scope', 'detail_url': 'http://api.map.baidu.com/place/detail?uid=3718cd1df0ea7852250bd028&output=html&source=placeapi_v2', 'children': [], 'lat': 32.027735488546206, 'lng': 118.76508370702146}}"
"{'name': '江苏省方志馆', 'location': {'lat': 32.00894117650906, 'lng': 118.73563646253031}, 'address': '建邺区梦都大街50号', 'province': '江苏省', 'city': '南京市', 'area': '建邺区', 'street_id': '19f343c8214af35a4007c176', 'telephone': '(025)86383562,(025)86383565', 'detail': 1, 'uid': '19f343c8214af35a4007c176', 'detail_info': {'tag': '旅游景点;文物古迹', 'navi_location': {'lng': 118.74744884838, 'lat': 32.012632020362}, 'type': 'scope', 'detail_url': 'http://api.map.baidu.com/place/detail?uid=19f343c8214af35a4007c176&output=html&source=placeapi_v2', 'overall_rating': '0.0', 'children': [], 'lat': 32.00894117650906, 'lng': 118.73563646253031}}"
"{'name': '古瓦官寺', 'location': {'lat': 32.01991190393278, 'lng': 118.76734815940284}, 'address': '双塘街道花露北岗12号', 'province': '江苏省', 'city': '南京市', 'area': '秦淮区', 'street_id': 'fa835ce2d4411bb6e912e4a4', 'detail': 1, 'uid': 'fa835ce2d4411bb6e912e4a4', 'detail_info': {'tag': '旅游景点;寺庙', 'navi_location': {'lng': 118.77924031875, 'lat': 32.023679754618}, 'type': 'scope', 'detail_url': 'http://api.map.baidu.com/place/detail?uid=fa835ce2d4411bb6e912e4a4&output=html&source=placeapi_v2', 'overall_rating': '4.5', 'comment_num': '15', 'children': [], 'lat': 32.01991190393278, 'lng': 118.76734815940284}}"
"{'name': '金粟亭', 'location': {'lat': 32.022312900682905, 'lng': 118.7661719575412}, 'address': '五福街18号', 'province': '江苏省', 'city': '南京市', 'area': '秦淮区', 'detail': 1, 'uid': 'c3c786d635465d67d8d891bf', 'detail_info': {'tag': '旅游景点;景点', 'type': 'scope', 'detail_url': 'http://api.map.baidu.com/place/detail?uid=c3c786d635465d67d8d891bf&output=html&source=placeapi_v2', 'image_num': '1', 'children': [], 'lat': 32.022312900682905, 'lng': 118.7661719575412}}"
"{'name': '动物海洋主题乐园', 'location': {'lat': 32.02521036304777, 'lng': 118.73516016879856}, 'address': '南京市建邺区应天大街888号', 'province': '江苏省', 'city': '南京市', 'area': '建邺区', 'detail': 1, 'uid': 'b753e49e195e90963904b175', 'detail_info': {'tag': '旅游景点;游乐园', 'type': 'scope', 'detail_url': 'http://api.map.baidu.com/place/detail?uid=b753e49e195e90963904b175&output=html&source=placeapi_v2', 'children': [], 'lat': 32.02521036304777, 'lng': 118.73516016879856}}"
"{'name': '集庆门游园', 'location': {'lat': 32.02152528680819, 'lng': 118.76367596069959}, 'address': '江苏省南京市秦淮区集庆路265号', 'province': '江苏省', 'city': '南京市', 'area': '秦淮区', 'detail': 1, 'uid': '6e1418a1195e905c15c90582', 'detail_info': {'tag': '旅游景点;公园', 'type': 'scope', 'detail_url': 'http://api.map.baidu.com/place/detail?uid=6e1418a1195e905c15c90582&output=html&source=placeapi_v2', 'overall_rating': '3.4', 'comment_num': '7', 'children': [], 'lat': 32.02152528680819, 'lng': 118.76367596069959}}"
"{'name': '南京女儿国', 'location': {'lat': 32.01268892427148, 'lng': 118.75011079879458}, 'address': '新城科技园怡康街18号涟城里商业街2A', 'province': '江苏省', 'city': '南京市', 'area': '建邺区', 'detail': 1, 'uid': 'a9f472d0d873ab256f4760b9', 'detail_info': {'tag': '旅游景点', 'type': 'scope', 'detail_url': 'http://api.map.baidu.com/place/detail?uid=a9f472d0d873ab256f4760b9&output=html&source=placeapi_v2', 'children': [], 'lat': 32.01268892427148, 'lng': 118.75011079879458}}"
"{'name': '南京钰缘泉博物馆', 'location': {'lat': 32.02149077507193, 'lng': 118.76331189486885}, 'address': '秦淮区集庆路来凤街1号', 'province': '江苏省', 'city': '南京市', 'area': '秦淮区', 'street_id': '8db60701d2a60059ab0dd8ba', 'detail': 1, 'uid': '8db60701d2a60059ab0dd8ba', 'detail_info': {'tag': '旅游景点;博物馆', 'type': 'scope', 'detail_url': 'http://api.map.baidu.com/place/detail?uid=8db60701d2a60059ab0dd8ba&output=html&source=placeapi_v2', 'overall_rating': '5.0', 'comment_num': '1', 'children': [], 'lat': 32.02149077507193, 'lng': 118.76331189486885}}"
"{'name': '晓庄摄影纪念馆', 'location': {'lat': 32.02147667812004, 'lng': 118.74677345575829}, 'address': '所街115号', 'province': '江苏省', 'city': '南京市', 'area': '建邺区', 'street_id': '2be00824f2e9bafac7f50dca', 'detail': 1, 'uid': '2be00824f2e9bafac7f50dca', 'detail_info': {'tag': '旅游景点;文物古迹', 'type': 'scope', 'detail_url': 'http://api.map.baidu.com/place/detail?uid=2be00824f2e9bafac7f50dca&output=html&source=placeapi_v2', 'children': [], 'lat': 32.02147667812004, 'lng': 118.74677345575829}}"
"{'name': '阳洼山', 'location': {'lat': 32.007036871296165, 'lng': 118.76725577923567}, 'address': '雨花西路180号附近', 'province': '江苏省', 'city': '南京市', 'area': '雨花台区', 'street_id': '067e3fc41930832402294f14', 'detail': 1, 'uid': '067e3fc41930832402294f14', 'detail_info': {'tag': '旅游景点;景点', 'type': 'scope', 'detail_url': 'http://api.map.baidu.com/place/detail?uid=067e3fc41930832402294f14&output=html&source=placeapi_v2', 'children': [], 'lat': 32.007036871296165, 'lng': 118.76725577923567}}"
"{'name': '江苏省绿色建筑与生态智慧城区展示中心', 'location': {'lat': 32.02135937069193, 'lng': 118.73399625342363}, 'address': '云锦路270号附近', 'province': '江苏省', 'city': '南京市', 'area': '建邺区', 'street_id': '6e98f4a3ea9110b3f603b86e', 'detail': 1, 'uid': '6e98f4a3ea9110b3f603b86e', 'detail_info': {'tag': '文化传媒;展览馆', 'navi_location': {'lng': 118.74676099519, 'lat': 32.024956210863}, 'type': 'enterprise', 'detail_url': 'http://api.map.baidu.com/place/detail?uid=6e98f4a3ea9110b3f603b86e&output=html&source=placeapi_v2', 'children': [], 'lat': 32.02135937069193, 'lng': 118.73399625342363}}"
"{'name': '来凤一号艺术汇馆', 'location': {'lat': 32.02151277558926, 'lng': 118.76465762603735}, 'address': '来凤街1-1号附近', 'province': '江苏省', 'city': '南京市', 'area': '秦淮区', 'street_id': '9bac6c4144e93dca354aae30', 'telephone': '(025)86895972', 'detail': 1, 'uid': '9bac6c4144e93dca354aae30', 'detail_info': {'tag': '文化传媒;美术馆', 'navi_location': {'lng': 118.77649904606, 'lat': 32.025409190749}, 'type': 'enterprise', 'detail_url': 'http://api.map.baidu.com/place/detail?uid=9bac6c4144e93dca354aae30&output=html&source=placeapi_v2', 'children': [], 'lat': 32.02151277558926, 'lng': 118.76465762603735}}"
"{'name': '凤仪堂', 'location': {'lat': 32.02160690138631, 'lng': 118.76453888531442}, 'address': '秦淮区来凤街1号', 'province': '江苏省', 'city': '南京市', 'area': '秦淮区', 'street_id': '329a03d14bd94bd8fd0eb04c', 'detail': 1, 'uid': '329a03d14bd94bd8fd0eb04c', 'detail_info': {'tag': '文化传媒;展览馆', 'type': 'enterprise', 'detail_url': 'http://api.map.baidu.com/place/detail?uid=329a03d14bd94bd8fd0eb04c&output=html&source=placeapi_v2', 'children': [], 'lat': 32.02160690138631, 'lng': 118.76453888531442}}"
"{'name': '河西新城展示馆', 'location': {'lat': 32.02297039031049, 'lng': 118.73489079002526}, 'address': '应天大街901号', 'province': '江苏省', 'city': '南京市', 'area': '建邺区', 'street_id': 'd2def2a36f16a41e0b1cc719', 'detail': 1, 'uid': 'd2def2a36f16a41e0b1cc719', 'detail_info': {'tag': '文化传媒;展览馆', 'navi_location': {'lng': 118.74669588061, 'lat': 32.026665438012}, 'type': 'enterprise', 'detail_url': 'http://api.map.baidu.com/place/detail?uid=d2def2a36f16a41e0b1cc719&output=html&source=placeapi_v2', 'overall_rating': '0.0', 'children': [], 'lat': 32.02297039031049, 'lng': 118.73489079002526}}"
"{'name': '江南造币博物馆', 'location': {'lat': 32.026428536538994, 'lng': 118.76502340912549}, 'address': '江苏省南京市秦淮区来凤街66号附近', 'province': '江苏省', 'city': '南京市', 'area': '秦淮区', 'detail': 1, 'uid': '52d21cd968000347e6e96505', 'detail_info': {'tag': '旅游景点;博物馆', 'type': 'scope', 'detail_url': 'http://api.map.baidu.com/place/detail?uid=52d21cd968000347e6e96505&output=html&source=placeapi_v2', 'children': [], 'lat': 32.026428536538994, 'lng': 118.76502340912549}}"
"{'name': '墨古斋', 'location': {'lat': 32.02251958781048, 'lng': 118.7664162567707}, 'address': '五福街27号', 'province': '江苏省', 'city': '南京市', 'area': '秦淮区', 'street_id': '6cec94dde3e8e4e40b1cc7ae', 'telephone': '13914708256,18120132510', 'detail': 1, 'uid': '6cec94dde3e8e4e40b1cc7ae', 'detail_info': {'tag': '购物;商铺', 'type': 'shopping', 'detail_url': 'http://api.map.baidu.com/place/detail?uid=6cec94dde3e8e4e40b1cc7ae&output=html&source=placeapi_v2', 'price': '0.0', 'overall_rating': '5.0', 'comment_num': '1', 'children': [], 'lat': 32.02251958781048, 'lng': 118.7664162567707}}"
"{'name': '老城南展览馆', 'location': {'lat': 32.030733128656074, 'lng': 118.7636457770892}, 'address': '江苏省南京市秦淮区水西门凤台路赏心亭(建宇大厦南200米)', 'province': '江苏省', 'city': '南京市', 'area': '秦淮区', 'street_id': 'fb226e3b07c2ae27d5b74e01', 'detail': 1, 'uid': 'fb226e3b07c2ae27d5b74e01', 'detail_info': {'tag': '文化传媒;展览馆', 'navi_location': {'lng': 118.77583196798, 'lat': 32.034584763287}, 'type': 'enterprise', 'detail_url': 'http://api.map.baidu.com/place/detail?uid=fb226e3b07c2ae27d5b74e01&output=html&source=placeapi_v2', 'children': [], 'lat': 32.030733128656074, 'lng': 118.7636457770892}}"
"{'name': '氢联路演中心', 'location': {'lat': 32.00833898736274, 'lng': 118.7362843311045}, 'address': '江苏省南京市建邺区梦都大街50号江苏科技工作者活动中心3楼', 'province': '江苏省', 'city': '南京市', 'area': '建邺区', 'street_id': 'dc33034ecdb0708f35b06c9e', 'telephone': '4008594180', 'detail': 1, 'uid': 'dc33034ecdb0708f35b06c9e', 'detail_info': {'tag': '文化传媒;展览馆', 'type': 'enterprise', 'detail_url': 'http://api.map.baidu.com/place/detail?uid=dc33034ecdb0708f35b06c9e&output=html&source=placeapi_v2', 'price': '0.0', 'children': [], 'lat': 32.00833898736274, 'lng': 118.7362843311045}}"
"{'name': '黄山路社区非遗展览馆(风筝展)', 'location': {'lat': 32.0132252995271, 'lng': 118.74270741208731}, 'address': '南京市建邺区白鹭东街与嵩山路交叉路口西北侧(苏建艳阳居)', 'province': '江苏省', 'city': '南京市', 'area': '建邺区', 'street_id': 'fd8000968840f1b5931fc9e3', 'detail': 1, 'uid': 'fd8000968840f1b5931fc9e3', 'detail_info': {'tag': '文化传媒;展览馆', 'type': 'enterprise', 'detail_url': 'http://api.map.baidu.com/place/detail?uid=fd8000968840f1b5931fc9e3&output=html&source=placeapi_v2', 'children': [], 'lat': 32.0132252995271, 'lng': 118.74270741208731}}"
"{'name': '宠猫游乐园', 'location': {'lat': 32.02847460651345, 'lng': 118.7524843934226}, 'address': '江苏省南京市建邺区文体西路36号附近', 'province': '江苏省', 'city': '南京市', 'area': '建邺区', 'street_id': 'fd2fcac7b1c192efca09f071', 'detail': 1, 'uid': 'fd2fcac7b1c192efca09f071', 'detail_info': {'tag': '旅游景点;游乐园', 'type': 'scope', 'detail_url': 'http://api.map.baidu.com/place/detail?uid=fd2fcac7b1c192efca09f071&output=html&source=placeapi_v2', 'children': [], 'lat': 32.02847460651345, 'lng': 118.7524843934226}}"
"{'name': '招商展示中心', 'location': {'lat': 32.01815374192343, 'lng': 118.76306813412123}, 'address': '凤游寺52号', 'province': '江苏省', 'city': '南京市', 'area': '秦淮区', 'detail': 1, 'uid': 'f3f1dda3d1316d5db75f1ed1', 'detail_info': {'tag': '文化传媒;展览馆', 'type': 'enterprise', 'detail_url': 'http://api.map.baidu.com/place/detail?uid=f3f1dda3d1316d5db75f1ed1&output=html&source=placeapi_v2', 'children': [], 'lat': 32.01815374192343, 'lng': 118.76306813412123}}"
"{'name': '流芳楼', 'location': {'lat': 32.02488346839444, 'lng': 118.749658928019}, 'address': '南京市建邺区南湖路与康泰街交叉路口往东约150米(江苏省第二中医院)', 'province': '江苏省', 'city': '南京市', 'area': '建邺区', 'detail': 1, 'uid': '574d8a63020fa4b15e0d02ad', 'detail_info': {'type': 'life', 'detail_url': 'http://api.map.baidu.com/place/detail?uid=574d8a63020fa4b15e0d02ad&output=html&source=placeapi_v2', 'image_num': '2', 'children': [], 'lat': 32.02488346839444, 'lng': 118.749658928019}}"
"{'name': '南京分公司商品展示中心', 'location': {'lat': 32.02452217763315, 'lng': 118.74123810734194}, 'address': '南京市建邺区所街与湖西街交叉路口东北侧(中国石化加油站)', 'province': '江苏省', 'city': '南京市', 'area': '建邺区', 'detail': 1, 'uid': 'd1ef3d60984f2b6385420ef4', 'detail_info': {'tag': '文化传媒;展览馆', 'type': 'enterprise', 'detail_url': 'http://api.map.baidu.com/place/detail?uid=d1ef3d60984f2b6385420ef4&output=html&source=placeapi_v2', 'children': [], 'lat': 32.02452217763315, 'lng': 118.74123810734194}}"
"{'name': '河西中央公园CBD绿轴D区', 'location': {'lat': 32.009291316703745, 'lng': 118.72828126151099},