[{"name": "\u4e2d\u592e\u5546\u573a(\u6cb3\u897f\u5e97)", "location": {"lat": 32.00913212591817, "lng": 118.72695373373763}, "address": "\u5357\u4eac\u5e02\u5efa\u90ba\u533a\u6c5f\u4e1c\u4e2d\u8def237\u53f7", "province": "\u6c5f\u82cf\u7701", "city": "\u5357\u4eac\u5e02", "area": "\u5efa\u90ba\u533a", "street_id": "d2e87ff216e24ca7276e987b", "telephone": "(025)58017512", "detail": 1, "uid": "d2e87ff216e24ca7276e987b", "detail_info": {"tag": "\u8d2d\u7269;\u8d2d\u7269\u4e2d\u5fc3", "navi_location": {"lng": 118.73863493163, "lat": 32.011818012351}, "type": "shopping", "detail_url": "http://api.map.baidu.com/place/detail?uid=d2e87ff216e24ca7276e987b&output=html&source=placeapi_v2", "price": "189.0", "overall_rating": "4.1", "comment_num": "109", "children": [], "lat": 32.00913212591817, "lng": 118.72695373373763}}, {"name": "\u5357\u4eac\u5e02\u6c5f\u5c9b\u65b0\u5929\u5730", "location": {"lat": 32.02771449268373, "lng": 118.70067766088887}, "address": "\u5357\u4eac\u5e02\u5efa\u90ba\u533a\u73af\u5c9b\u4e1c\u8def99\u53f7", "province": "\u6c5f\u82cf\u7701", "city": "\u5357\u4eac\u5e02", "area": "\u5efa\u90ba\u533a", "street_id": "532982df3b13754f744ff1f2", "detail": 1, "uid": "532982df3b13754f744ff1f2", "detail_info": {"tag": "\u8d2d\u7269;\u8d2d\u7269\u4e2d\u5fc3", "navi_location": {"lng": 118.71215308552, "lat": 32.032364223276}, "type": "shopping", "detail_url": "http://api.map.baidu.com/place/detail?uid=532982df3b13754f744ff1f2&output=html&source=placeapi_v2", "overall_rating": "4.0", "comment_num": "5", "children": [], "lat": 32.02771449268373, "lng": 118.70067766088887}}, {"name": "\u73af\u5b87\u878d\u4fa8\u5e7f\u573a", "location": {"lat": 32.00628532043484, "lng": 118.71734048095679}, "address": "\u5357\u4eac\u5e02\u5efa\u90ba\u533a\u5965\u4f53\u5927\u8857177\u53f7", "province": "\u6c5f\u82cf\u7701", "city": "\u5357\u4eac\u5e02", "area": "\u5efa\u90ba\u533a", "street_id": "64f4ef922e542653f7b91696", "telephone": "(025)83214851", "detail": 1, "uid": "64f4ef922e542653f7b91696", "detail_info": {"tag": "\u8d2d\u7269;\u8d2d\u7269\u4e2d\u5fc3", "navi_location": {"lng": 118.72844661553, "lat": 32.01005806547}, "type": "shopping", "detail_url": "http://api.map.baidu.com/place/detail?uid=64f4ef922e542653f7b91696&output=html&source=placeapi_v2", "price": "50.0", "overall_rating": "4.0", "comment_num": "8", "children": [], "lat": 32.00628532043484, "lng": 118.71734048095679}}, {"name": "\u597d\u90bb\u5c45\u751f\u6d3b\u5e7f\u573a(\u987a\u9a70\u5e97)", "location": {"lat": 32.02160785839182, "lng": 118.71575019966438}, "address": "\u5357\u4eac\u5e02\u5efa\u90ba\u533a\u5174\u9686\u5927\u8857209\u53f7", "province": "\u6c5f\u82cf\u7701", "city": "\u5357\u4eac\u5e02", "area": "\u5efa\u90ba\u533a", "street_id": "7de6e01fe37f1932081cc7a8", "telephone": "13770796180", "detail": 1, "uid": "7de6e01fe37f1932081cc7a8", "detail_info": {"tag": "\u8d2d\u7269;\u8d85\u5e02", "navi_location": {"lng": 118.72726697691, "lat": 32.025685981387}, "type": "shopping", "detail_url": "http://api.map.baidu.com/place/detail?uid=7de6e01fe37f1932081cc7a8&output=html&source=placeapi_v2", "overall_rating": "4.5", "comment_num": "7", "children": [], "lat": 32.02160785839182, "lng": 118.71575019966438}}, {"name": "\u6708\u5b89\u751f\u6d3b\u5e7f\u573a", "location": {"lat": 32.02255473988075, "lng": 118.72682839628858}, "address": "\u5357\u4eac\u5e02\u5efa\u90ba\u533a\u71d5\u5c71\u8def2\u53f7", "province": "\u6c5f\u82cf\u7701", "city": "\u5357\u4eac\u5e02", "area": "\u5efa\u90ba\u533a", "street_id": "8004f3caefdfa8fbb1077d62", "detail": 1, "uid": "8004f3caefdfa8fbb1077d62", "detail_info": {"tag": "\u8d2d\u7269;\u8d85\u5e02", "navi_location": {"lng": 118.73903704461, "lat": 32.025838695719}, "type": "shopping", "detail_url": "http://api.map.baidu.com/place/detail?uid=8004f3caefdfa8fbb1077d62&output=html&source=placeapi_v2", "price": "6.0", "overall_rating": "4.3", "comment_num": "23", "children": [], "lat": 32.02255473988075, "lng": 118.72682839628858}}, {"name": "\u82cf\u679c\u8d85\u5e02(\u7ea2\u661f\u8857\u5e97)", "location": {"lat": 32.02807614289161, "lng": 118.69051127042437}, "address": "\u6d32\u5c9b\u5bb6\u56ed\u90bb\u91cc\u4e2d\u5fc3\u4e8c\u697c", "province": "\u6c5f\u82cf\u7701", "city": "\u5357\u4eac\u5e02", "area": "\u5efa\u90ba\u533a", "street_id": "52bd183f5dd34f9ebea240f3", "telephone": "(025)86526605", "detail": 1, "uid": "52bd183f5dd34f9ebea240f3", "detail_info": {"tag": "\u8d2d\u7269;\u8d85\u5e02", "navi_location": {"lng": 118.70259567274, "lat": 32.03254647128}, "type": "shopping", "detail_url": "http://api.map.baidu.com/place/detail?uid=52bd183f5dd34f9ebea240f3&output=html&source=placeapi_v2", "overall_rating": "4.0", "comment_num": "3", "children": [], "lat": 32.02807614289161, "lng": 118.69051127042437}}, {"name": "\u73cd\u5b9d\u574a(\u5965\u4f53\u5e97)", "location": {"lat": 32.00637852409315, "lng": 118.71728081161801}, "address": "\u5965\u4f53\u5927\u8857177\u53f7\u4e09\u5c42302-303\u5546\u94fa", "province": "\u6c5f\u82cf\u7701", "city": "\u5357\u4eac\u5e02", "area": "\u5efa\u90ba\u533a", "street_id": "acdeddcdb4acd4f6cafa5f07", "telephone": "(025)86563777", "detail": 1, "uid": "acdeddcdb4acd4f6cafa5f07", "detail_info": {"tag": "\u8d2d\u7269;\u5176\u4ed6", "navi_location": {"lng": 118.72954898102, "lat": 32.010111787701}, "type": "shopping", "detail_url": "http://api.map.baidu.com/place/detail?uid=acdeddcdb4acd4f6cafa5f07&output=html&source=placeapi_v2", "overall_rating": "4.2", "comment_num": "17", "children": [], "lat": 32.00637852409315, "lng": 118.71728081161801}}, {"name": "\u6797\u5b9d\u5802\u8336\u751f\u6d3b\u9986(\u5357\u4eac\u5965\u4f53\u5e97)", "location": {"lat": 32.01499521019728, "lng": 118.72164903553555}, "address": "\u6c5f\u82cf\u7701\u5357\u4eac\u5e02\u5efa\u90ba\u533a\u68a6\u90fd\u5927\u8857150\u53f7", "province": "\u6c5f\u82cf\u7701", "city": "\u5357\u4eac\u5e02", "area": "\u5efa\u90ba\u533a", "street_id": "d42cb53feb2e80e708a8d412", "telephone": "(025)58657299", "detail": 1, "uid": "d42cb53feb2e80e708a8d412", "detail_info": {"tag": "\u8d2d\u7269;\u5546\u94fa", "navi_location": {"lng": 118.73334002521, "lat": 32.018578974093}, "type": "shopping", "detail_url": "http://api.map.baidu.com/place/detail?uid=d42cb53feb2e80e708a8d412&output=html&source=placeapi_v2", "overall_rating": "4.7", "comment_num": "6", "children": [], "lat": 32.01499521019728, "lng": 118.72164903553555}}, {"name": "\u7f57\u68ee\u4fbf\u5229\u5e97(\u5174\u9686\u5927\u8857\u5e97)", "location": {"lat": 32.0187888814751, "lng": 118.7239218104031}, "address": "\u6c5f\u82cf\u7701\u5357\u4eac\u5e02\u5efa\u90ba\u533a\u5174\u9686\u5927\u8857171-1\u53f7", "province": "\u6c5f\u82cf\u7701", "city": "\u5357\u4eac\u5e02", "area": "\u5efa\u90ba\u533a", "street_id": "3cef49894423089330169b1d", "detail": 1, "uid": "3cef49894423089330169b1d", "detail_info": {"tag": "\u8d2d\u7269;\u4fbf\u5229\u5e97", "navi_location": {"lng": 118.73575610501, "lat": 32.022565470556}, "type": "shopping", "detail_url": "http://api.map.baidu.com/place/detail?uid=3cef49894423089330169b1d&output=html&source=placeapi_v2", "overall_rating": "4.2", "comment_num": "55", "children": [], "lat": 32.0187888814751, "lng": 118.7239218104031}}, {"name": "\u5976\u725b\u5e03\u514b\u8fdb\u53e3\u6bcd\u5a74\u751f\u6d3b\u9986", "location": {"lat": 32.01938137947108, "lng": 118.72253485349437}, "address": "\u6c5f\u82cf\u7701\u5357\u4eac\u5e02\u5efa\u90ba\u533a\u5174\u9686\u5927\u8857175-1", "province": "\u6c5f\u82cf\u7701", "city": "\u5357\u4eac\u5e02", "area": "\u5efa\u90ba\u533a", "street_id": "b93970b5b1f9e0780e3ddaee", "detail": 1, "uid": "b93970b5b1f9e0780e3ddaee", "detail_info": {"tag": "\u8d2d\u7269;\u5546\u94fa", "type": "shopping", "detail_url": "http://api.map.baidu.com/place/detail?uid=b93970b5b1f9e0780e3ddaee&output=html&source=placeapi_v2", "overall_rating": "4.8", "comment_num": "52", "children": [], "lat": 32.01938137947108, "lng": 118.72253485349437}}, {"name": "\u6668\u5149\u6587\u5177(\u5965\u4f53\u6587\u6559\u5e97)", "location": {"lat": 32.02297734927936, "lng": 118.71509998213743}, "address": "\u5174\u9686\u5927\u8857\u4e0e\u82cd\u5c71\u8def\u4ea4\u53c9\u53e3\u5317100\u7c73", "province": "\u6c5f\u82cf\u7701", "city": "\u5357\u4eac\u5e02", "area": "\u5efa\u90ba\u533a", "street_id": "0ccd4d3418753d398bb9886f", "telephone": "13813842289,(025)87772289", "detail": 1, "uid": "0ccd4d3418753d398bb9886f", "detail_info": {"tag": "\u8d2d\u7269;\u5546\u94fa", "navi_location": {"lng": 118.72698170472, "lat": 32.026683362379}, "type": "shopping", "detail_url": "http://api.map.baidu.com/place/detail?uid=0ccd4d3418753d398bb9886f&output=html&source=placeapi_v2", "price": "20.0", "overall_rating": "4.8", "comment_num": "10", "children": [], "lat": 32.02297734927936, "lng": 118.71509998213743}}, {"name": "\u82b1\u56e2\u5b50\u9c9c\u82b1\u5e97", "location": {"lat": 32.01918624324843, "lng": 118.7231176517812}, "address": "\u5357\u4eac\u5e02\u5174\u9686\u5927\u8857173-4\u53f7", "province": "\u6c5f\u82cf\u7701", "city": "\u5357\u4eac\u5e02", "area": "\u5efa\u90ba\u533a", "street_id": "05b3d728a0590547fa42b283", "detail": 1, "uid": "05b3d728a0590547fa42b283", "detail_info": {"tag": "\u8d2d\u7269;\u5546\u94fa", "navi_location": {"lng": 118.73486463861, "lat": 32.022895716715}, "type": "shopping", "detail_url": "http://api.map.baidu.com/place/detail?uid=05b3d728a0590547fa42b283&output=html&source=placeapi_v2", "overall_rating": "5.0", "comment_num": "3", "children": [], "lat": 32.01918624324843, "lng": 118.7231176517812}}, {"name": "\u79d1\u5df7\u83dc\u573a(\u6d32\u5c9b\u5bb6\u56ed\u5e97)", "location": {"lat": 32.02787220008353, "lng": 118.69043288748541}, "address": "\u4e2d\u65b0\u5357\u4eac\u751f\u6001\u79d1\u6280\u5c9b\u6c5f\u5fc3\u6d32\u6d32\u5c9b\u5bb6\u56ed", "province": "\u6c5f\u82cf\u7701", "city": "\u5357\u4eac\u5e02", "area": "\u5efa\u90ba\u533a", "street_id": "860a23ccc9f4e6ad00ff2d42", "detail": 1, "uid": "860a23ccc9f4e6ad00ff2d42", "detail_info": {"tag": "\u8d2d\u7269;\u5546\u94fa", "navi_location": {"lng": 118.70186360888, "lat": 32.032072379284}, "type": "shopping", "detail_url": "http://api.map.baidu.com/place/detail?uid=860a23ccc9f4e6ad00ff2d42&output=html&source=placeapi_v2", "overall_rating": "3.8", "comment_num": "6", "children": [], "lat": 32.02787220008353, "lng": 118.69043288748541}}, {"name": "\u534e\u8bda\u8d85\u5e02(\u87ba\u4e1d\u6865\u5927\u8857\u5e97)", "location": {"lat": 32.01967993764284, "lng": 118.71057678875451}, "address": "\u87ba\u4e1d\u6865\u5927\u8857132\u53f7", "province": "\u6c5f\u82cf\u7701", "city": "\u5357\u4eac\u5e02", "area": "\u5efa\u90ba\u533a", "street_id": "8edb8a9e12fda48f81a12eeb", "detail": 1, "uid": "8edb8a9e12fda48f81a12eeb", "detail_info": {"tag": "\u8d2d\u7269;\u8d85\u5e02", "type": "shopping", "detail_url": "http://api.map.baidu.com/place/detail?uid=8edb8a9e12fda48f81a12eeb&output=html&source=placeapi_v2", "children": [], "lat": 32.01967993764284, "lng": 118.71057678875451}}, {"name": "\u5764\u6668\u65b0\u5b89\u83dc\u5e02\u573a", "location": {"lat": 32.02282500866587, "lng": 118.72716428977024}, "address": "\u6c5f\u82cf\u5357\u4eac\u5e02\u5efa\u90ba\u533a\u5174\u9686\u8857\u9053\u901a\u6c5f\u8def28\u53f7\u6708\u5b89\u82b1\u56ed\u6b4c\u6708\u5c456\u680b", "province": "\u6c5f\u82cf\u7701", "city": "\u5357\u4eac\u5e02", "area": "\u5efa\u90ba\u533a", "street_id": "581dd0a8ae96bbd8dbd891ca", "detail": 1, "uid": "581dd0a8ae96bbd8dbd891ca", "detail_info": {"tag": "\u8d2d\u7269;\u5e02\u573a", "navi_location": {"lng": 118.73927861693, "lat": 32.02638997972}, "type": "shopping", "detail_url": "http://api.map.baidu.com/place/detail?uid=581dd0a8ae96bbd8dbd891ca&output=html&source=placeapi_v2", "overall_rating": "2.3", "comment_num": "7", "children": [], "lat": 32.02282500866587, "lng": 118.72716428977024}}, {"name": "\u82cf\u5b81\u6613\u8d2d(\u71d5\u5c71\u8def\u7269\u6d41\u7ad9)", "location": {"lat": 32.02745481853282, "lng": 118.72664740621205}, "address": "\u6c5f\u82cf\u7701\u5357\u4eac\u5e02\u5efa\u90ba\u533a\u71d5\u5c71\u8def118\u53f7", "province": "\u6c5f\u82cf\u7701", "city": "\u5357\u4eac\u5e02", "area": "\u5efa\u90ba\u533a", "detail": 1, "uid": "de5a0b0b758ab39a2811d140", "detail_info": {"tag": "\u8d2d\u7269;\u5bb6\u7535\u6570\u7801", "type": "shopping", "detail_url": "http://api.map.baidu.com/place/detail?uid=de5a0b0b758ab39a2811d140&output=html&source=placeapi_v2", "children": [], "lat": 32.02745481853282, "lng": 118.72664740621205}}, {"name": "\u5c1a\u6b27\u56fd\u9645\u5bb6\u5c45", "location": {"lat": 32.01098807930117, "lng": 118.71701264915588}, "address": "\u6c5f\u82cf\u7701\u5357\u4eac\u5e02\u5efa\u90ba\u533a\u5965\u4f53\u4e2d\u5fc3A01\u53f7\u67f1", "province": "\u6c5f\u82cf\u7701", "city": "\u5357\u4eac\u5e02", "area": "\u5efa\u90ba\u533a", "telephone": "(025)52253848", "detail": 1, "uid": "9b9eecd16d976d667ec87638", "detail_info": {"tag": "\u8d2d\u7269;\u5bb6\u5c45\u5efa\u6750", "type": "shopping", "detail_url": "http://api.map.baidu.com/place/detail?uid=9b9eecd16d976d667ec87638&output=html&source=placeapi_v2", "overall_rating": "2.0", "comment_num": "4", "children": [], "lat": 32.01098807930117, "lng": 118.71701264915588}}, {"name": "\u73af\u5b87\u519c\u8d38\u5e02\u573a", "location": {"lat": 32.00628822889488, "lng": 118.71704602113101}, "address": "\u5965\u4f53\u5927\u8857177\u53f7", "province": "\u6c5f\u82cf\u7701", "city": "\u5357\u4eac\u5e02", "area": "\u5efa\u90ba\u533a", "street_id": "9de0e18a3dff69346c476001", "detail": 1, "uid": "9de0e18a3dff69346c476001", "detail_info": {"tag": "\u8d2d\u7269;\u5e02\u573a", "navi_location": {"lng": 118.72878999102, "lat": 32.010089917892}, "type": "shopping", "detail_url": "http://api.map.baidu.com/place/detail?uid=9de0e18a3dff69346c476001&output=html&source=placeapi_v2", "overall_rating": "3.0", "comment_num": "5", "children": [], "lat": 32.00628822889488, "lng": 118.71704602113101}}, {"name": "\u5929\u5408\u667a\u80fd(\u5174\u9686\u5927\u8857\u65d7\u8230\u5e97)", "location": {"lat": 32.01786465616836, "lng": 118.72592741605871}, "address": "\u5174\u9686\u5927\u8857155\u53f7102\u3001103\u5ba4", "province": "\u6c5f\u82cf\u7701", "city": "\u5357\u4eac\u5e02", "area": "\u5efa\u90ba\u533a", "telephone": "(025)86303351", "detail": 1, "uid": "f7af8b213fe486fdf1193722", "detail_info": {"tag": "\u8d2d\u7269;\u5bb6\u7535\u6570\u7801", "navi_location": {"lng": 118.73784078469, "lat": 32.02153540053}, "type": "shopping", "detail_url": "http://api.map.baidu.com/place/detail?uid=f7af8b213fe486fdf1193722&output=html&source=placeapi_v2", "overall_rating": "5.0", "comment_num": "1", "children": [], "lat": 32.01786465616836, "lng": 118.72592741605871}}, {"name": "\u5b9d\u8317\u658b", "location": {"lat": 32.02073358342073, "lng": 118.71846447793246}, "address": "\u5174\u9686\u5927\u8857203-8\u53f7", "province": "\u6c5f\u82cf\u7701", "city": "\u5357\u4eac\u5e02", "area": "\u5efa\u90ba\u533a", "street_id": "e554c91368b07f865e0d0276", "telephone": "(025)52228376", "detail": 1, "uid": "e554c91368b07f865e0d0276", "detail_info": {"tag": "\u7f8e\u98df;\u8336\u5ea7", "navi_location": {"lng": 118.73012934747, "lat": 32.024428830859}, "type": "cater", "detail_url": "http://api.map.baidu.com/place/detail?uid=e554c91368b07f865e0d0276&output=html&source=placeapi_v2", "overall_rating": "5.0", "comment_num": "2", "children": [], "lat": 32.02073358342073, "lng": 118.71846447793246}}, {"name": "\u82cf\u679c\u8d85\u5e02(\u6d77\u68e0\u56ed\u5e97)", "location": {"lat": 32.02060849133079, "lng": 118.71876506338363}, "address": "\u5357\u4eac\u5e02\u5efa\u90ba\u533a\u5174\u9686\u5927\u8857203-6", "province": "\u6c5f\u82cf\u7701", "city": "\u5357\u4eac\u5e02", "area": "\u5efa\u90ba\u533a", "street_id": "925798212ac7ad765bf6bef1", "detail": 1, "uid": "925798212ac7ad765bf6bef1", "detail_info": {"tag": "\u8d2d\u7269;\u4fbf\u5229\u5e97", "navi_location": {"lng": 118.73056801485, "lat": 32.024464722718}, "type": "shopping", "detail_url": "http://api.map.baidu.com/place/detail?uid=925798212ac7ad765bf6bef1&output=html&source=placeapi_v2", "overall_rating": "3.0", "comment_num": "4", "children": [], "lat": 32.02060849133079, "lng": 118.71876506338363}}, {"name": "\u6d32\u5c9b\u5bb6\u56ed\u90bb\u91cc\u4e2d\u5fc3", "location": {"lat": 32.02816310507394, "lng": 118.69067426983752}, "address": "\u5357\u4eac\u5e02\u5efa\u90ba\u533a\u7ea2\u661f\u8857(\u6d32\u5c9b\u5bb6\u56ed-\u7eff\u6d32\u82d1)", "province": "\u6c5f\u82cf\u7701", "city": "\u5357\u4eac\u5e02", "area": "\u5efa\u90ba\u533a", "street_id": "49d26ee1bb53103c77026956", "detail": 1, "uid": "49d26ee1bb53103c77026956", "detail_info": {"tag": "\u8d2d\u7269;\u5176\u4ed6", "navi_location": {"lng": 118.70261766146, "lat": 32.032553166664}, "type": "shopping", "detail_url": "http://api.map.baidu.com/place/detail?uid=49d26ee1bb53103c77026956&output=html&source=placeapi_v2", "children": [], "lat": 32.02816310507394, "lng": 118.69067426983752}}, {"name": "\u6c38\u9686\u5bb6\u5c45", "location": {"lat": 32.019098040338896, "lng": 118.72519425252926}, "address": "\u6c5f\u82cf\u7701\u5357\u4eac\u5e02\u5efa\u90ba\u533a\u5730\u5740\u5174\u9686\u5927\u8857168\u53f7\u5efa\u90ba\u5370\u8c61\u5e97\u6c38\u9686\u5bb6\u5c45", "province": "\u6c5f\u82cf\u7701", "city": "\u5357\u4eac\u5e02", "area": "\u5efa\u90ba\u533a", "detail": 1, "uid": "035097e0173a7ab7ae31e586", "detail_info": {"tag": "\u8d2d\u7269;\u5bb6\u5c45\u5efa\u6750", "type": "shopping", "detail_url": "http://api.map.baidu.com/place/detail?uid=035097e0173a7ab7ae31e586&output=html&source=placeapi_v2", "children": [], "lat": 32.019098040338896, "lng": 118.72519425252926}}, {"name": "\u4e94\u91d1\u5efa\u6750(\u6708\u5b89\u8857\u5e97)", "location": {"lat": 32.02225883841136, "lng": 118.72344877419219}, "address": "\u6c5f\u82cf\u7701\u5357\u4eac\u5e02\u5efa\u90ba\u533a\u6708\u5b89\u885735\u53f7-2\u94fa", "province": "\u6c5f\u82cf\u7701", "city": "\u5357\u4eac\u5e02", "area": "\u5efa\u90ba\u533a", "street_id": "8b5ecbb7b1d1ed2f71210b75", "telephone": "(025)86280747", "detail": 1, "uid": "8b5ecbb7b1d1ed2f71210b75", "detail_info": {"tag": "\u8d2d\u7269;\u5bb6\u5c45\u5efa\u6750", "type": "shopping", "detail_url": "http://api.map.baidu.com/place/detail?uid=8b5ecbb7b1d1ed2f71210b75&output=html&source=placeapi_v2", "overall_rating": "5.0", "comment_num": "3", "children": [], "lat": 32.02225883841136, "lng": 118.72344877419219}}, {"name": "\u94b0\u7199\u679c\u9c9c(\u534e\u5c71\u8def\u5e97)", "location": {"lat": 32.02937297817819, "lng": 118.72610638359241}, "address": "\u534e\u5c71\u8def\u5e97\u534e\u5c71\u8def99\u53f72\u680b108\u53f7", "province": "\u6c5f\u82cf\u7701", "city": "\u5357\u4eac\u5e02", "area": "\u5efa\u90ba\u533a", "street_id": "3643788e277c7dadc4f02505", "telephone": "18751981057", "detail": 1, "uid": "3643788e277c7dadc4f02505", "detail_info": {"tag": "\u8d2d\u7269;\u5546\u94fa", "type": "shopping", "detail_url": "http://api.map.baidu.com/place/detail?uid=3643788e277c7dadc4f02505&output=html&source=placeapi_v2", "overall_rating": "4.4", "comment_num": "8", "children": [], "lat": 32.02937297817819, "lng": 118.72610638359241}}, {"name": "\u8d2d\u597d\u8d85\u5e02\u7eff\u6d32\u82d1\u5e97", "location": {"lat": 32.02527540125552, "lng": 118.69333390355798}, "address": "\u6c5f\u82cf\u7701\u5357\u4eac\u5e02\u5efa\u90ba\u533a\u7eff\u6d32\u82d13\u5e62", "province": "\u6c5f\u82cf\u7701", "city": "\u5357\u4eac\u5e02", "area": "\u5efa\u90ba\u533a", "telephone": "(025)85871778", "detail": 1, "uid": "cbc825b50cc5a6d6bca822fc", "detail_info": {"tag": "\u8d2d\u7269;\u8d85\u5e02", "type": "shopping", "detail_url": "http://api.map.baidu.com/place/detail?uid=cbc825b50cc5a6d6bca822fc&output=html&source=placeapi_v2", "children": [], "lat": 32.02527540125552, "lng": 118.69333390355798}}, {"name": "\u9e3f\u8fd0\u4e94\u91d1\u5efa\u6750(\u5bcc\u6625\u6c5f\u897f\u8857\u5e97)", "location": {"lat": 32.00613887221816, "lng": 118.71391535648674}, "address": "\u5bcc\u6625\u6c5f\u897f\u885728-16", "province": "\u6c5f\u82cf\u7701", "city": "\u5357\u4eac\u5e02", "area": "\u5efa\u90ba\u533a", "street_id": "b865adb425cd81821d5800ef", "telephone": "13814534077", "detail": 1, "uid": "b865adb425cd81821d5800ef", "detail_info": {"tag": "\u8d2d\u7269;\u5bb6\u5c45\u5efa\u6750", "navi_location": {"lng": 118.72505867427, "lat": 32.0100223184}, "type": "shopping", "detail_url": "http://api.map.baidu.com/place/detail?uid=b865adb425cd81821d5800ef&output=html&source=placeapi_v2", "overall_rating": "5.0", "comment_num": "1", "children": [], "lat": 32.00613887221816, "lng": 118.71391535648674}}, {"name": "\u946b\u745e\u5802", "location": {"lat": 32.01921408900693, "lng": 118.71029080500433}, "address": "\u5174\u9686\u8857\u9053\u87ba\u4e1d\u6865\u5927\u8857150\u53f7", "province": "\u6c5f\u82cf\u7701", "city": "\u5357\u4eac\u5e02", "area": "\u5efa\u90ba\u533a", "street_id": "a463d59e74307cad2806ce03", "telephone": "15366191999", "detail": 1, "uid": "a463d59e74307cad2806ce03", "detail_info": {"tag": "\u8d2d\u7269;\u5546\u94fa", "type": "shopping", "detail_url": "http://api.map.baidu.com/place/detail?uid=a463d59e74307cad2806ce03&output=html&source=placeapi_v2", "overall_rating": "5.0", "comment_num": "2", "children": [], "lat": 32.01921408900693, "lng": 118.71029080500433}}, {"name": "\u4e50\u9ad8(\u4e2d\u592e\u5546\u573a\u5e97)", "location": {"lat": 32.00877184423424, "lng": 118.726926779219}, "address": "\u5357\u4eac\u5e02\u5efa\u90ba\u533a\u6c5f\u4e1c\u4e2d\u8def270\u53f7\u4e2d\u592e\u5546\u573aF3", "province": "\u6c5f\u82cf\u7701", "city": "\u5357\u4eac\u5e02", "area": "\u5efa\u90ba\u533a", "street_id": "fd0ec44aad8f1e00d81318e2", "detail": 1, "uid": "fd0ec44aad8f1e00d81318e2", "detail_info": {"tag": "\u8d2d\u7269;\u5546\u94fa", "navi_location": {"lng": 118.7380651068, "lat": 32.013260071968}, "indoor_floor": "F3", "type": "shopping", "detail_url": "http://api.map.baidu.com/place/detail?uid=fd0ec44aad8f1e00d81318e2&output=html&source=placeapi_v2", "overall_rating": "5.0", "comment_num": "1", "children": [], "lat": 32.00877184423424, "lng": 118.726926779219}}, {"name": "\u90bb\u4ed5\u5bb6\u9ad8\u7ea7\u8fde\u9501\u4fbf\u5229(\u6c5f\u5fc3\u6d322\u5e97)", "location": {"lat": 32.0282107399891, "lng": 118.69089099083615}, "address": "\u5357\u4eac\u5e02\u5efa\u90ba\u533a\u6c5f\u5fc3\u6d32\u7ea2\u661f\u8def86\u53f7\u6d32\u5c9b\u5bb6\u56ed\u90bb\u91cc\u793e\u533a\u4e2d\u5fc32\u697c", "province": "\u6c5f\u82cf\u7701", "city": "\u5357\u4eac\u5e02", "area": "\u5efa\u90ba\u533a", "detail": 1, "uid": "1aa2019b7c575d39db131813", "detail_info": {"tag": "\u8d2d\u7269;\u5176\u4ed6", "type": "shopping", "detail_url": "http://api.map.baidu.com/place/detail?uid=1aa2019b7c575d39db131813&output=html&source=placeapi_v2", "overall_rating": "5.0", "comment_num": "1", "children": [], "lat": 32.0282107399891, "lng": 118.69089099083615}}, {"name": "\u6849\u6811\u53f6", "location": {"lat": 32.017578936215656, "lng": 118.71704913063773}, "address": "\u6c5f\u82cf\u7701\u5357\u4eac\u5e02\u5efa\u90ba\u533a\u4e50\u5c71\u8def167-18\u53f7", "province": "\u6c5f\u82cf\u7701", "city": "\u5357\u4eac\u5e02", "area": "\u5efa\u90ba\u533a", "telephone": "17368727517", "detail": 1, "uid": "ac4d6000b751d8ae1894c669", "detail_info": {"tag": "\u8d2d\u7269;\u5546\u94fa", "type": "shopping", "detail_url": "http://api.map.baidu.com/place/detail?uid=ac4d6000b751d8ae1894c669&output=html&source=placeapi_v2", "overall_rating": "0.0", "comment_num": "2", "children": [], "lat": 32.017578936215656, "lng": 118.71704913063773}}, {"name": "D9\u533a\u8fdb\u53e3\u65e5\u7528\u54c1\u6bcd\u5a74", "location": {"lat": 32.02013515134372, "lng": 118.71266176989653}, "address": "\u677e\u82b1\u6c5f\u897f\u885767-3\u53f7", "province": "\u6c5f\u82cf\u7701", "city": "\u5357\u4eac\u5e02", "area": "\u5efa\u90ba\u533a", "street_id": "9af2ebf572a39352d518b7a1", "telephone": "18994004824", "detail": 1, "uid": "9af2ebf572a39352d518b7a1", "detail_info": {"tag": "\u8d2d\u7269;\u5546\u94fa", "type": "shopping", "detail_url": "http://api.map.baidu.com/place/detail?uid=9af2ebf572a39352d518b7a1&output=html&source=placeapi_v2", "overall_rating": "4.5", "comment_num": "2", "children": [], "lat": 32.02013515134372, "lng": 118.71266176989653}}, {"name": "\u4e91\u53a8\u4e00\u7ad9(\u65b0\u57ce\u5927\u53a6\u5e97)", "location": {"lat": 32.00705091271372, "lng": 118.72763760634693}, "address": "\u6c5f\u4e1c\u4e2d\u8def259\u53f7\u65b0\u57ce\u5927\u53a6\u8d1f\u4e00\u697c", "province": "\u6c5f\u82cf\u7701", "city": "\u5357\u4eac\u5e02", "area": "\u5efa\u90ba\u533a", "detail": 1, "uid": "3f2f18011c3bd23540024563", "detail_info": {"tag": "\u8d2d\u7269;\u5546\u94fa", "type": "shopping", "detail_url": "http://api.map.baidu.com/place/detail?uid=3f2f18011c3bd23540024563&output=html&source=placeapi_v2", "overall_rating": "4.0", "comment_num": "1", "children": [], "lat": 32.00705091271372, "lng": 118.72763760634693}}, {"name": "\u5df4\u62c9\u5df4\u62c9(\u4e2d\u592e\u5546\u573a\u5e97)", "location": {"lat": 32.00949305696963, "lng": 118.7269288276829}, "address": "\u6c5f\u4e1c\u4e2d\u8def237\u53f7\u4e2d\u592e\u5546\u573a3\u5c42", "province": "\u6c5f\u82cf\u7701", "city": "\u5357\u4eac\u5e02", "area": "\u5efa\u90ba\u533a", "detail": 1, "uid": "f3acdeeec6dd2528b64f5472", "detail_info": {"tag": "\u8d2d\u7269;\u5546\u94fa", "navi_location": {"lng": 118.73863493163, "lat": 32.011818012351}, "type": "shopping", "detail_url": "http://api.map.baidu.com/place/detail?uid=f3acdeeec6dd2528b64f5472&output=html&source=placeapi_v2", "overall_rating": "5.0", "comment_num": "1", "children": [], "lat": 32.00949305696963, "lng": 118.7269288276829}}, {"name": "DUNNU(\u4e2d\u592e\u5546\u573a\u5e97)", "location": {"lat": 32.009154876268326, "lng": 118.72737357881124}, "address": "\u5357\u4eac\u5e02\u5efa\u90ba\u533a\u6c5f\u4e1c\u4e2d\u8def270\u53f7\u4e2d\u592e\u5546\u573aF2", "province": "\u6c5f\u82cf\u7701", "city": "\u5357\u4eac\u5e02", "area": "\u5efa\u90ba\u533a", "street_id": "91b545c7318f050007fef5bb", "detail": 1, "uid": "91b545c7318f050007fef5bb", "detail_info": {"tag": "\u8d2d\u7269;\u5546\u94fa", "navi_location": {"lng": 118.7380651068, "lat": 32.013260071968}, "indoor_floor": "F2", "type": "shopping", "detail_url": "http://api.map.baidu.com/place/detail?uid=91b545c7318f050007fef5bb&output=html&source=placeapi_v2", "overall_rating": "4.0", "comment_num": "3", "children": [], "lat": 32.009154876268326, "lng": 118.72737357881124}}, {"name": "\u9102\u5c14\u591a\u65af(\u4e2d\u592e\u5546\u573a\u5e97)", "location": {"lat": 32.00885220728184, "lng": 118.7271282237904}, "address": "\u5357\u4eac\u5e02\u5efa\u90ba\u533a\u6c5f\u4e1c\u4e2d\u8def270\u53f7\u4e2d\u592e\u5546\u573aF2", "province": "\u6c5f\u82cf\u7701", "city": "\u5357\u4eac\u5e02", "area": "\u5efa\u90ba\u533a", "telephone": "(025)86702285", "detail": 1, "uid": "05d0b755931e18f07bf79673", "detail_info": {"tag": "\u8d2d\u7269;\u5546\u94fa", "indoor_floor": "F2", "type": "shopping", "detail_url": "http://api.map.baidu.com/place/detail?uid=05d0b755931e18f07bf79673&output=html&source=placeapi_v2", "overall_rating": "4.0", "comment_num": "1", "children": [], "lat": 32.00885220728184, "lng": 118.7271282237904}}, {"name": "\u6c6a\u5c0f\u8377(\u4e2d\u592e\u5546\u573a\u6cb3\u897f\u5e97)", "location": {"lat": 32.009298081746394, "lng": 118.726793201048}, "address": "\u5357\u4eac\u5e02\u5efa\u90ba\u533a\u6c5f\u4e1c\u4e2d\u8def270\u53f7\u4e2d\u592e\u5546\u573aF3", "province": "\u6c5f\u82cf\u7701", "city": "\u5357\u4eac\u5e02", "area": "\u5efa\u90ba\u533a", "detail": 1, "uid": "324375f36e0dfcb494031932", "detail_info": {"tag": "\u8d2d\u7269;\u5546\u94fa", "navi_location": {"lng": 118.73863493163, "lat": 32.011818012351}, "indoor_floor": "F3", "type": "shopping", "detail_url": "http://api.map.baidu.com/place/detail?uid=324375f36e0dfcb494031932&output=html&source=placeapi_v2", "overall_rating": "4.0", "comment_num": "2", "children": [], "lat": 32.009298081746394, "lng": 118.726793201048}}, {"name": "POLO(\u4e2d\u592e\u5546\u573a\u5e97)", "location": {"lat": 32.00935147743003, "lng": 118.72670346236693}, "address": "\u6c5f\u4e1c\u4e2d\u8def237\u53f7\u4e2d\u592e\u5546\u573a1\u5c42", "province": "\u6c5f\u82cf\u7701", "city": "\u5357\u4eac\u5e02", "area": "\u5efa\u90ba\u533a", "detail": 1, "uid": "1ede2b705561f0d7373a7169", "detail_info": {"tag": "\u8d2d\u7269;\u5546\u94fa", "type": "shopping", "detail_url": "http://api.map.baidu.com/place/detail?uid=1ede2b705561f0d7373a7169&output=html&source=placeapi_v2", "overall_rating": "4.7", "comment_num": "3", "children": [], "lat": 32.00935147743003, "lng": 118.72670346236693}}, {"name": "\u6c81\u7136\u672c\u94fa", "location": {"lat": 32.0087321544928, "lng": 118.7087118682335}, "address": "\u5965\u4f53\u5927\u8857199\u53f7\u91d1\u9a6c\u9a8a24\u680b101", "province": "\u6c5f\u82cf\u7701", "city": "\u5357\u4eac\u5e02", "area": "\u5efa\u90ba\u533a", "telephone": "15850695271", "detail": 1, "uid": "cc2f92e91be727ef931fc919", "detail_info": {"tag": "\u8d2d\u7269;\u5546\u94fa", "type": "shopping", "detail_url": "http://api.map.baidu.com/place/detail?uid=cc2f92e91be727ef931fc919&output=html&source=placeapi_v2", "overall_rating": "4.6", "comment_num": "13", "children": [], "lat": 32.0087321544928, "lng": 118.7087118682335}}, {"name": "JACK & JONES(\u4e2d\u592e\u5546\u573a\u5e97)", "location": {"lat": 32.00951104840261, "lng": 118.72692683431383}, "address": "\u5357\u4eac\u5e02\u5efa\u90ba\u533a\u6c5f\u4e1c\u4e2d\u8def270\u53f7\u4e2d\u592e\u5546\u573aF3", "province": "\u6c5f\u82cf\u7701", "city": "\u5357\u4eac\u5e02", "area": "\u5efa\u90ba\u533a", "street_id": "86b421c3aa052661882fb5d4", "detail": 1, "uid": "86b421c3aa052661882fb5d4", "detail_info": {"tag": "\u8d2d\u7269;\u5546\u94fa", "navi_location": {"lng": 118.7380651068, "lat": 32.013260071968}, "indoor_floor": "F3", "type": "shopping", "detail_url": "http://api.map.baidu.com/place/detail?uid=86b421c3aa052661882fb5d4&output=html&source=placeapi_v2", "overall_rating": "0.0", "children": [], "lat": 32.00951104840261, "lng": 118.72692683431383}}, {"name": "\u4f0a\u529b\u7279(\u5357\u4eac\u603b\u7ecf\u9500)", "location": {"lat": 32.02078462072942, "lng": 118.72029872829786}, "address": "\u5174\u9686\u5927\u8857196-1\u53f7\u9644\u8fd1", "province": "\u6c5f\u82cf\u7701", "city": "\u5357\u4eac\u5e02", "area": "\u5efa\u90ba\u533a", "street_id": "7e624589493611aa2afc4854", "telephone": "13951905466", "detail": 1, "uid": "7e624589493611aa2afc4854", "detail_info": {"tag": "\u8d2d\u7269;\u5546\u94fa", "navi_location": {"lng": 118.73206999998, "lat": 32.024385014943}, "type": "shopping", "detail_url": "http://api.map.baidu.com/place/detail?uid=7e624589493611aa2afc4854&output=html&source=placeapi_v2", "children": [], "lat": 32.02078462072942, "lng": 118.72029872829786}}, {"name": "TEENIE WEENIE(\u4e2d\u592e\u5546\u573a\u5e97)", "location": {"lat": 32.00930928276559, "lng": 118.7268221191878}, "address": "\u5357\u4eac\u5e02\u5efa\u90ba\u533a\u6c5f\u4e1c\u4e2d\u8def270\u53f7\u4e2d\u592e\u5546\u573aF2", "province": "\u6c5f\u82cf\u7701", "city": "\u5357\u4eac\u5e02", "area": "\u5efa\u90ba\u533a", "street_id": "f8640de36d61025672210bb2", "telephone": "(025)85358537", "detail": 1, "uid": "f8640de36d61025672210bb2", "detail_info": {"tag": "\u8d2d\u7269;\u5546\u94fa", "navi_location": {"lng": 118.7380651068, "lat": 32.013260071968}, "indoor_floor": "F2", "type": "shopping", "detail_url": "http://api.map.baidu.com/place/detail?uid=f8640de36d61025672210bb2&output=html&source=placeapi_v2", "overall_rating": "4.7", "comment_num": "3", "children": [], "lat": 32.00930928276559, "lng": 118.7268221191878}}, {"name": "\u540d\u70df\u540d\u9152", "location": {"lat": 32.00932798511094, "lng": 118.72692482895383}, "address": "\u5357\u4eac\u5e02\u5efa\u90ba\u533a\u6c5f\u4e1c\u4e2d\u8def270\u53f7\u4e2d\u592e\u5546\u573aB1", "province": "\u6c5f\u82cf\u7701", "city": "\u5357\u4eac\u5e02", "area": "\u5efa\u90ba\u533a", "detail": 1, "uid": "9e54b423780f1146f219371e", "detail_info": {"tag": "\u8d2d\u7269;\u5546\u94fa", "indoor_floor": "B1", "type": "shopping", "detail_url": "http://api.map.baidu.com/place/detail?uid=9e54b423780f1146f219371e&output=html&source=placeapi_v2", "overall_rating": "0.0", "children": [], "lat": 32.00932798511094, "lng": 118.72692482895383}}, {"name": "really(\u4e2d\u592e\u5546\u573a\u5e97)", "location": {"lat": 32.00935147743003, "lng": 118.72670346236693}, "address": "\u6c5f\u4e1c\u4e2d\u8def237\u53f7\u4e2d\u592e\u5546\u573a3\u5c42", "province": "\u6c5f\u82cf\u7701", "city": "\u5357\u4eac\u5e02", "area": "\u5efa\u90ba\u533a", "detail": 1, "uid": "c50d92d7106b325678f796ab", "detail_info": {"tag": "\u8d2d\u7269;\u5546\u94fa", "type": "life", "detail_url": "http://api.map.baidu.com/place/detail?uid=c50d92d7106b325678f796ab&output=html&source=placeapi_v2", "image_num": "1", "children": [], "lat": 32.00935147743003, "lng": 118.72670346236693}}, {"name": "OXALIS(\u4e2d\u592e\u5546\u573a\u5e97)", "location": {"lat": 32.008871813025614, "lng": 118.72677123085845}, "address": "\u5357\u4eac\u5e02\u5efa\u90ba\u533a\u6c5f\u4e1c\u4e2d\u8def270\u53f7\u4e2d\u592e\u5546\u573aF2", "province": "\u6c5f\u82cf\u7701", "city": "\u5357\u4eac\u5e02", "area": "\u5efa\u90ba\u533a", "detail": 1, "uid": "9aacf7c69bdcb12ae5e965eb", "detail_info": {"tag": "\u8d2d\u7269;\u5546\u94fa", "indoor_floor": "F2", "type": "shopping", "detail_url": "http://api.map.baidu.com/place/detail?uid=9aacf7c69bdcb12ae5e965eb&output=html&source=placeapi_v2", "overall_rating": "4.0", "comment_num": "1", "children": [], "lat": 32.008871813025614, "lng": 118.72677123085845}}, {"name": "\u70df\u9152\u8d85\u5e02", "location": {"lat": 32.02025657725532, "lng": 118.71237642538895}, "address": "\u677e\u82b1\u6c5f\u897f\u885767-6\u53f7\u70df\u9152\u8d85\u5e02", "province": "\u6c5f\u82cf\u7701", "city": "\u5357\u4eac\u5e02", "area": "\u5efa\u90ba\u533a", "street_id": "13a46f550ae0ba3b130daad2", "detail": 1, "uid": "13a46f550ae0ba3b130daad2", "detail_info": {"tag": "\u8d2d\u7269;\u8d85\u5e02", "detail_url": "http://api.map.baidu.com/place/detail?uid=13a46f550ae0ba3b130daad2&output=html&source=placeapi_v2", "children": [], "lat": 32.02025657725532, "lng": 118.71237642538895}}, {"name": "YOUNGRO(\u4e2d\u592e\u5546\u573a\u6cb3\u897f\u5e97)", "location": {"lat": 32.00955444336077, "lng": 118.72654792650843}, "address": "\u6c5f\u4e1c\u4e2d\u8def128\u53f7\u4e2d\u592e\u5546\u573a\u6cb3\u897f\u5e973\u5c42", "province": "\u6c5f\u82cf\u7701", "city": "\u5357\u4eac\u5e02", "area": "\u5efa\u90ba\u533a", "detail": 1, "uid": "8e25e8891c4c3bf282288a44", "detail_info": {"tag": "\u8d2d\u7269;\u5546\u94fa", "type": "shopping", "detail_url": "http://api.map.baidu.com/place/detail?uid=8e25e8891c4c3bf282288a44&output=html&source=placeapi_v2", "overall_rating": "5.0", "comment_num": "1", "children": [], "lat": 32.00955444336077, "lng": 118.72654792650843}}, {"name": "SUISSEWIN(\u4e2d\u592e\u5546\u573a\u5e97)", "location": {"lat": 32.00917210162688, "lng": 118.72725191006985}, "address": "\u5357\u4eac\u5e02\u5efa\u90ba\u533a\u6c5f\u4e1c\u4e2d\u8def270\u53f7\u4e2d\u592e\u5546\u573aF2", "province": "\u6c5f\u82cf\u7701", "city": "\u5357\u4eac\u5e02", "area": "\u5efa\u90ba\u533a", "detail": 1, "uid": "e799c2c8f440e6da744ff127", "detail_info": {"tag": "\u8d2d\u7269;\u5546\u94fa", "indoor_floor": "F2", "type": "shopping", "detail_url": "http://api.map.baidu.com/place/detail?uid=e799c2c8f440e6da744ff127&output=html&source=placeapi_v2", "children": [], "lat": 32.00917210162688, "lng": 118.72725191006985}}, {"name": "\u5229\u5e73\u4e0d\u9508\u94a2\u6c29\u5f27\u710a\u7535\u710a\u52a0\u5de5\u5382", "location": {"lat": 32.02540669537031, "lng": 118.72739590650274}, "address": "\u5e94\u5929\u5927\u8857924", "province": "\u6c5f\u82cf\u7701", "city": "\u5357\u4eac\u5e02", "area": "\u5efa\u90ba\u533a", "street_id": "e541e9f1aba9def054bfffc4", "telephone": "13182815397,15850543766", "detail": 1, "uid": "e541e9f1aba9def054bfffc4", "detail_info": {"tag": "\u8d2d\u7269;\u5bb6\u5c45\u5efa\u6750", "navi_location": {"lng": 118.73909181161, "lat": 32.028732797408}, "type": "shopping", "detail_url": "http://api.map.baidu.com/place/detail?uid=e541e9f1aba9def054bfffc4&output=html&source=placeapi_v2", "overall_rating": "0.0", "comment_num": "2", "children": [], "lat": 32.02540669537031, "lng": 118.72739590650274}}, {"name": "\u79a7\u5b9d\u6bcd\u5a74", "location": {"lat": 32.01245214899419, "lng": 118.7046724660472}, "address": "\u626c\u5b50\u6c5f\u5927\u9053260\u53f7\u4e07\u666f\u56ed\u8def\u91d1\u9675\u6c5f\u6ee8\u9152\u5e97-\u7cbe\u54c1\u697c", "province": "\u6c5f\u82cf\u7701", "city": "\u5357\u4eac\u5e02", "area": "\u5efa\u90ba\u533a", "detail": 1, "uid": "274c161d8e11da51f219374a", "detail_info": {"tag": "\u8d2d\u7269;\u5546\u94fa", "type": "shopping", "detail_url": "http://api.map.baidu.com/place/detail?uid=274c161d8e11da51f219374a&output=html&source=placeapi_v2", "children": [], "lat": 32.01245214899419, "lng": 118.7046724660472}}, {"name": "\u80d6\u5b50\u8f66\u884c(\u6797\u836b\u8def\u5e97)", "location": {"lat": 32.02164979830559, "lng": 118.69316634499829}, "address": "\u6797\u836b\u8def\u897f50\u7c73", "province": "\u6c5f\u82cf\u7701", "city": "\u5357\u4eac\u5e02", "area": "\u5efa\u90ba\u533a", "detail": 1, "uid": "8e68fa72828a5fffea12e434", "detail_info": {"tag": "\u8d2d\u7269;\u5546\u94fa", "type": "shopping", "detail_url": "http://api.map.baidu.com/place/detail?uid=8e68fa72828a5fffea12e434&output=html&source=placeapi_v2", "children": [], "lat": 32.02164979830559, "lng": 118.69316634499829}}, {"name": "adidas neo(\u4e2d\u592e\u5546\u573a\u5e97)", "location": {"lat": 32.008863203814066, "lng": 118.72712722753081}, "address": "\u5357\u4eac\u5e02\u5efa\u90ba\u533a\u6c5f\u4e1c\u4e2d\u8def270\u53f7\u4e2d\u592e\u5546\u573aF3", "province": "\u6c5f\u82cf\u7701", "city": "\u5357\u4eac\u5e02", "area": "\u5efa\u90ba\u533a", "telephone": "(025)52260183", "detail": 1, "uid": "eb191c8ae35e2893b13c817e", "detail_info": {"tag": "\u8d2d\u7269;\u5546\u94fa", "indoor_floor": "F3", "type": "shopping", "detail_url": "http://api.map.baidu.com/place/detail?uid=eb191c8ae35e2893b13c817e&output=html&source=placeapi_v2", "overall_rating": "4.0", "comment_num": "1", "children": [], "lat": 32.008863203814066, "lng": 118.72712722753081}}, {"name": "qtools", "location": {"lat": 32.00934332613581, "lng": 118.72682710717883}, "address": "\u5357\u4eac\u5e02\u5efa\u90ba\u533a\u6c5f\u4e1c\u4e2d\u8def270\u53f7\u4e2d\u592e\u5546\u573aF3", "province": "\u6c5f\u82cf\u7701", "city": "\u5357\u4eac\u5e02", "area": "\u5efa\u90ba\u533a", "detail": 1, "uid": "6e50fac4a8f883bf2bb97c77", "detail_info": {"tag": "\u8d2d\u7269;\u5546\u94fa", "indoor_floor": "F3", "type": "shopping", "detail_url": "http://api.map.baidu.com/place/detail?uid=6e50fac4a8f883bf2bb97c77&output=html&source=placeapi_v2", "overall_rating": "5.0", "comment_num": "1", "children": [], "lat": 32.00934332613581, "lng": 118.72682710717883}}, {"name": "\u78b3\u5143\u7eff\u5efa\u5065\u5eb7\u8212\u9002\u4f53\u9a8c\u4e2d\u5fc3", "location": {"lat": 32.01061963518187, "lng": 118.71734690781197}, "address": "\u5357\u4eac\u5e02\u5efa\u90ba\u533a\u5965\u4f53\u5927\u8857(\u5357\u4eac\u5965\u6797\u5339\u514b\u4f53\u80b2\u4e2d\u5fc3)", "province": "\u6c5f\u82cf\u7701", "city": "\u5357\u4eac\u5e02", "area": "\u5efa\u90ba\u533a", "detail": 1, "uid": "a36d5d646b55f11e42d63efa", "detail_info": {"tag": "\u8d2d\u7269;\u5bb6\u5c45\u5efa\u6750", "type": "shopping", "detail_url": "http://api.map.baidu.com/place/detail?uid=a36d5d646b55f11e42d63efa&output=html&source=placeapi_v2", "overall_rating": "5.0", "comment_num": "1", "children": [], "lat": 32.01061963518187, "lng": 118.71734690781197}}, {"name": "\u5357\u4eac\u5de5\u827a\u793c\u54c1", "location": {"lat": 32.01473522886026, "lng": 118.72174668359342}, "address": "\u6c5f\u82cf\u7701\u5357\u4eac\u5e02\u5efa\u90ba\u533a\u68a6\u90fd\u5927\u8857150\u53f7\u5efa\u7b51\u5e08\u5de5\u793e", "province": "\u6c5f\u82cf\u7701", "city": "\u5357\u4eac\u5e02", "area": "\u5efa\u90ba\u533a", "detail": 1, "uid": "ff3fc3abc9fc3ac1c03644ed", "detail_info": {"tag": "\u8d2d\u7269;\u5546\u94fa", "type": "shopping", "detail_url": "http://api.map.baidu.com/place/detail?uid=ff3fc3abc9fc3ac1c03644ed&output=html&source=placeapi_v2", "children": [], "lat": 32.01473522886026, "lng": 118.72174668359342}}, {"name": "GERMES CUOPARSE(\u4e2d\u592e\u5546\u573a\u5e97)", "location": {"lat": 32.009382939564524, "lng": 118.7269158577841}, "address": "\u6c5f\u4e1c\u4e2d\u8def237\u53f7\u4e2d\u592e\u5546\u573a3\u5c42", "province": "\u6c5f\u82cf\u7701", "city": "\u5357\u4eac\u5e02", "area": "\u5efa\u90ba\u533a", "detail": 1, "uid": "f57a9165cc5b4d6a7ab55c15", "detail_info": {"tag": "\u8d2d\u7269;\u5546\u94fa", "type": "shopping", "detail_url": "http://api.map.baidu.com/place/detail?uid=f57a9165cc5b4d6a7ab55c15&output=html&source=placeapi_v2", "children": [], "lat": 32.009382939564524, "lng": 118.7269158577841}}, {"name": "\u6b27\u83b1\u96c5\u767e\u8d27", "location": {"lat": 32.026637097019204, "lng": 118.72613557903557}, "address": "\u5546\u4e1a\u6587\u5316\u65c5\u6e38\u4e2d\u5fc3\u533a\u71d5\u5c71\u8def118\u53f7(\u539f\u82cf\u5b81\u7269\u6d41\u4e2d\u5fc3)4\u53f7\u697c2\u697c", "province": "\u6c5f\u82cf\u7701", "city": "\u5357\u4eac\u5e02", "area": "\u5efa\u90ba\u533a", "street_id": "ac43723b613fa045f4b9168a", "detail": 1, "uid": "ac43723b613fa045f4b9168a", "detail_info": {"tag": "\u8d2d\u7269;\u5546\u94fa", "type": "shopping", "detail_url": "http://api.map.baidu.com/place/detail?uid=ac43723b613fa045f4b9168a&output=html&source=placeapi_v2", "children": [], "lat": 32.026637097019204, "lng": 118.72613557903557}}, {"name": "moothskin\u6d77\u5916\u65d7\u8230\u5e97", "location": {"lat": 32.01482537335188, "lng": 118.72185022929261}, "address": "\u68a6\u90fd\u5927\u8857150\u53f7\u5efa\u7b51\u5e08\u5de5\u793e405\u5ba4", "province": "\u6c5f\u82cf\u7701", "city": "\u5357\u4eac\u5e02", "area": "\u5efa\u90ba\u533a", "detail": 1, "uid": "b300b9772342ed8935b06cd7", "detail_info": {"tag": "\u8d2d\u7269;\u5546\u94fa", "type": "shopping", "detail_url": "http://api.map.baidu.com/place/detail?uid=b300b9772342ed8935b06cd7&output=html&source=placeapi_v2", "children": [], "lat": 32.01482537335188, "lng": 118.72185022929261}}, {"name": "\u71d5\u4e4b\u5c4b", "location": {"lat": 32.01095088602052, "lng": 118.71721459162973}, "address": "\u6c5f\u82cf\u7701\u5357\u4eac\u5e02\u5efa\u90ba\u533a\u6cb3\u897f\u4e2d\u592e\u5546\u52a1\u533a\u6c5f\u4e1c\u4e2d\u8def329\u53f7\u91d1\u5965\u56fd\u9645\u8d2d\u7269\u4e2d\u5fc3", "province": "\u6c5f\u82cf\u7701", "city": "\u5357\u4eac\u5e02", "area": "\u5efa\u90ba\u533a", "detail": 1, "uid": "e00d403452e9ef909022e050", "detail_info": {"tag": "\u8d2d\u7269;\u5546\u94fa", "type": "shopping", "detail_url": "http://api.map.baidu.com/place/detail?uid=e00d403452e9ef909022e050&output=html&source=placeapi_v2", "children": [], "lat": 32.01095088602052, "lng": 118.71721459162973}}, {"name": "\u90fd\u5e02\u767e\u8d27", "location": {"lat": 32.00621483110716, "lng": 118.71709076994478}, "address": "\u5965\u4f53\u5927\u8857\u5965\u4f53\u5357\u95e8\u73af\u5b87\u519c\u8d38\u5e02\u573a\u8d1f1\u697c", "province": "\u6c5f\u82cf\u7701", "city": "\u5357\u4eac\u5e02", "area": "\u5efa\u90ba\u533a", "telephone": "15062266307", "detail": 1, "uid": "78133a413b07bc75c036442a", "detail_info": {"tag": "\u8d2d\u7269;\u4fbf\u5229\u5e97", "type": "shopping", "detail_url": "http://api.map.baidu.com/place/detail?uid=78133a413b07bc75c036442a&output=html&source=placeapi_v2", "children": [], "lat": 32.00621483110716, "lng": 118.71709076994478}}, {"name": "\u5929\u7ffc\u667a\u6167\u5bb6\u5ead\u4f53\u9a8c\u5356\u573a", "location": {"lat": 32.03010750509613, "lng": 118.72617551606739}, "address": "\u534e\u5c71\u8def\u79ef\u8d24\u96c5\u82d13\u680b104", "province": "\u6c5f\u82cf\u7701", "city": "\u5357\u4eac\u5e02", "area": "\u5efa\u90ba\u533a", "street_id": "0306b2961e681d6af503b829", "detail": 1, "uid": "0306b2961e681d6af503b829", "detail_info": {"tag": "\u8d2d\u7269;\u5bb6\u7535\u6570\u7801", "type": "shopping", "detail_url": "http://api.map.baidu.com/place/detail?uid=0306b2961e681d6af503b829&output=html&source=placeapi_v2", "overall_rating": "4.0", "comment_num": "1", "children": [], "lat": 32.03010750509613, "lng": 118.72617551606739}}, {"name": "\u7279\u6b65(\u4e2d\u592e\u5546\u573a\u5e97)", "location": {"lat": 32.009552428716646, "lng": 118.72654593224519}, "address": "\u6c5f\u4e1c\u4e2d\u8def128\u53f7\u4e2d\u592e\u5546\u573a\u6cb3\u897f\u5e974\u5c42", "province": "\u6c5f\u82cf\u7701", "city": "\u5357\u4eac\u5e02", "area": "\u5efa\u90ba\u533a", "detail": 1, "uid": "bf7fba5fd391dd28734b878a", "detail_info": {"tag": "\u8d2d\u7269;\u5546\u94fa", "type": "shopping", "detail_url": "http://api.map.baidu.com/place/detail?uid=bf7fba5fd391dd28734b878a&output=html&source=placeapi_v2", "children": [], "lat": 32.009552428716646, "lng": 118.72654593224519}}, {"name": "\u5357\u4eac\u8212\u8fea\u4f73\u4f53\u80b2\u7528\u54c1\u6709\u9650\u516c\u53f8", "location": {"lat": 32.00929799103143, "lng": 118.71969027191277}, "address": "\u71d5\u5c71\u8def\u9644\u8fd1", "province": "\u6c5f\u82cf\u7701", "city": "\u5357\u4eac\u5e02", "area": "\u5efa\u90ba\u533a", "telephone": "(025)86200532", "detail": 1, "uid": "b34fc71a1083228287330402", "detail_info": {"tag": "\u516c\u53f8\u4f01\u4e1a;\u516c\u53f8", "type": "enterprise", "detail_url": "http://api.map.baidu.com/place/detail?uid=b34fc71a1083228287330402&output=html&source=placeapi_v2", "overall_rating": "5.0", "comment_num": "1", "children": [], "lat": 32.00929799103143, "lng": 118.71969027191277}}, {"name": "\u878d\u4fa8\u519c\u526f\u4ea7\u54c1\u5e73\u4ef7\u76f4\u9500\u5e97", "location": {"lat": 32.00624479875645, "lng": 118.71365191796383}, "address": "\u5357\u4eac\u5e02\u5efa\u90ba\u533a\u963f\u91cc\u5c71\u8def28\u53f728\u53f7", "province": "\u6c5f\u82cf\u7701", "city": "\u5357\u4eac\u5e02", "area": "\u5efa\u90ba\u533a", "street_id": "b13ea739a08a6106774ff1e7", "detail": 1, "uid": "b13ea739a08a6106774ff1e7", "detail_info": {"tag": "\u8d2d\u7269;\u5546\u94fa", "type": "shopping", "detail_url": "http://api.map.baidu.com/place/detail?uid=b13ea739a08a6106774ff1e7&output=html&source=placeapi_v2", "children": [], "lat": 32.00624479875645, "lng": 118.71365191796383}}, {"name": "ZC(\u4e2d\u592e\u5546\u573a\u6cb3\u897f\u5e97)", "location": {"lat": 32.009382939564524, "lng": 118.7269158577841}, "address": "\u6c5f\u4e1c\u4e2d\u8def128\u53f7\u4e2d\u592e\u5546\u573a\u6cb3\u897f\u5e972\u5c42", "province": "\u6c5f\u82cf\u7701", "city": "\u5357\u4eac\u5e02", "area": "\u5efa\u90ba\u533a", "detail": 1, "uid": "ff8d7aab1edebd909f09f7aa", "detail_info": {"tag": "\u8d2d\u7269;\u5546\u94fa", "type": "shopping", "detail_url": "http://api.map.baidu.com/place/detail?uid=ff8d7aab1edebd909f09f7aa&output=html&source=placeapi_v2", "children": [], "lat": 32.009382939564524, "lng": 118.7269158577841}}, {"name": "ping", "location": {"lat": 32.00940328024641, "lng": 118.7192314556377}, "address": "\u5357\u4eac\u5e02\u5efa\u90ba\u533a\u5965\u4f53\u5927\u8857(\u5357\u4eac\u5965\u6797\u5339\u514b\u4f53\u80b2\u4e2d\u5fc3)", "province": "\u6c5f\u82cf\u7701", "city": "\u5357\u4eac\u5e02", "area": "\u5efa\u90ba\u533a", "street_id": "22d623b9375e488888b9882c", "detail": 1, "uid": "22d623b9375e488888b9882c", "detail_info": {"tag": "\u8d2d\u7269;\u5546\u94fa", "type": "shopping", "detail_url": "http://api.map.baidu.com/place/detail?uid=22d623b9375e488888b9882c&output=html&source=placeapi_v2", "children": [], "lat": 32.00940328024641, "lng": 118.7192314556377}}, {"name": "cooleer\u9177\u52d2(\u4e2d\u592e\u5546\u573a\u6cb3\u897f\u5e97)", "location": {"lat": 32.009552428716646, "lng": 118.72654593224519}, "address": "\u6c5f\u4e1c\u4e2d\u8def128\u53f7\u4e2d\u592e\u5546\u573a\u6cb3\u897f\u5e972\u5c42", "province": "\u6c5f\u82cf\u7701", "city": "\u5357\u4eac\u5e02", "area": "\u5efa\u90ba\u533a", "detail": 1, "uid": "284aadb7836a17d7da2f2863", "detail_info": {"tag": "\u8d2d\u7269;\u5546\u94fa", "type": "shopping", "detail_url": "http://api.map.baidu.com/place/detail?uid=284aadb7836a17d7da2f2863&output=html&source=placeapi_v2", "children": [], "lat": 32.009552428716646, "lng": 118.72654593224519}}, {"name": "\u6781\u7c73\u4f53\u9a8c\u5e97", "location": {"lat": 32.01100352589581, "lng": 118.71718773057098}, "address": "\u6cb3\u897f\u4e2d\u592e\u5546\u52a1\u533a\u534e\u91c7\u5929\u5730", "province": "\u6c5f\u82cf\u7701", "city": "\u5357\u4eac\u5e02", "area": "\u5efa\u90ba\u533a", "detail": 1, "uid": "ea019e8569c0b06dfe0eb00c", "detail_info": {"tag": "\u8d2d\u7269;\u5bb6\u7535\u6570\u7801", "type": "shopping", "detail_url": "http://api.map.baidu.com/place/detail?uid=ea019e8569c0b06dfe0eb00c&output=html&source=placeapi_v2", "children": [], "lat": 32.01100352589581, "lng": 118.71718773057098}}, {"name": "119\u8bbe\u8ba1\u4e2d\u5fc3", "location": {"lat": 32.008833720849374, "lng": 118.71015862787192}, "address": "\u5357\u4eac\u5e02\u5efa\u90ba\u533a\u5965\u4f53\u5927\u8857\u4e0e\u4e50\u5c71\u8def\u4ea4\u53c9\u8def\u53e3\u5f80\u897f\u7ea6150\u7c73(\u91d1\u9a6c\u90e6\u57ce-\u897f\u533a)", "province": "\u6c5f\u82cf\u7701", "city": "\u5357\u4eac\u5e02", "area": "\u5efa\u90ba\u533a", "detail": 1, "uid": "aa457da33ab8b540b5147fbd", "detail_info": {"tag": "\u8d2d\u7269;\u5546\u94fa", "type": "shopping", "detail_url": "http://api.map.baidu.com/place/detail?uid=aa457da33ab8b540b5147fbd&output=html&source=placeapi_v2", "children": [], "lat": 32.008833720849374, "lng": 118.71015862787192}}, {"name": "Barbie(\u4e2d\u592e\u5546\u573a\u5e97)", "location": {"lat": 32.00884803901349, "lng": 118.7268051317063}, "address": "\u5357\u4eac\u5e02\u5efa\u90ba\u533a\u6c5f\u4e1c\u4e2d\u8def270\u53f7\u4e2d\u592e\u5546\u573aF3", "province": "\u6c5f\u82cf\u7701", "city": "\u5357\u4eac\u5e02", "area": "\u5efa\u90ba\u533a", "street_id": "89781accf1c45e031d1d11be", "detail": 1, "uid": "89781accf1c45e031d1d11be", "detail_info": {"tag": "\u8d2d\u7269;\u5546\u94fa", "indoor_floor": "F3", "type": "shopping", "detail_url": "http://api.map.baidu.com/place/detail?uid=89781accf1c45e031d1d11be&output=html&source=placeapi_v2", "children": [], "lat": 32.00884803901349, "lng": 118.7268051317063}}, {"name": "dasteakhouse\u4e2d\u592e\u5546\u573a", "location": {"lat": 32.00916794787326, "lng": 118.72692581509818}, "address": "\u5357\u4eac\u5e02\u5efa\u90ba\u533a\u6c5f\u4e1c\u4e2d\u8def\u4e0e\u7261\u4e39\u6c5f\u8857\u4ea4\u53c9\u8def\u53e3\u5f80\u4e1c\u7ea650\u7c73(\u4e2d\u592e\u5546\u573a)", "province": "\u6c5f\u82cf\u7701", "city": "\u5357\u4eac\u5e02", "area": "\u5efa\u90ba\u533a", "detail": 1, "uid": "6d97193485827ec89cf779b9", "detail_info": {"tag": "\u8d2d\u7269;\u5546\u94fa", "type": "life", "detail_url": "http://api.map.baidu.com/place/detail?uid=6d97193485827ec89cf779b9&output=html&source=placeapi_v2", "image_num": "1", "children": [], "lat": 32.00916794787326, "lng": 118.72692581509818}}, {"name": "\u4e07\u679c\u4e50", "location": {"lat": 32.01875608486416, "lng": 118.7098189941068}, "address": "\u68a6\u90fd\u5927\u8857188\u53f7\u5fa1\u6c5f\u91d1\u57ce9\u680b104\u5ba4", "province": "\u6c5f\u82cf\u7701", "city": "\u5357\u4eac\u5e02", "area": "\u5efa\u90ba\u533a", "telephone": "18951089218", "detail": 1, "uid": "58e41e5e8c0771a0e856fa98", "detail_info": {"tag": "\u8d2d\u7269;\u5546\u94fa", "type": "shopping", "detail_url": "http://api.map.baidu.com/place/detail?uid=58e41e5e8c0771a0e856fa98&output=html&source=placeapi_v2", "children": [], "lat": 32.01875608486416, "lng": 118.7098189941068}}, {"name": "\u6797\u5b50(\u4e2d\u592e\u5546\u573a\u5e97)", "location": {"lat": 32.00883027928448, "lng": 118.72684102771805}, "address": "\u5357\u4eac\u5e02\u5efa\u90ba\u533a\u6c5f\u4e1c\u4e2d\u8def270\u53f7\u4e2d\u592e\u5546\u573aF2", "province": "\u6c5f\u82cf\u7701", "city": "\u5357\u4eac\u5e02", "area": "\u5efa\u90ba\u533a", "detail": 1, "uid": "d166836775c370c729fc48c8", "detail_info": {"tag": "\u8d2d\u7269;\u5546\u94fa", "indoor_floor": "F2", "type": "shopping", "detail_url": "http://api.map.baidu.com/place/detail?uid=d166836775c370c729fc48c8&output=html&source=placeapi_v2", "children": [], "lat": 32.00883027928448, "lng": 118.72684102771805}}, {"name": "\u4f0a\u8299\u4e3d\u4e13\u67dc", "location": {"lat": 32.01095088602052, "lng": 118.71721459162973}, "address": "\u6c5f\u82cf\u7701\u5357\u4eac\u5e02\u5efa\u90ba\u533a\u6cb3\u897f\u4e2d\u592e\u5546\u52a1\u533a\u6cb3\u897f\u4e2d\u592e\u5546\u52a1\u533a\u6cb3\u897f\u4e2d\u592e\u5546\u52a1\u533a\u6c5f\u4e1c\u4e2d\u8def329\u53f7\u91d1\u5965\u56fd\u9645\u8d2d\u7269\u4e2d\u5fc3", "province": "\u6c5f\u82cf\u7701", "city": "\u5357\u4eac\u5e02", "area": "\u5efa\u90ba\u533a", "detail": 1, "uid": "6709d361adcfc49a43e1928c", "detail_info": {"tag": "\u8d2d\u7269;\u5546\u94fa", "type": "shopping", "detail_url": "http://api.map.baidu.com/place/detail?uid=6709d361adcfc49a43e1928c&output=html&source=placeapi_v2", "children": [], "lat": 32.01095088602052, "lng": 118.71721459162973}}, {"name": "\u5c71\u767e\u60e0(\u4e2d\u592e\u5546\u573a\u6cb3\u897f\u5e97)", "location": {"lat": 32.00895249006596, "lng": 118.7271671251936}, "address": "\u6c5f\u4e1c\u4e2d\u8def237\u53f7\u4e2d\u592e\u5546\u573a1\u697c", "province": "\u6c5f\u82cf\u7701", "city": "\u5357\u4eac\u5e02", "area": "\u5efa\u90ba\u533a", "detail": 1, "uid": "df31a0fbc28ba367b54f5478", "detail_info": {"tag": "\u8d2d\u7269;\u5546\u94fa", "type": "shopping", "detail_url": "http://api.map.baidu.com/place/detail?uid=df31a0fbc28ba367b54f5478&output=html&source=placeapi_v2", "children": [], "lat": 32.00895249006596, "lng": 118.7271671251936}}, {"name": "\u592b\u5170\u831c(\u4e2d\u592e\u5546\u573a\u5e97)", "location": {"lat": 32.00938955258089, "lng": 118.7273127591962}, "address": "\u5357\u4eac\u5efa\u90ba\u533a\u5357\u4eac\u5e02\u5efa\u90ba\u533a\u6c5f\u4e1c\u4e2d\u8def270\u53f7\u4e2d\u592e\u5546\u573aF2", "province": "\u6c5f\u82cf\u7701", "city": "\u5357\u4eac\u5e02", "area": "\u5efa\u90ba\u533a", "street_id": "54f08d2c461caaa3b020a873", "detail": 1, "uid": "54f08d2c461caaa3b020a873", "detail_info": {"tag": "\u8d2d\u7269;\u5546\u94fa", "indoor_floor": "F2", "type": "shopping", "detail_url": "http://api.map.baidu.com/place/detail?uid=54f08d2c461caaa3b020a873&output=html&source=placeapi_v2", "children": [], "lat": 32.00938955258089, "lng": 118.7273127591962}}, {"name": "\u81ea\u52a8\u552e\u8d27\u673a(\u4e2d\u592e\u5546\u573a\u5e97)", "location": {"lat": 32.00905927956883, "lng": 118.72654390561512}, "address": "\u5357\u4eac\u5e02\u5efa\u90ba\u533a\u6c5f\u4e1c\u4e2d\u8def270\u53f7\u4e2d\u592e\u5546\u573aF3", "province": "\u6c5f\u82cf\u7701", "city": "\u5357\u4eac\u5e02", "area": "\u5efa\u90ba\u533a", "street_id": "e1594986a1ed9a5279b55c0a", "detail": 1, "uid": "e1594986a1ed9a5279b55c0a", "detail_info": {"tag": "\u8d2d\u7269;\u5176\u4ed6", "indoor_floor": "F3", "type": "shopping", "detail_url": "http://api.map.baidu.com/place/detail?uid=e1594986a1ed9a5279b55c0a&output=html&source=placeapi_v2", "children": [], "lat": 32.00905927956883, "lng": 118.72654390561512}}, {"name": "\u5361\u96f7\u62c9\u8def\u8f68\u8d5b\u8f66(\u4e2d\u592e\u5546\u573a\u5e97)", "location": {"lat": 32.00930999760297, "lng": 118.72722997960203}, "address": "\u5357\u4eac\u5e02\u5efa\u90ba\u533a\u6c5f\u4e1c\u4e2d\u8def270\u53f7\u4e2d\u592e\u5546\u573aF3", "province": "\u6c5f\u82cf\u7701", "city": "\u5357\u4eac\u5e02", "area": "\u5efa\u90ba\u533a", "detail": 1, "uid": "bedfc394eeef9d067adbd20d", "detail_info": {"tag": "\u8d2d\u7269;\u5546\u94fa", "indoor_floor": "F3", "type": "shopping", "detail_url": "http://api.map.baidu.com/place/detail?uid=bedfc394eeef9d067adbd20d&output=html&source=placeapi_v2", "children": [], "lat": 32.00930999760297, "lng": 118.72722997960203}}, {"name": "Kisscat", "location": {"lat": 32.009552428716646, "lng": 118.72654593224519}, "address": "\u6c5f\u4e1c\u4e2d\u8def128\u53f7\u4e2d\u592e\u5546\u573a\u6cb3\u897f\u5e971\u5c42", "province": "\u6c5f\u82cf\u7701", "city": "\u5357\u4eac\u5e02", "area": "\u5efa\u90ba\u533a", "detail": 1, "uid": "3bf0f600fe3eb2d62b06cefa", "detail_info": {"tag": "\u8d2d\u7269;\u5546\u94fa", "type": "shopping", "detail_url": "http://api.map.baidu.com/place/detail?uid=3bf0f600fe3eb2d62b06cefa&output=html&source=placeapi_v2", "children": [], "lat": 32.009552428716646, "lng": 118.72654593224519}}, {"name": "POLO SPORT(\u4e2d\u592e\u5546\u573a\u5e97)", "location": {"lat": 32.009411610108096, "lng": 118.72716616122176}, "address": "\u5357\u4eac\u5e02\u5efa\u90ba\u533a\u6c5f\u4e1c\u4e2d\u8def270\u53f7\u4e2d\u592e\u5546\u573aF1", "province": "\u6c5f\u82cf\u7701", "city": "\u5357\u4eac\u5e02", "area": "\u5efa\u90ba\u533a", "detail": 1, "uid": "9f59af8141885444c7f50d15", "detail_info": {"tag": "\u8d2d\u7269;\u5546\u94fa", "indoor_floor": "F1", "type": "shopping", "detail_url": "http://api.map.baidu.com/place/detail?uid=9f59af8141885444c7f50d15&output=html&source=placeapi_v2", "children": [], "lat": 32.009411610108096, "lng": 118.72716616122176}}, {"name": "\u6a0a\u6587\u82b1(\u4e2d\u592e\u5546\u573a\u5e97)", "location": {"lat": 32.00915131180052, "lng": 118.72698065948231}, "address": "\u5357\u4eac\u5e02\u5efa\u90ba\u533a\u6c5f\u4e1c\u4e2d\u8def270\u53f7\u4e2d\u592e\u5546\u573aF2", "province": "\u6c5f\u82cf\u7701", "city": "\u5357\u4eac\u5e02", "area": "\u5efa\u90ba\u533a", "detail": 1, "uid": "dc16ae652c2051ba49fc8d6c", "detail_info": {"tag": "\u8d2d\u7269;\u5546\u94fa", "indoor_floor": "F2", "type": "shopping", "detail_url": "http://api.map.baidu.com/place/detail?uid=dc16ae652c2051ba49fc8d6c&output=html&source=placeapi_v2", "children": [], "lat": 32.00915131180052, "lng": 118.72698065948231}}, {"name": "\u68a6\u4e4b\u84dd", "location": {"lat": 32.024988595366345, "lng": 118.72051610720295}, "address": "\u5357\u4eac\u5e02\u5efa\u90ba\u533a\u4e50\u5c71\u8def\u4e0e\u5e94\u5929\u5927\u8857\u4ea4\u53c9\u8def\u53e3\u5357\u4fa7(\u83b1\u8499\u00b7\u6c34\u69ad\u6625\u5929)", "province": "\u6c5f\u82cf\u7701", "city": "\u5357\u4eac\u5e02", "area": "\u5efa\u90ba\u533a", "street_id": "e4c678db211f29ab61180954", "telephone": "18994087546", "detail": 1, "uid": "e4c678db211f29ab61180954", "detail_info": {"tag": "\u8d2d\u7269;\u5546\u94fa", "navi_location": {"lng": 118.73216299975, "lat": 32.028760015751}, "type": "shopping", "detail_url": "http://api.map.baidu.com/place/detail?uid=e4c678db211f29ab61180954&output=html&source=placeapi_v2", "children": [], "lat": 32.024988595366345, "lng": 118.72051610720295}}, {"name": "\u4e91\u9f0e\u7a97\u5e18", "location": {"lat": 32.00920398706768, "lng": 118.69462080760107}, "address": "\u6c5f\u82cf\u7701\u5357\u4eac\u5e02\u5efa\u90ba\u533a\u6d32\u6cf0\u8def\u6c5f\u5fc3\u6d32\u68cb\u6746\u4e2d\u5fc3\u8857111\u53f7", "province": "\u6c5f\u82cf\u7701", "city": "\u5357\u4eac\u5e02", "area": "\u5efa\u90ba\u533a", "detail": 1, "uid": "d622bb33fb28ea755cbe86f7", "detail_info": {"tag": "\u8d2d\u7269;\u5bb6\u5c45\u5efa\u6750", "detail_url": "http://api.map.baidu.com/place/detail?uid=d622bb33fb28ea755cbe86f7&output=html&source=placeapi_v2", "children": [], "lat": 32.00920398706768, "lng": 118.69462080760107}}, {"name": "\u8f69\u8f95\u88c5\u9970\u4e3b\u6750\u5c55\u793a\u5385", "location": {"lat": 32.00650392103043, "lng": 118.72578583831272}, "address": "\u65b0\u57ce\u5927\u53a6A\u5ea713\u697c", "province": "\u6c5f\u82cf\u7701", "city": "\u5357\u4eac\u5e02", "area": "\u5efa\u90ba\u533a", "street_id": "f3ac7c49027f6b0f9e9d6880", "detail": 1, "uid": "f3ac7c49027f6b0f9e9d6880", "detail_info": {"tag": "\u8d2d\u7269;\u5bb6\u5c45\u5efa\u6750", "navi_location": {"lng": 118.73800557519, "lat": 32.012004906511}, "type": "shopping", "detail_url": "http://api.map.baidu.com/place/detail?uid=f3ac7c49027f6b0f9e9d6880&output=html&source=placeapi_v2", "children": [], "lat": 32.00650392103043, "lng": 118.72578583831272}}, {"name": "\u5eb7\u6734\u4e50(\u4e2d\u592e\u5546\u573a\u5e97)", "location": {"lat": 32.009059406408205, "lng": 118.72699860211428}, "address": "\u5357\u4eac\u5e02\u5efa\u90ba\u533a\u6c5f\u4e1c\u4e2d\u8def270\u53f7\u4e2d\u592e\u5546\u573aF3", "province": "\u6c5f\u82cf\u7701", "city": "\u5357\u4eac\u5e02", "area": "\u5efa\u90ba\u533a", "street_id": "19b524b0a4b5b5815abbbc10", "detail": 1, "uid": "19b524b0a4b5b5815abbbc10", "detail_info": {"tag": "\u8d2d\u7269;\u5bb6\u5c45\u5efa\u6750", "indoor_floor": "F3", "type": "shopping", "detail_url": "http://api.map.baidu.com/place/detail?uid=19b524b0a4b5b5815abbbc10&output=html&source=placeapi_v2", "children": [], "lat": 32.009059406408205, "lng": 118.72699860211428}}, {"name": "\u4e2d\u592e\u5546\u573a-\u697c\u68af", "location": {"lat": 32.00938363814364, "lng": 118.72672540114225}, "address": "\u5357\u4eac\u5e02\u5efa\u90ba\u533a\u6c5f\u4e1c\u4e2d\u8def270\u53f7\u4e2d\u592e\u5546\u573aB2", "province": "\u6c5f\u82cf\u7701", "city": "\u5357\u4eac\u5e02", "area": "\u5efa\u90ba\u533a", "street_id": "4569049461a9ea953a04b1a7", "detail": 1, "uid": "4569049461a9ea953a04b1a7", "detail_info": {"tag": "\u751f\u6d3b\u670d\u52a1;\u5176\u4ed6", "indoor_floor": "B2", "type": "life", "detail_url": "http://api.map.baidu.com/place/detail?uid=4569049461a9ea953a04b1a7&output=html&source=placeapi_v2", "image_num": "1", "children": [], "lat": 32.00938363814364, "lng": 118.72672540114225}}, {"name": "\u82cf\u5b81\u73af\u7403\u5546\u8d38\u57ce", "location": {"lat": 32.0466983092354, "lng": 118.72469876078821}, "address": "\u5357\u4eac\u5e02\u9f13\u697c\u533a\u6e05\u6c5f\u8def99\u53f7", "province": "\u6c5f\u82cf\u7701", "city": "\u5357\u4eac\u5e02", "area": "\u9f13\u697c\u533a", "street_id": "15ed53cee620034d9222e048", "telephone": "(025)57910888", "detail": 1, "uid": "15ed53cee620034d9222e048", "detail_info": {"tag": "\u8d2d\u7269;\u8d2d\u7269\u4e2d\u5fc3", "navi_location": {"lng": 118.73716598114, "lat": 32.049990473753}, "type": "shopping", "detail_url": "http://api.map.baidu.com/place/detail?uid=15ed53cee620034d9222e048&output=html&source=placeapi_v2", "overall_rating": "4.3", "comment_num": "36", "children": [], "lat": 32.0466983092354, "lng": 118.72469876078821}}, {"name": "\u82cf\u5b81\u73af\u7403\u5546\u8d38\u57ce\u4e8c\u671f(\u82cf\u5b81\u73af\u7403\u5546\u8d38\u57ce\u5e97)", "location": {"lat": 32.04567062413515, "lng": 118.72571054920148}, "address": "\u6e05\u6c5f\u8def99\u53f7", "province": "\u6c5f\u82cf\u7701", "city": "\u5357\u4eac\u5e02", "area": "\u9f13\u697c\u533a", "street_id": "067dd585480ef4d44e2fdf7a", "telephone": "(025)57910888", "detail": 1, "uid": "067dd585480ef4d44e2fdf7a", "detail_info": {"tag": "\u8d2d\u7269;\u8d2d\u7269\u4e2d\u5fc3", "navi_location": {"lng": 118.73728567855, "lat": 32.049551784261}, "type": "shopping", "detail_url": "http://api.map.baidu.com/place/detail?uid=067dd585480ef4d44e2fdf7a&output=html&source=placeapi_v2", "overall_rating": "1.0", "comment_num": "3", "children": [], "lat": 32.04567062413515, "lng": 118.72571054920148}}, {"name": "\u82cf\u5b81\u5929\u73ba\u5c1a\u5ea7\u751f\u6d3b\u5e7f\u573a", "location": {"lat": 32.046154416119904, "lng": 118.72494451682665}, "address": "\u6e05\u6c5f\u8def85\u53f7\u82cf\u5b81\u5929\u73ba\u5c1a\u5ea7", "province": "\u6c5f\u82cf\u7701", "city": "\u5357\u4eac\u5e02", "area": "\u9f13\u697c\u533a", "detail": 1, "uid": "a7b6130b0bee3c13a2d2309e", "detail_info": {"tag": "\u8d2d\u7269;\u8d2d\u7269\u4e2d\u5fc3", "type": "shopping", "detail_url": "http://api.map.baidu.com/place/detail?uid=a7b6130b0bee3c13a2d2309e&output=html&source=placeapi_v2", "children": [], "lat": 32.046154416119904, "lng": 118.72494451682665}}, {"name": "\u5929\u73ba\u5c1a\u5ea7(\u82cf\u5b81\u73af\u7403\u5546\u8d38\u57ce\u4e8c\u671f\u5e97)", "location": {"lat": 32.046203581334346, "lng": 118.72496439651415}, "address": "\u6c5f\u82cf\u7701\u5357\u4eac\u5e02\u9f13\u697c\u533a\u6e05\u6c5f\u8def85\u53f7", "province": "\u6c5f\u82cf\u7701", "city": "\u5357\u4eac\u5e02", "area": "\u9f13\u697c\u533a", "street_id": "96ece518cfa1495f6ca3cc00", "detail": 1, "uid": "96ece518cfa1495f6ca3cc00", "detail_info": {"tag": "\u8d2d\u7269;\u5176\u4ed6", "navi_location": {"lng": 118.73728176463, "lat": 32.049493322191}, "type": "shopping", "detail_url": "http://api.map.baidu.com/place/detail?uid=96ece518cfa1495f6ca3cc00&output=html&source=placeapi_v2", "overall_rating": "4.1", "comment_num": "12", "children": [], "lat": 32.046203581334346, "lng": 118.72496439651415}}, {"name": "\u6e05\u6c5f\u8def\u83dc\u573a", "location": {"lat": 32.04551526575999, "lng": 118.72516448171997}, "address": "\u6c5f\u82cf\u7701\u5357\u4eac\u5e02\u9f13\u697c\u533a\u6e05\u6c5f\u8def99\u53f7\u82cf\u5b81\u73af\u7403\u5546\u8d38\u57ce\u4e8c\u671fB1\u697c", "province": "\u6c5f\u82cf\u7701", "city": "\u5357\u4eac\u5e02", "area": "\u9f13\u697c\u533a", "street_id": "2a9f03cbdb0b5037593ac8ee", "detail": 1, "uid": "2a9f03cbdb0b5037593ac8ee", "detail_info": {"tag": "\u8d2d\u7269;\u5546\u94fa", "type": "shopping", "detail_url": "http://api.map.baidu.com/place/detail?uid=2a9f03cbdb0b5037593ac8ee&output=html&source=placeapi_v2", "overall_rating": "4.1", "comment_num": "15", "children": [], "lat": 32.04551526575999, "lng": 118.72516448171997}}, {"name": "\u597d\u53c8\u591a\u8d85\u5e02(\u6c49\u4e2d\u95e8\u5927\u8857\u5e97)", "location": {"lat": 32.04207209622892, "lng": 118.72465500316568}, "address": "\u9f13\u697c\u533a\u6c49\u4e2d\u95e8\u5927\u8857420\u53f7", "province": "\u6c5f\u82cf\u7701", "city": "\u5357\u4eac\u5e02", "area": "\u9f13\u697c\u533a", "street_id": "e8cf18475ab61e12b8bd63dd", "detail": 1, "uid": "e8cf18475ab61e12b8bd63dd", "detail_info": {"tag": "\u8d2d\u7269;\u8d85\u5e02", "navi_location": {"lng": 118.73694725183, "lat": 32.045491136374}, "type": "shopping", "detail_url": "http://api.map.baidu.com/place/detail?uid=e8cf18475ab61e12b8bd63dd&output=html&source=placeapi_v2", "overall_rating": "0.0", "children": [], "lat": 32.04207209622892, "lng": 118.72465500316568}}, {"name": "\u7530\u535a\u58eb\u679c\u852c\u751f\u9c9c\u4e13\u8425\u5e97(NO.14028\u5e97)", "location": {"lat": 32.033724680503305, "lng": 118.72768679551888}, "address": "\u5357\u4eac\u5e02\u9f13\u697c\u533a\u96c6\u8d24\u8def11\u53f7", "province": "\u6c5f\u82cf\u7701", "city": "\u5357\u4eac\u5e02", "area": "\u9f13\u697c\u533a", "street_id": "2a133bdeca1914107bf7960c", "telephone": "18262630999", "detail": 1, "uid": "2a133bdeca1914107bf7960c", "detail_info": {"tag": "\u8d2d\u7269;\u5546\u94fa", "type": "shopping", "detail_url": "http://api.map.baidu.com/place/detail?uid=2a133bdeca1914107bf7960c&output=html&source=placeapi_v2", "overall_rating": "4.2", "comment_num": "23", "children": [], "lat": 32.033724680503305, "lng": 118.72768679551888}}, {"name": "\u534e\u519c\u83dc\u573a(\u82cf\u5b81\u73af\u7403\u5546\u8d38\u57ce\u5e97)", "location": {"lat": 32.045880501859386, "lng": 118.72483518471785}, "address": "\u5357\u4eac\u5e02\u9f13\u697c\u533a\u6e05\u6c5f\u8def99\u53f7\u82cf\u5b81\u73af\u7403\u5546\u8d38\u57ceB1", "province": "\u6c5f\u82cf\u7701", "city": "\u5357\u4eac\u5e02", "area": "\u9f13\u697c\u533a", "street_id": "7f858817c8a540da1b94c628", "detail": 1, "uid": "7f858817c8a540da1b94c628", "detail_info": {"tag": "\u8d2d\u7269;\u5546\u94fa", "indoor_floor": "B1", "type": "shopping", "detail_url": "http://api.map.baidu.com/place/detail?uid=7f858817c8a540da1b94c628&output=html&source=placeapi_v2", "overall_rating": "4.1", "comment_num": "25", "children": [], "lat": 32.045880501859386, "lng": 118.72483518471785}}, {"name": "\u73af\u7403\u6c34\u679c\u5927\u5356\u573a(\u96c6\u8d24\u8def\u5e97)", "location": {"lat": 32.03384096629466, "lng": 118.72583696841353}, "address": "\u6cb3\u897f\u4e07\u8fbe\u5e7f\u573a\u96c6\u8d24\u8def35\u53f7", "province": "\u6c5f\u82cf\u7701", "city": "\u5357\u4eac\u5e02", "area": "\u9f13\u697c\u533a", "street_id": "a6e6b499799bcab328b97cce", "telephone": "13851421727", "detail": 1, "uid": "a6e6b499799bcab328b97cce", "detail_info": {"tag": "\u8d2d\u7269;\u5546\u94fa", "navi_location": {"lng": 118.7378089999, "lat": 32.037423017399}, "type": "shopping", "detail_url": "http://api.map.baidu.com/place/detail?uid=a6e6b499799bcab328b97cce&output=html&source=placeapi_v2", "overall_rating": "4.2", "comment_num": "10", "children": [], "lat": 32.03384096629466, "lng": 118.72583696841353}}, {"name": "\u534e\u4ed4\u7ebd\u604b(\u4e1c\u5b9d\u8def\u5e97)", "location": {"lat": 32.04498042617136, "lng": 118.72738143002948}, "address": "\u4e1c\u5b9d\u8def29\u53f7", "province": "\u6c5f\u82cf\u7701", "city": "\u5357\u4eac\u5e02", "area": "\u9f13\u697c\u533a", "street_id": "269f28847ec0c61c223bf2a0", "telephone": "(025)86557729", "detail": 1, "uid": "269f28847ec0c61c223bf2a0", "detail_info": {"tag": "\u8d2d\u7269;\u5546\u94fa", "type": "shopping", "detail_url": "http://api.map.baidu.com/place/detail?uid=269f28847ec0c61c223bf2a0&output=html&source=placeapi_v2", "overall_rating": "3.3", "comment_num": "10", "children": [], "lat": 32.04498042617136, "lng": 118.72738143002948}}, {"name": "\u5357\u4eac\u7d2b\u7802\u6c47", "location": {"lat": 32.03419344448375, "lng": 118.71170737508805}, "address": "\u6c5f\u82cf\u7701\u5357\u4eac\u5e02\u5efa\u90ba\u533a\u626c\u5b50\u6c5f\u5927\u9053222\u53f7\u4e07\u666f\u56ed11\u680b", "province": "\u6c5f\u82cf\u7701", "city": "\u5357\u4eac\u5e02", "area": "\u5efa\u90ba\u533a", "telephone": "(025)86271552", "detail": 1, "uid": "5299c8aff08116b1120daa84", "detail_info": {"tag": "\u8d2d\u7269;\u5546\u94fa", "type": "shopping", "detail_url": "http://api.map.baidu.com/place/detail?uid=5299c8aff08116b1120daa84&output=html&source=placeapi_v2", "overall_rating": "4.0", "comment_num": "2", "children": [], "lat": 32.03419344448375, "lng": 118.71170737508805}}, {"name": "\u65e5\u6742\u767e\u8d27\u9999\u70db\u6279\u53d1(\u82cf\u5b81\u73af\u7403\u5546\u8d38\u57ce\u5e97)", "location": {"lat": 32.04716274033821, "lng": 118.72463448024912}, "address": "\u5357\u4eac\u5e02\u9f13\u697c\u533a\u6e05\u6c5f\u8def99\u53f7\u82cf\u5b81\u73af\u7403\u5546\u8d38\u57ceF1", "province": "\u6c5f\u82cf\u7701", "city": "\u5357\u4eac\u5e02", "area": "\u9f13\u697c\u533a", "street_id": "b11bf3a38276110a7bf79665", "detail": 1, "uid": "b11bf3a38276110a7bf79665", "detail_info": {"tag": "\u8d2d\u7269;\u5546\u94fa", "navi_location": {"lng": 118.73716598024, "lat": 32.049989473514}, "indoor_floor": "F1", "type": "shopping", "detail_url": "http://api.map.baidu.com/place/detail?uid=b11bf3a38276110a7bf79665&output=html&source=placeapi_v2", "children": [], "lat": 32.04716274033821, "lng": 118.72463448024912}}, {"name": "\u6c38\u594e\u6c34\u679c\u5927\u5356\u573a(\u6e05\u6c5f\u8def\u5e97)", "location": {"lat": 32.04458670652429, "lng": 118.72758432513153}, "address": "\u6c5f\u82cf\u7701\u5357\u4eac\u5e02\u9f13\u697c\u533a\u6e05\u6c5f\u8def55\u9644\u8fd1", "province": "\u6c5f\u82cf\u7701", "city": "\u5357\u4eac\u5e02", "area": "\u9f13\u697c\u533a", "telephone": "13776501063", "detail": 1, "uid": "1d77ce6e30b4c5eeb817e767", "detail_info": {"tag": "\u8d2d\u7269;\u5546\u94fa", "type": "shopping", "detail_url": "http://api.map.baidu.com/place/detail?uid=1d77ce6e30b4c5eeb817e767&output=html&source=placeapi_v2", "overall_rating": "4.5", "comment_num": "11", "children": [], "lat": 32.04458670652429, "lng": 118.72758432513153}}, {"name": "\u9152\u897f\u4e1c\u65d7\u8230\u5e97(\u4e07\u8fbe\u5e97)", "location": {"lat": 32.03367691665406, "lng": 118.72679427498456}, "address": "\u5357\u4eac\u5e02\u9f13\u697c\u533a\u96c6\u8d24\u8def\u4e0e\u6da6\u6c5f\u8def\u4ea4\u53c9\u8def\u53e3\u4e1c\u4fa7(\u82cf\u5b81\u777f\u57ce\u94f6\u6cb3\u56fd\u9645\u8857\u533a)", "province": "\u6c5f\u82cf\u7701", "city": "\u5357\u4eac\u5e02", "area": "\u9f13\u697c\u533a", "street_id": "ee2b5069a06d222df4e73b32", "detail": 1, "uid": "ee2b5069a06d222df4e73b32", "detail_info": {"tag": "\u8d2d\u7269;\u5546\u94fa", "type": "shopping", "detail_url": "http://api.map.baidu.com/place/detail?uid=ee2b5069a06d222df4e73b32&output=html&source=placeapi_v2", "overall_rating": "5.0", "comment_num": "2", "children": [], "lat": 32.03367691665406, "lng": 118.72679427498456}}, {"name": "\u7f57\u68ee\u4fbf\u5229\u5e97(\u82cf\u5b81\u777f\u57ce\u5e97)", "location": {"lat": 32.03383479214834, "lng": 118.72470966673471}, "address": "\u5357\u4eac\u5e02\u9f13\u697c\u533a\u96c6\u8d24\u8def49\u53f7", "province": "\u6c5f\u82cf\u7701", "city": "\u5357\u4eac\u5e02", "area": "\u9f13\u697c\u533a", "street_id": "c4e3eb3565bf6ff8c056ac63", "telephone": "(025)83611405", "detail": 1, "uid": "c4e3eb3565bf6ff8c056ac63", "detail_info": {"tag": "\u8d2d\u7269;\u4fbf\u5229\u5e97", "navi_location": {"lng": 118.7367197362, "lat": 32.037768972975}, "type": "shopping", "detail_url": "http://api.map.baidu.com/place/detail?uid=c4e3eb3565bf6ff8c056ac63&output=html&source=placeapi_v2", "overall_rating": "4.8", "comment_num": "25", "children": [], "lat": 32.03383479214834, "lng": 118.72470966673471}}, {"name": "\u4e1c\u5b9d\u82b1\u56ed\u793e\u533a\u83dc\u5e02\u573a", "location": {"lat": 32.04455125032337, "lng": 118.72767313238538}, "address": "\u4e1c\u5b9d\u8def29\u53f7\u5609\u666f\u82d1\u5c0f\u533a\u5927\u95e8\u65c1", "province": "\u6c5f\u82cf\u7701", "city": "\u5357\u4eac\u5e02", "area": "\u9f13\u697c\u533a", "street_id": "d36cd37f6d044c43afee7a03", "detail": 1, "uid": "d36cd37f6d044c43afee7a03", "detail_info": {"tag": "\u8d2d\u7269;\u5e02\u573a", "navi_location": {"lng": 118.73961128102, "lat": 32.048152027746}, "type": "shopping", "detail_url": "http://api.map.baidu.com/place/detail?uid=d36cd37f6d044c43afee7a03&output=html&source=placeapi_v2", "overall_rating": "4.2", "comment_num": "8", "children": [], "lat": 32.04455125032337, "lng": 118.72767313238538}}, {"name": "\u82cf\u5b81\u6167\u8c37e07", "location": {"lat": 32.03355780833889, "lng": 118.71646659889537}, "address": "\u5357\u4eac\u5e02\u9f13\u697c\u533a\u96c6\u5e86\u95e8\u5927\u8857\u4e0e\u6e05\u6cb3\u8def\u4ea4\u53c9\u8def\u53e3\u5f80\u4e1c\u5357\u7ea650\u7c73(\u82cf\u5b81\u777f\u57ce\u82cf\u5b81\u6167\u8c37)", "province": "\u6c5f\u82cf\u7701", "city": "\u5357\u4eac\u5e02", "area": "\u5efa\u90ba\u533a", "street_id": "01977a2a7ec8017f2ce67b40", "detail": 1, "uid": "01977a2a7ec8017f2ce67b40", "detail_info": {"tag": "\u8d2d\u7269;\u5bb6\u7535\u6570\u7801", "navi_location": {"lng": 118.72857531037, "lat": 32.037723478867}, "type": "shopping", "detail_url": "http://api.map.baidu.com/place/detail?uid=01977a2a7ec8017f2ce67b40&output=html&source=placeapi_v2", "overall_rating": "5.0", "comment_num": "42", "children": [], "lat": 32.03355780833889, "lng": 118.71646659889537}}, {"name": "\u82cf\u5b81\u5c0f\u5e97(\u94f6\u6cb3\u56fd\u9645\u5e97)", "location": {"lat": 32.033710308079065, "lng": 118.72628373398834}, "address": "\u9f13\u697c\u533a\u82cf\u5b81\u777f\u57ce\u94f6\u6cb3\u56fd\u9645\u96c6\u8d24\u8def31\u53f7", "province": "\u6c5f\u82cf\u7701", "city": "\u5357\u4eac\u5e02", "area": "\u9f13\u697c\u533a", "street_id": "30df7a66e3012397ae045799", "telephone": "18551651164", "detail": 1, "uid": "30df7a66e3012397ae045799", "detail_info": {"tag": "\u8d2d\u7269;\u4fbf\u5229\u5e97", "type": "shopping", "detail_url": "http://api.map.baidu.com/place/detail?uid=30df7a66e3012397ae045799&output=html&source=placeapi_v2", "price": "0.0", "overall_rating": "4.5", "comment_num": "15", "children": [], "lat": 32.033710308079065, "lng": 118.72628373398834}}, {"name": "\u6768\u6c0f\u540d\u70df\u540d\u9152(\u96c6\u8d24\u8def\u5e97)", "location": {"lat": 32.033892739582605, "lng": 118.72567841429142}, "address": "\u82cf\u5b81\u777f\u57ce\u96c6\u8d24\u8def37\u53f7", "province": "\u6c5f\u82cf\u7701", "city": "\u5357\u4eac\u5e02", "area": "\u9f13\u697c\u533a", "street_id": "347c91ea70b98ce92b06cefc", "telephone": "17705191919", "detail": 1, "uid": "347c91ea70b98ce92b06cefc", "detail_info": {"tag": "\u8d2d\u7269;\u5546\u94fa", "navi_location": {"lng": 118.73775671852, "lat": 32.037677833222}, "type": "shopping", "detail_url": "http://api.map.baidu.com/place/detail?uid=347c91ea70b98ce92b06cefc&output=html&source=placeapi_v2", "children": [], "lat": 32.033892739582605, "lng": 118.72567841429142}}, {"name": "\u82cf\u679c\u597d\u7684\u4fbf\u5229\u5e97(\u6e05\u6c5f\u8def\u5e97)", "location": {"lat": 32.04381562410845, "lng": 118.72557402351175}, "address": "\u5357\u4eac\u5e02\u9f13\u697c\u533a\u6e05\u6c5f\u8def\u4e0e\u4e1c\u5b9d\u8def\u4ea4\u53c9\u8def\u53e3\u5f80\u5357\u7ea6100\u7c73(\u6e05\u6cb3\u65b0\u5bd3\u4e00\u6751)", "province": "\u6c5f\u82cf\u7701", "city": "\u5357\u4eac\u5e02", "area": "\u9f13\u697c\u533a", "detail": 1, "uid": "ae6445b70ea084caf02d8347", "detail_info": {"tag": "\u8d2d\u7269;\u4fbf\u5229\u5e97", "type": "shopping", "detail_url": "http://api.map.baidu.com/place/detail?uid=ae6445b70ea084caf02d8347&output=html&source=placeapi_v2", "overall_rating": "3.8", "comment_num": "12", "children": [], "lat": 32.04381562410845, "lng": 118.72557402351175}}, {"name": "\u90bb\u4ed5\u5bb6(\u82cf\u5b81\u6167\u8c37\u5e97)", "location": {"lat": 32.03441168186186, "lng": 118.71695215420951}, "address": "\u96c6\u5e86\u95e8\u5927\u8857272\u53f7\u82cf\u5b81\u6167\u8c37E07\u680b118\u53f7\u5546\u94fa", "province": "\u6c5f\u82cf\u7701", "city": "\u5357\u4eac\u5e02", "area": "\u9f13\u697c\u533a", "detail": 1, "uid": "91983d01e928f14bc909f0e3", "detail_info": {"tag": "\u8d2d\u7269;\u4fbf\u5229\u5e97", "type": "shopping", "detail_url": "http://api.map.baidu.com/place/detail?uid=91983d01e928f14bc909f0e3&output=html&source=placeapi_v2", "overall_rating": "4.5", "comment_num": "2", "children": [], "lat": 32.03441168186186, "lng": 118.71695215420951}}, {"name": "\u7231\u739b\u7535\u52a8\u8f66(\u6e05\u6c5f\u8def\u5e97)", "location": {"lat": 32.045041899034786, "lng": 118.72574313584373}, "address": "\u6c5f\u82cf\u7701\u5357\u4eac\u5e02\u9f13\u697c\u533a\u6e05\u6c5f\u8def72\u53f7\u9644\u8fd1", "province": "\u6c5f\u82cf\u7701", "city": "\u5357\u4eac\u5e02", "area": "\u9f13\u697c\u533a", "street_id": "785991d42539ba3b46572602", "detail": 1, "uid": "785991d42539ba3b46572602", "detail_info": {"tag": "\u8d2d\u7269;\u5546\u94fa", "type": "shopping", "detail_url": "http://api.map.baidu.com/place/detail?uid=785991d42539ba3b46572602&output=html&source=placeapi_v2", "children": [], "lat": 32.045041899034786, "lng": 118.72574313584373}}, {"name": "\u8bda\u4fe1\u4e94\u91d1\u5efa\u6750\u7ecf\u8425\u90e8(\u4e1c\u5b9d\u8def\u5e97)", "location": {"lat": 32.045053086437456, "lng": 118.72490086878648}, "address": "\u6c5f\u82cf\u7701\u5357\u4eac\u5e02\u9f13\u697c\u533a\u4e1c\u5b9d\u8def9\u53f7", "province": "\u6c5f\u82cf\u7701", "city": "\u5357\u4eac\u5e02", "area": "\u9f13\u697c\u533a", "street_id": "ec4a8f9561446e718a36ee5c", "detail": 1, "uid": "ec4a8f9561446e718a36ee5c", "detail_info": {"tag": "\u8d2d\u7269;\u5bb6\u5c45\u5efa\u6750", "navi_location": {"lng": 118.73667300005, "lat": 32.048858019437}, "type": "shopping", "detail_url": "http://api.map.baidu.com/place/detail?uid=ec4a8f9561446e718a36ee5c&output=html&source=placeapi_v2", "overall_rating": "0.0", "comment_num": "1", "children": [], "lat": 32.045053086437456, "lng": 118.72490086878648}}, {"name": "\u82cf\u679c\u4fbf\u5229\u5e97(\u94f6\u57ce\u5e97)", "location": {"lat": 32.05555158710953, "lng": 118.7266767002987}, "address": "\u6c5f\u82cf\u7701\u5357\u4eac\u5e02\u9f13\u697c\u533a\u94f6\u57ce\u8857\u94f6\u57ce\u82b1\u56ed11\u53f7101\u5ba4", "province": "\u6c5f\u82cf\u7701", "city": "\u5357\u4eac\u5e02", "area": "\u9f13\u697c\u533a", "street_id": "61f634f64af232786a49f3a2", "telephone": "(025)86280365", "detail": 1, "uid": "61f634f64af232786a49f3a2", "detail_info": {"tag": "\u8d2d\u7269;\u4fbf\u5229\u5e97", "type": "shopping", "detail_url": "http://api.map.baidu.com/place/detail?uid=61f634f64af232786a49f3a2&output=html&source=placeapi_v2", "price": "0.0", "overall_rating": "4.0", "comment_num": "6", "children": [], "lat": 32.05555158710953, "lng": 118.7266767002987}}, {"name": "\u94f6\u57ce\u519c\u8d38\u5e02\u573a", "location": {"lat": 32.05407980165431, "lng": 118.724652430347}, "address": "\u5357\u4eac\u5e02\u9f13\u697c\u533a\u6ee8\u6c5f\u5927\u90531\u53f7", "province": "\u6c5f\u82cf\u7701", "city": "\u5357\u4eac\u5e02", "area": "\u9f13\u697c\u533a", "street_id": "2ed320ff323a8f2d21022090", "detail": 1, "uid": "2ed320ff323a8f2d21022090", "detail_info": {"tag": "\u8d2d\u7269;\u5e02\u573a", "type": "shopping", "detail_url": "http://api.map.baidu.com/place/detail?uid=2ed320ff323a8f2d21022090&output=html&source=placeapi_v2", "children": [], "lat": 32.05407980165431, "lng": 118.724652430347}}, {"name": "\u5e86\u7965\u4e94\u91d1\u5efa\u6750(\u94f6\u57ce\u8857\u5e97)", "location": {"lat": 32.05554296833241, "lng": 118.72644637906276}, "address": "\u6c5f\u82cf\u7701\u5357\u4eac\u5e02\u9f13\u697c\u533a\u94f6\u57ce\u8857\u94f6\u57ce\u82b1\u56ed15\u53f7", "province": "\u6c5f\u82cf\u7701", "city": "\u5357\u4eac\u5e02", "area": "\u9f13\u697c\u533a", "street_id": "051bef568631f4160d3dda66", "telephone": "13851400239", "detail": 1, "uid": "051bef568631f4160d3dda66", "detail_info": {"tag": "\u8d2d\u7269;\u5bb6\u5c45\u5efa\u6750", "navi_location": {"lng": 118.73834487057, "lat": 32.059241000249}, "type": "shopping", "detail_url": "http://api.map.baidu.com/place/detail?uid=051bef568631f4160d3dda66&output=html&source=placeapi_v2", "overall_rating": "3.0", "comment_num": "1", "children": [], "lat": 32.05554296833241, "lng": 118.72644637906276}}, {"name": "\u53cb\u56e0\u6052\u767e\u8d27(\u82cf\u5b81\u73af\u7403\u5546\u8d38\u57ce\u5e97)", "location": {"lat": 32.047116724897066, "lng": 118.7246325365158}, "address": "\u6e05\u6c5f\u8def99\u53f7\u82cf\u5b81\u73af\u7403\u5546\u8d38\u57ceF1", "province": "\u6c5f\u82cf\u7701", "city": "\u5357\u4eac\u5e02", "area": "\u9f13\u697c\u533a", "street_id": "148d2b494f2915464bcc4ad8", "detail": 1, "uid": "148d2b494f2915464bcc4ad8", "detail_info": {"tag": "\u8d2d\u7269;\u8d85\u5e02", "navi_location": {"lng": 118.73716598024, "lat": 32.049989473514}, "type": "shopping", "detail_url": "http://api.map.baidu.com/place/detail?uid=148d2b494f2915464bcc4ad8&output=html&source=placeapi_v2", "children": [], "lat": 32.047116724897066, "lng": 118.7246325365158}}, {"name": "\u8309\u8389\u82b1\u559c\u94fa", "location": {"lat": 32.046977488602245, "lng": 118.7250761840755}, "address": "\u5357\u4eac\u5e02\u9f13\u697c\u533a\u6e05\u6c5f\u8def99\u53f7\u82cf\u5b81\u73af\u7403\u5546\u8d38\u57ceF1", "province": "\u6c5f\u82cf\u7701", "city": "\u5357\u4eac\u5e02", "area": "\u9f13\u697c\u533a", "detail": 1, "uid": "65089a76f17f48fc3ce231bc", "detail_info": {"tag": "\u8d2d\u7269;\u5546\u94fa", "indoor_floor": "F1", "type": "shopping", "detail_url": "http://api.map.baidu.com/place/detail?uid=65089a76f17f48fc3ce231bc&output=html&source=placeapi_v2", "overall_rating": "5.0", "comment_num": "2", "children": [], "lat": 32.046977488602245, "lng": 118.7250761840755}}, {"name": "\u8fdc\u77e5\u535a\u4e94\u91d1\u9500\u552e\u90e8(\u82cf\u5b81\u73af\u7403\u5546\u8d38\u57ce\u5e97)", "location": {"lat": 32.046884665524246, "lng": 118.7242840046078}, "address": "\u5357\u4eac\u5e02\u9f13\u697c\u533a\u6e05\u6c5f\u8def99\u53f7\u82cf\u5b81\u73af\u7403\u5546\u8d38\u57ceF1", "province": "\u6c5f\u82cf\u7701", "city": "\u5357\u4eac\u5e02", "area": "\u9f13\u697c\u533a", "street_id": "2955ecc64238543588fc0663", "detail": 1, "uid": "2955ecc64238543588fc0663", "detail_info": {"tag": "\u8d2d\u7269;\u5bb6\u5c45\u5efa\u6750", "navi_location": {"lng": 118.73716598024, "lat": 32.049989473514}, "indoor_floor": "F1", "type": "shopping", "detail_url": "http://api.map.baidu.com/place/detail?uid=2955ecc64238543588fc0663&output=html&source=placeapi_v2", "children": [], "lat": 32.046884665524246, "lng": 118.7242840046078}}, {"name": "\u5e0c\u6587\u660a\u4e94\u91d1\u9500\u552e\u4e2d\u5fc3(\u82cf\u5b81\u73af\u7403\u5546\u8d38\u57ce\u5e97)", "location": {"lat": 32.04680265100764, "lng": 118.72428210000814}, "address": "\u6e05\u6c5f\u8def99\u53f7\u82cf\u5b81\u73af\u7403\u5546\u8d38\u57ceF1", "province": "\u6c5f\u82cf\u7701", "city": "\u5357\u4eac\u5e02", "area": "\u9f13\u697c\u533a", "street_id": "9a225765397c1a31441a3298", "detail": 1, "uid": "9a225765397c1a31441a3298", "detail_info": {"tag": "\u8d2d\u7269;\u5bb6\u5c45\u5efa\u6750", "navi_location": {"lng": 118.73716598024, "lat": 32.049989473514}, "type": "shopping", "detail_url": "http://api.map.baidu.com/place/detail?uid=9a225765397c1a31441a3298&output=html&source=placeapi_v2", "children": [], "lat": 32.04680265100764, "lng": 118.72428210000814}}, {"name": "\u4e3d\u5a74\u5341\u516b\u574a(\u82cf\u5b81\u73af\u7403\u5546\u8d38\u57ce\u5e97)", "location": {"lat": 32.04703996893969, "lng": 118.72443131829691}, "address": "\u5357\u4eac\u5e02\u9f13\u697c\u533a\u6e05\u6c5f\u8def99\u53f7\u82cf\u5b81\u73af\u7403\u5546\u8d38\u57ceF2", "province": "\u6c5f\u82cf\u7701", "city": "\u5357\u4eac\u5e02", "area": "\u9f13\u697c\u533a", "street_id": "b17ad2fa892025817dc876ac", "detail": 1, "uid": "b17ad2fa892025817dc876ac", "detail_info": {"tag": "\u8d2d\u7269;\u5546\u94fa", "navi_location": {"lng": 118.73716598024, "lat": 32.049989473514}, "indoor_floor": "F2", "type": "shopping", "detail_url": "http://api.map.baidu.com/place/detail?uid=b17ad2fa892025817dc876ac&output=html&source=placeapi_v2", "children": [], "lat": 32.04703996893969, "lng": 118.72443131829691}}, {"name": "\u946b\u8c46\u9488\u7ec7(\u82cf\u5b81\u73af\u7403\u5546\u8d38\u57ce\u5e97)", "location": {"lat": 32.04649355059053, "lng": 118.72438208216761}, "address": "\u5357\u4eac\u5e02\u9f13\u697c\u533a\u6e05\u6c5f\u8def99\u53f7\u82cf\u5b81\u73af\u7403\u5546\u8d38\u57ceF1", "province": "\u6c5f\u82cf\u7701", "city": "\u5357\u4eac\u5e02", "area": "\u9f13\u697c\u533a", "street_id": "8d396cfdd6919dda108824d8", "detail": 1, "uid": "8d396cfdd6919dda108824d8", "detail_info": {"tag": "\u8d2d\u7269;\u5546\u94fa", "navi_location": {"lng": 118.73716598024, "lat": 32.049989473514}, "indoor_floor": "F1", "type": "shopping", "detail_url": "http://api.map.baidu.com/place/detail?uid=8d396cfdd6919dda108824d8&output=html&source=placeapi_v2", "children": [], "lat": 32.04649355059053, "lng": 118.72438208216761}}, {"name": "\u65b0\u4e1a\u519c\u519c\u526f\u4ea7\u54c1\u5e73\u4ef7\u76f4\u9500\u5e97", "location": {"lat": 32.05184276286471, "lng": 118.7252435815806}, "address": "\u6c5f\u82cf\u7701\u5357\u4eac\u5e02\u9f13\u697c\u533a\u6e58\u6c5f\u8def13\u53f7", "province": "\u6c5f\u82cf\u7701", "city": "\u5357\u4eac\u5e02", "area": "\u9f13\u697c\u533a", "street_id": "fe8f1267a4a32cdb2cb17e52", "detail": 1, "uid": "fe8f1267a4a32cdb2cb17e52", "detail_info": {"tag": "\u8d2d\u7269;\u5546\u94fa", "type": "shopping", "detail_url": "http://api.map.baidu.com/place/detail?uid=fe8f1267a4a32cdb2cb17e52&output=html&source=placeapi_v2", "overall_rating": "5.0", "comment_num": "4", "children": [], "lat": 32.05184276286471, "lng": 118.7252435815806}}, {"name": "\u601d\u601d\u9152\u4e1a", "location": {"lat": 32.0456419019147, "lng": 118.70627570500478}, "address": "\u6c5f\u5fc3\u6d32\u5347\u9f99\u6c5f\u5c9b\u65f6\u4ee38-116", "province": "\u6c5f\u82cf\u7701", "city": "\u5357\u4eac\u5e02", "area": "\u5efa\u90ba\u533a", "telephone": "13057618950", "detail": 1, "uid": "65c9f43b7a5cdcfc6240a9c2", "detail_info": {"tag": "\u8d2d\u7269;\u5546\u94fa", "type": "shopping", "detail_url": "http://api.map.baidu.com/place/detail?uid=65c9f43b7a5cdcfc6240a9c2&output=html&source=placeapi_v2", "children": [], "lat": 32.0456419019147, "lng": 118.70627570500478}}, {"name": "\u6708\u7acb\u65f6\u5c1a\u9970\u54c1(\u82cf\u5b81\u73af\u7403\u5546\u8d38\u57ce\u5e97)", "location": {"lat": 32.046615123388776, "lng": 118.72479352714846}, "address": "\u6e05\u6c5f\u8def99\u53f7\u82cf\u5b81\u73af\u7403\u5546\u8d38\u57ce\u4e00\u697cC10\u53f7(\u80b2\u624d\u516c\u5bd3)", "province": "\u6c5f\u82cf\u7701", "city": "\u5357\u4eac\u5e02", "area": "\u9f13\u697c\u533a", "street_id": "01f8d533cb7fdf5e77026964", "telephone": "13770722803", "detail": 1, "uid": "01f8d533cb7fdf5e77026964", "detail_info": {"tag": "\u8d2d\u7269;\u5546\u94fa", "type": "shopping", "detail_url": "http://api.map.baidu.com/place/detail?uid=01f8d533cb7fdf5e77026964&output=html&source=placeapi_v2", "overall_rating": "5.0", "comment_num": "1", "children": [], "lat": 32.046615123388776, "lng": 118.72479352714846}}, {"name": "\u95fd\u9053\u767e\u8d27(\u82cf\u5b81\u73af\u7403\u5546\u8d38\u57ce\u5e97)", "location": {"lat": 32.04688402123129, "lng": 118.72432386439249}, "address": "\u6e05\u6c5f\u8def99\u53f7\u82cf\u5b81\u73af\u7403\u5546\u8d38\u57ceF1", "province": "\u6c5f\u82cf\u7701", "city": "\u5357\u4eac\u5e02", "area": "\u9f13\u697c\u533a", "street_id": "ea09d957ee6a6ad1f942b2d7", "detail": 1, "uid": "ea09d957ee6a6ad1f942b2d7", "detail_info": {"tag": "\u8d2d\u7269;\u8d85\u5e02", "navi_location": {"lng": 118.73716598024, "lat": 32.049989473514}, "type": "shopping", "detail_url": "http://api.map.baidu.com/place/detail?uid=ea09d957ee6a6ad1f942b2d7&output=html&source=placeapi_v2", "children": [], "lat": 32.04688402123129, "lng": 118.72432386439249}}, {"name": "\u8212\u79c0\u52e4\u529e\u516c(\u82cf\u5b81\u73af\u7403\u5546\u8d38\u57ce\u5e97)", "location": {"lat": 32.04687312653249, "lng": 118.72491284378528}, "address": "\u5357\u4eac\u5e02\u9f13\u697c\u533a\u6e05\u6c5f\u8def99\u53f7\u82cf\u5b81\u73af\u7403\u5546\u8d38\u57ceF1", "province": "\u6c5f\u82cf\u7701", "city": "\u5357\u4eac\u5e02", "area": "\u9f13\u697c\u533a", "street_id": "700e01ceac48765548cc4acc", "telephone": "13605174438", "detail": 1, "uid": "700e01ceac48765548cc4acc", "detail_info": {"tag": "\u8d2d\u7269;\u5546\u94fa", "navi_location": {"lng": 118.73716598024, "lat": 32.049989473514}, "indoor_floor": "F1", "type": "shopping", "detail_url": "http://api.map.baidu.com/place/detail?uid=700e01ceac48765548cc4acc&output=html&source=placeapi_v2", "overall_rating": "4.0", "comment_num": "1", "children": [], "lat": 32.04687312653249, "lng": 118.72491284378528}}, {"name": "\u8a00\u5916\u4e4b\u610f(\u82cf\u5b81\u73af\u7403\u5546\u8d38\u57ce\u5e97)", "location": {"lat": 32.047085442987175, "lng": 118.72507108460633}, "address": "\u5357\u4eac\u5e02\u9f13\u697c\u533a\u6e05\u6c5f\u8def99\u53f7\u82cf\u5b81\u73af\u7403\u5546\u8d38\u57ceF2", "province": "\u6c5f\u82cf\u7701", "city": "\u5357\u4eac\u5e02", "area": "\u9f13\u697c\u533a", "street_id": "3f0bcf64d90feb10b54f548d", "detail": 1, "uid": "3f0bcf64d90feb10b54f548d", "detail_info": {"tag": "\u8d2d\u7269;\u5546\u94fa", "navi_location": {"lng": 118.73716598024, "lat": 32.049989473514}, "indoor_floor": "F2", "type": "shopping", "detail_url": "http://api.map.baidu.com/place/detail?uid=3f0bcf64d90feb10b54f548d&output=html&source=placeapi_v2", "children": [], "lat": 32.047085442987175, "lng": 118.72507108460633}}, {"name": "\u5ead\u4e50\u4f53\u80b2(\u82cf\u5b81\u73af\u7403\u5546\u8d38\u57ce\u5e97)", "location": {"lat": 32.046875197751056, "lng": 118.72480321275447}, "address": "\u5357\u4eac\u5e02\u9f13\u697c\u533a\u6e05\u6c5f\u8def99\u53f7\u82cf\u5b81\u73af\u7403\u5546\u8d38\u57ceF1", "province": "\u6c5f\u82cf\u7701", "city": "\u5357\u4eac\u5e02", "area": "\u9f13\u697c\u533a", "street_id": "acfabce7f0ddc2f56068581e", "telephone": "13851887546", "detail": 1, "uid": "acfabce7f0ddc2f56068581e", "detail_info": {"tag": "\u8d2d\u7269;\u5546\u94fa", "navi_location": {"lng": 118.73716598024, "lat": 32.049989473514}, "indoor_floor": "F1", "type": "shopping", "detail_url": "http://api.map.baidu.com/place/detail?uid=acfabce7f0ddc2f56068581e&output=html&source=placeapi_v2", "children": [], "lat": 32.046875197751056, "lng": 118.72480321275447}}, {"name": "\u4e1c\u80dc\u7f8a\u7ed2(\u82cf\u5b81\u73af\u7403\u5546\u8d38\u57ce\u5e97)", "location": {"lat": 32.046622729934626, "lng": 118.72451647222145}, "address": "\u5357\u4eac\u5e02\u9f13\u697c\u533a\u6e05\u6c5f\u8def99\u53f7\u82cf\u5b81\u73af\u7403\u5546\u8d38\u57ceF1", "province": "\u6c5f\u82cf\u7701", "city": "\u5357\u4eac\u5e02", "area": "\u9f13\u697c\u533a", "street_id": "3091021a837f5e30c4f50d50", "detail": 1, "uid": "3091021a837f5e30c4f50d50", "detail_info": {"tag": "\u8d2d\u7269;\u5546\u94fa", "navi_location": {"lng": 118.73716598024, "lat": 32.049989473514}, "indoor_floor": "F1", "type": "shopping", "detail_url": "http://api.map.baidu.com/place/detail?uid=3091021a837f5e30c4f50d50&output=html&source=placeapi_v2", "children": [], "lat": 32.046622729934626, "lng": 118.72451647222145}}, {"name": "\u5a77\u5a77\u9488\u7ec7(\u82cf\u5b81\u73af\u7403\u5546\u8d38\u57ce\u5e97)", "location": {"lat": 32.046479412605855, "lng": 118.7244797555367}, "address": "\u5357\u4eac\u5e02\u9f13\u697c\u533a\u6e05\u6c5f\u8def99\u53f7\u82cf\u5b81\u73af\u7403\u5546\u8d38\u57ceF1", "province": "\u6c5f\u82cf\u7701", "city": "\u5357\u4eac\u5e02", "area": "\u9f13\u697c\u533a", "street_id": "8ad0a03bdf99c8d732870a17", "detail": 1, "uid": "8ad0a03bdf99c8d732870a17", "detail_info": {"tag": "\u8d2d\u7269;\u5546\u94fa", "navi_location": {"lng": 118.73716598024, "lat": 32.049989473514}, "indoor_floor": "F1", "type": "shopping", "detail_url": "http://api.map.baidu.com/place/detail?uid=8ad0a03bdf99c8d732870a17&output=html&source=placeapi_v2", "children": [], "lat": 32.046479412605855, "lng": 118.7244797555367}}, {"name": "\u4f9d\u67d4\u767e\u8d27(\u82cf\u5b81\u73af\u7403\u5546\u8d38\u57ce\u5e97)", "location": {"lat": 32.046767185132815, "lng": 118.72480133592504}, "address": "\u5357\u4eac\u5e02\u9f13\u697c\u533a\u6e05\u6c5f\u8def99\u53f7\u82cf\u5b81\u73af\u7403\u5546\u8d38\u57ceF1", "province": "\u6c5f\u82cf\u7701", "city": "\u5357\u4eac\u5e02", "area": "\u9f13\u697c\u533a", "street_id": "8c3f85340bc3842446572626", "detail": 1, "uid": "8c3f85340bc3842446572626", "detail_info": {"tag": "\u8d2d\u7269;\u5546\u94fa", "navi_location": {"lng": 118.73716598024, "lat": 32.049989473514}, "indoor_floor": "F1", "type": "shopping", "detail_url": "http://api.map.baidu.com/place/detail?uid=8c3f85340bc3842446572626&output=html&source=placeapi_v2", "children": [], "lat": 32.046767185132815, "lng": 118.72480133592504}}, {"name": "\u51ef\u8389\u559c\u793c(\u82cf\u5b81\u73af\u7403\u5546\u8d38\u57ce\u5e97)", "location": {"lat": 32.04665314376492, "lng": 118.72515427583275}, "address": "\u5357\u4eac\u5e02\u9f13\u697c\u533a\u6e05\u6c5f\u8def99\u53f7\u82cf\u5b81\u73af\u7403\u5546\u8d38\u57ceF1", "province": "\u6c5f\u82cf\u7701", "city": "\u5357\u4eac\u5e02", "area": "\u9f13\u697c\u533a", "street_id": "17d9567d843b0e66028972b0", "detail": 1, "uid": "17d9567d843b0e66028972b0", "detail_info": {"tag": "\u8d2d\u7269;\u5546\u94fa", "navi_location": {"lng": 118.73716598024, "lat": 32.049989473514}, "indoor_floor": "F1", "type": "shopping", "detail_url": "http://api.map.baidu.com/place/detail?uid=17d9567d843b0e66028972b0&output=html&source=placeapi_v2", "children": [], "lat": 32.04665314376492, "lng": 118.72515427583275}}, {"name": "\u79a7\u5929\u5730(\u82cf\u5b81\u73af\u7403\u5546\u8d38\u57ce\u5e97)", "location": {"lat": 32.046881492429726, "lng": 118.72449028339913}, "address": "\u5357\u4eac\u5e02\u9f13\u697c\u533a\u6e05\u6c5f\u8def99\u53f7\u82cf\u5b81\u73af\u7403\u5546\u8d38\u57ceF1", "province": "\u6c5f\u82cf\u7701", "city": "\u5357\u4eac\u5e02", "area": "\u9f13\u697c\u533a", "street_id": "956eaa2b18fabd6a8d7727cc", "detail": 1, "uid": "956eaa2b18fabd6a8d7727cc", "detail_info": {"tag": "\u8d2d\u7269;\u5546\u94fa", "navi_location": {"lng": 118.73716598024, "lat": 32.049989473514}, "indoor_floor": "F1", "type": "shopping", "detail_url": "http://api.map.baidu.com/place/detail?uid=956eaa2b18fabd6a8d7727cc&output=html&source=placeapi_v2", "children": [], "lat": 32.046881492429726, "lng": 118.72449028339913}}, {"name": "Diao(\u82cf\u5b81\u73af\u7403\u5546\u8d38\u57ce\u5e97)", "location": {"lat": 32.04677628621228, "lng": 118.72517208371245}, "address": "\u5357\u4eac\u5e02\u9f13\u697c\u533a\u6e05\u6c5f\u8def99\u53f7\u82cf\u5b81\u73af\u7403\u5546\u8d38\u57ceF2", "province": "\u6c5f\u82cf\u7701", "city": "\u5357\u4eac\u5e02", "area": "\u9f13\u697c\u533a", "street_id": "a36b1ddf7060da66931fc9c0", "detail": 1, "uid": "a36b1ddf7060da66931fc9c0", "detail_info": {"tag": "\u8d2d\u7269;\u5546\u94fa", "navi_location": {"lng": 118.73716598024, "lat": 32.049989473514}, "indoor_floor": "F2", "type": "shopping", "detail_url": "http://api.map.baidu.com/place/detail?uid=a36b1ddf7060da66931fc9c0&output=html&source=placeapi_v2", "children": [], "lat": 32.04677628621228, "lng": 118.72517208371245}}, {"name": "\u9752\u840d\u9488\u7ec7(\u82cf\u5b81\u73af\u7403\u5546\u8d38\u57ce\u5e97)", "location": {"lat": 32.04667763893067, "lng": 118.72462105046263}, "address": "\u5357\u4eac\u5e02\u9f13\u697c\u533a\u6e05\u6c5f\u8def99\u53f7\u82cf\u5b81\u73af\u7403\u5546\u8d38\u57ceF1", "province": "\u6c5f\u82cf\u7701", "city": "\u5357\u4eac\u5e02", "area": "\u9f13\u697c\u533a", "street_id": "e655b010051250288c55ece4", "detail": 1, "uid": "e655b010051250288c55ece4", "detail_info": {"tag": "\u8d2d\u7269;\u5546\u94fa", "navi_location": {"lng": 118.73716598024, "lat": 32.049989473514}, "indoor_floor": "F1", "type": "shopping", "detail_url": "http://api.map.baidu.com/place/detail?uid=e655b010051250288c55ece4&output=html&source=placeapi_v2", "children": [], "lat": 32.04667763893067, "lng": 118.72462105046263}}, {"name": "\u7476\u8fe6\u5fae\u751f\u6d3b(\u82cf\u5b81\u73af\u7403\u5546\u8d38\u57ce\u5e97)", "location": {"lat": 32.04660628709001, "lng": 118.72458026869026}, "address": "\u5357\u4eac\u5e02\u9f13\u697c\u533a\u6e05\u6c5f\u8def99\u53f7\u82cf\u5b81\u73af\u7403\u5546\u8d38\u57ceF1", "province": "\u6c5f\u82cf\u7701", "city": "\u5357\u4eac\u5e02", "area": "\u9f13\u697c\u533a", "street_id": "01e0ef22f19852831f389481", "detail": 1, "uid": "01e0ef22f19852831f389481", "detail_info": {"tag": "\u8d2d\u7269;\u5546\u94fa", "navi_location": {"lng": 118.73716598024, "lat": 32.049989473514}, "indoor_floor": "F1", "type": "shopping", "detail_url": "http://api.map.baidu.com/place/detail?uid=01e0ef22f19852831f389481&output=html&source=placeapi_v2", "children": [], "lat": 32.04660628709001, "lng": 118.72458026869026}}, {"name": "\u4e07\u5176\u5174\u7434\u574a(\u82cf\u5b81\u73af\u7403\u5546\u8d38\u57ce\u5e97)", "location": {"lat": 32.047222630575874, "lng": 118.72473806024608}, "address": "\u5357\u4eac\u5e02\u9f13\u697c\u533a\u6e05\u6c5f\u8def99\u53f7\u82cf\u5b81\u73af\u7403\u5546\u8d38\u57ceF1", "province": "\u6c5f\u82cf\u7701", "city": "\u5357\u4eac\u5e02", "area": "\u9f13\u697c\u533a", "street_id": "840265d19504cf5352e5c5bd", "detail": 1, "uid": "840265d19504cf5352e5c5bd", "detail_info": {"tag": "\u8d2d\u7269;\u5546\u94fa", "navi_location": {"lng": 118.73716598024, "lat": 32.049989473514}, "indoor_floor": "F1", "type": "shopping", "detail_url": "http://api.map.baidu.com/place/detail?uid=840265d19504cf5352e5c5bd&output=html&source=placeapi_v2", "children": [], "lat": 32.047222630575874, "lng": 118.72473806024608}}, {"name": "\u5927\u9ea6", "location": {"lat": 32.04703558068903, "lng": 118.72496748461218}, "address": "\u5357\u4eac\u5e02\u9f13\u697c\u533a\u6e05\u6c5f\u8def99\u53f7\u82cf\u5b81\u73af\u7403\u5546\u8d38\u57ceF2", "province": "\u6c5f\u82cf\u7701", "city": "\u5357\u4eac\u5e02", "area": "\u9f13\u697c\u533a", "detail": 1, "uid": "e734a1ad7e14f8440ab93a47", "detail_info": {"tag": "\u8d2d\u7269;\u5546\u94fa", "type": "life", "detail_url": "http://api.map.baidu.com/place/detail?uid=e734a1ad7e14f8440ab93a47&output=html&source=placeapi_v2", "image_num": "1", "children": [], "lat": 32.04703558068903, "lng": 118.72496748461218}}, {"name": "\u8377\u5858\u6708\u8272(\u82cf\u5b81\u73af\u7403\u5546\u8d38\u57ce\u5e97)", "location": {"lat": 32.04694959865151, "lng": 118.72473337057522}, "address": "\u5357\u4eac\u5e02\u9f13\u697c\u533a\u6e05\u6c5f\u8def99\u53f7\u82cf\u5b81\u73af\u7403\u5546\u8d38\u57ceF2", "province": "\u6c5f\u82cf\u7701", "city": "\u5357\u4eac\u5e02", "area": "\u9f13\u697c\u533a", "street_id": "1b720a6a63d0fa0204fef5cb", "detail": 1, "uid": "1b720a6a63d0fa0204fef5cb", "detail_info": {"tag": "\u8d2d\u7269;\u5546\u94fa", "navi_location": {"lng": 118.73716598024, "lat": 32.049989473514}, "indoor_floor": "F2", "type": "shopping", "detail_url": "http://api.map.baidu.com/place/detail?uid=1b720a6a63d0fa0204fef5cb&output=html&source=placeapi_v2", "children": [], "lat": 32.04694959865151, "lng": 118.72473337057522}}, {"name": "\u4e7e\u7ea2\u65e9\u6625\u8336(\u5357\u4eac\u65d7\u8230\u5e97)", "location": {"lat": 32.047825503234755, "lng": 118.72756984316288},