"{'name': '皓齐口腔', 'location': {'lat': 32.015098945244446, 'lng': 118.72162312035114}, 'address': '南京市建邺区梦都大街150号706室', 'province': '江苏省', 'city': '南京市', 'area': '建邺区', 'street_id': '708be68f46e88f31cafa5f94', 'detail': 1, 'uid': '708be68f46e88f31cafa5f94', 'detail_info': {'tag': '医疗;诊所', 'navi_location': {'lng': 118.73429622561, 'lat': 32.018595102784}, 'type': 'hospital', 'detail_url': 'http://api.map.baidu.com/place/detail?uid=708be68f46e88f31cafa5f94&output=html&source=placeapi_v2', 'overall_rating': '5.0', 'image_num': '11', 'comment_num': '2', 'children': [], 'lat': 32.015098945244446, 'lng': 118.72162312035114}}"
"{'name': 'AMC中心动物医院(梦都大街分院)', 'location': {'lat': 32.01754634385537, 'lng': 118.71623348974315}, 'address': '江苏省南京市建邺区梦都大街176-2号地铁10号线梦都大街站4号出口旁', 'province': '江苏省', 'city': '南京市', 'area': '建邺区', 'street_id': '2d7b451cc5773f00b5147f93', 'telephone': '(025)58790763', 'detail': 1, 'uid': '2d7b451cc5773f00b5147f93', 'detail_info': {'tag': '生活服务;宠物服务', 'navi_location': {'lng': 118.72802280398, 'lat': 32.021193479864}, 'type': 'life', 'detail_url': 'http://api.map.baidu.com/place/detail?uid=2d7b451cc5773f00b5147f93&output=html&source=placeapi_v2', 'overall_rating': '4.6', 'image_num': '5', 'comment_num': '19', 'children': [], 'lat': 32.01754634385537, 'lng': 118.71623348974315}}"
"{'name': '江心洲社区卫生服务中心', 'location': {'lat': 32.012277583876596, 'lng': 118.68887533884946}, 'address': '南京市建邺区中棚路57号', 'province': '江苏省', 'city': '南京市', 'area': '建邺区', 'street_id': 'a9a4e6f6d4d19f974354d7e3', 'telephone': '(025)86420534', 'detail': 1, 'uid': 'a9a4e6f6d4d19f974354d7e3', 'detail_info': {'tag': '医疗;诊所', 'navi_location': {'lng': 118.70071035045, 'lat': 32.016815653941}, 'type': 'hospital', 'detail_url': 'http://api.map.baidu.com/place/detail?uid=a9a4e6f6d4d19f974354d7e3&output=html&source=placeapi_v2', 'image_num': '6', 'children': [], 'lat': 32.012277583876596, 'lng': 118.68887533884946}}"
"{'name': '艾贝尔宠物医院(奥体店)', 'location': {'lat': 32.020871142080516, 'lng': 118.72009162900356}, 'address': '兴隆大街196-4号', 'province': '江苏省', 'city': '南京市', 'area': '建邺区', 'street_id': 'cc6c4baa7412f9c675e5b68f', 'telephone': '(025)84614136', 'detail': 1, 'uid': 'cc6c4baa7412f9c675e5b68f', 'detail_info': {'tag': '生活服务;宠物服务', 'navi_location': {'lng': 118.73178137801, 'lat': 32.02440546521}, 'type': 'life', 'detail_url': 'http://api.map.baidu.com/place/detail?uid=cc6c4baa7412f9c675e5b68f&output=html&source=placeapi_v2', 'price': '855', 'overall_rating': '4.8', 'image_num': '15', 'comment_num': '30', 'children': [], 'lat': 32.020871142080516, 'lng': 118.72009162900356}}"
"{'name': '圣安宠物医院(富春江西街)', 'location': {'lat': 32.00625009583226, 'lng': 118.71367080846144}, 'address': '江苏省南京市建邺区富春江西街28-18号', 'province': '江苏省', 'city': '南京市', 'area': '建邺区', 'street_id': 'cd173e760ccd973e6d47607e', 'telephone': '(025)87715727', 'detail': 1, 'uid': 'cd173e760ccd973e6d47607e', 'detail_info': {'tag': '生活服务;宠物服务', 'type': 'life', 'detail_url': 'http://api.map.baidu.com/place/detail?uid=cd173e760ccd973e6d47607e&output=html&source=placeapi_v2', 'overall_rating': '5.0', 'image_num': '30', 'comment_num': '7', 'children': [], 'lat': 32.00625009583226, 'lng': 118.71367080846144}}"
"{'name': '南京轻颜', 'location': {'lat': 32.021804511820136, 'lng': 118.71223741870485}, 'address': '江苏省南京市建邺区螺丝桥大街91号', 'province': '江苏省', 'city': '南京市', 'area': '建邺区', 'street_id': '816c5590a4c981628715416a', 'detail': 1, 'uid': '816c5590a4c981628715416a', 'detail_info': {'tag': '医疗;其他', 'navi_location': {'lng': 118.72411255092, 'lat': 32.02602665086}, 'type': 'hospital', 'detail_url': 'http://api.map.baidu.com/place/detail?uid=816c5590a4c981628715416a&output=html&source=placeapi_v2', 'overall_rating': '0.0', 'image_num': '2', 'comment_num': '1', 'children': [], 'lat': 32.021804511820136, 'lng': 118.71223741870485}}"
"{'name': '春语医疗美容', 'location': {'lat': 32.0196060580059, 'lng': 118.72329677155415}, 'address': '南京市建邺区兴隆大街170-8170-9号', 'province': '江苏省', 'city': '南京市', 'area': '建邺区', 'street_id': '4aa820232e49e1f28c1a894f', 'telephone': '(025)52238788', 'detail': 1, 'uid': '4aa820232e49e1f28c1a894f', 'detail_info': {'tag': '医疗;专科医院', 'navi_location': {'lng': 118.73497202893, 'lat': 32.023110595893}, 'type': 'hospital', 'detail_url': 'http://api.map.baidu.com/place/detail?uid=4aa820232e49e1f28c1a894f&output=html&source=placeapi_v2', 'image_num': '6', 'children': [], 'lat': 32.0196060580059, 'lng': 118.72329677155415}}"
"{'name': '极草堂', 'location': {'lat': 32.01788993933449, 'lng': 118.71718927818252}, 'address': '江苏省南京市建邺区梦都大街176-112号东南50米', 'province': '江苏省', 'city': '南京市', 'area': '建邺区', 'street_id': '3f084219c95e19e83310af3a', 'detail': 1, 'uid': '3f084219c95e19e83310af3a', 'detail_info': {'tag': '医疗;其他', 'type': 'hospital', 'detail_url': 'http://api.map.baidu.com/place/detail?uid=3f084219c95e19e83310af3a&output=html&source=placeapi_v2', 'image_num': '5', 'children': [], 'lat': 32.01788993933449, 'lng': 118.71718927818252}}"
"{'name': '艾米莉宠物医院', 'location': {'lat': 32.025441712940214, 'lng': 118.72069398090498}, 'address': '江苏省南京市建邺区乐山路111-24号(靠近应天高架)', 'province': '江苏省', 'city': '南京市', 'area': '建邺区', 'street_id': 'db22b8d53082a2e6d6851fa0', 'telephone': '15950587556', 'detail': 1, 'uid': 'db22b8d53082a2e6d6851fa0', 'detail_info': {'tag': '生活服务;宠物服务', 'navi_location': {'lng': 118.73239870074, 'lat': 32.029153014798}, 'type': 'life', 'detail_url': 'http://api.map.baidu.com/place/detail?uid=db22b8d53082a2e6d6851fa0&output=html&source=placeapi_v2', 'overall_rating': '5.0', 'image_num': '8', 'comment_num': '5', 'children': [], 'lat': 32.025441712940214, 'lng': 118.72069398090498}}"
"{'name': '萌达口腔', 'location': {'lat': 32.019285990360736, 'lng': 118.72211759026034}, 'address': '南京市兴隆大街175-6室175-7室', 'province': '江苏省', 'city': '南京市', 'area': '建邺区', 'street_id': '9c1b6b3272b1e92817a1906b', 'telephone': '(025)58069998', 'detail': 1, 'uid': '9c1b6b3272b1e92817a1906b', 'detail_info': {'tag': '医疗;诊所', 'type': 'hospital', 'detail_url': 'http://api.map.baidu.com/place/detail?uid=9c1b6b3272b1e92817a1906b&output=html&source=placeapi_v2', 'image_num': '3', 'children': [], 'lat': 32.019285990360736, 'lng': 118.72211759026034}}"
"{'name': '台宝儿科', 'location': {'lat': 32.0175021166493, 'lng': 118.71699146227999}, 'address': '江苏省南京市建邺区乐山路167-19~20号', 'province': '江苏省', 'city': '南京市', 'area': '建邺区', 'street_id': 'd0bd0046a8494be930870a8d', 'telephone': '(025)58372227', 'detail': 1, 'uid': 'd0bd0046a8494be930870a8d', 'detail_info': {'tag': '医疗;诊所', 'type': 'hospital', 'detail_url': 'http://api.map.baidu.com/place/detail?uid=d0bd0046a8494be930870a8d&output=html&source=placeapi_v2', 'overall_rating': '5.0', 'image_num': '6', 'comment_num': '1', 'children': [], 'lat': 32.0175021166493, 'lng': 118.71699146227999}}"
"{'name': '南京市建邺区顺康诊所', 'location': {'lat': 32.01995728825052, 'lng': 118.7131738067944}, 'address': '江苏省南京市建邺区松花江西街65号', 'province': '江苏省', 'city': '南京市', 'area': '建邺区', 'street_id': 'b97ef258a8513aa854bfff66', 'telephone': '13913841783', 'detail': 1, 'uid': 'b97ef258a8513aa854bfff66', 'detail_info': {'tag': '医疗;诊所', 'navi_location': {'lng': 118.72499155917, 'lat': 32.02390050275}, 'type': 'hospital', 'detail_url': 'http://api.map.baidu.com/place/detail?uid=b97ef258a8513aa854bfff66&output=html&source=placeapi_v2', 'overall_rating': '0.0', 'image_num': '13', 'comment_num': '3', 'children': [], 'lat': 32.01995728825052, 'lng': 118.7131738067944}}"
"{'name': '南京市第一医院河西院区-地面停车场', 'location': {'lat': 32.02354845166456, 'lng': 118.7278679635348}, 'address': '燕山路19号附近', 'province': '江苏省', 'city': '南京市', 'area': '建邺区', 'street_id': '3d0bf0d54721c198c056aca2', 'detail': 1, 'uid': '3d0bf0d54721c198c056aca2', 'detail_info': {'tag': '交通设施;停车场', 'navi_location': {'lng': 118.73961169758, 'lat': 32.026916892024}, 'type': 'life', 'detail_url': 'http://api.map.baidu.com/place/detail?uid=3d0bf0d54721c198c056aca2&output=html&source=placeapi_v2', 'image_num': '1', 'children': [], 'lat': 32.02354845166456, 'lng': 118.7278679635348}}"
"{'name': '同和堂大药房(江心洲店)', 'location': {'lat': 32.028012668134984, 'lng': 118.69080365980325}, 'address': '江心洲红星街86号二楼苏果超市入口旁', 'province': '江苏省', 'city': '南京市', 'area': '建邺区', 'detail': 1, 'uid': 'c62e01dc36ca1c2815c9053a', 'detail_info': {'tag': '医疗;药店', 'type': 'hospital', 'detail_url': 'http://api.map.baidu.com/place/detail?uid=c62e01dc36ca1c2815c9053a&output=html&source=placeapi_v2', 'overall_rating': '0.0', 'image_num': '1', 'comment_num': '1', 'children': [], 'lat': 32.028012668134984, 'lng': 118.69080365980325}}"
"{'name': '联强国际大厦林医生', 'location': {'lat': 32.010989364984134, 'lng': 118.71724841414392}, 'address': '江苏省南京市建邺区河西中央商务区江东中路289号联强国际大厦林医生', 'province': '江苏省', 'city': '南京市', 'area': '建邺区', 'detail': 1, 'uid': '61b580cbccdf59785fbe8639', 'detail_info': {'tag': '医疗;诊所', 'type': 'hospital', 'detail_url': 'http://api.map.baidu.com/place/detail?uid=61b580cbccdf59785fbe8639&output=html&source=placeapi_v2', 'image_num': '1', 'children': [], 'lat': 32.010989364984134, 'lng': 118.71724841414392}}"
"{'name': '秀派宠物会所(金马郦城店)', 'location': {'lat': 32.00931640229782, 'lng': 118.71013183075256}, 'address': '江苏省南京市建邺区奥体大街199号金马郦城3幢112', 'province': '江苏省', 'city': '南京市', 'area': '建邺区', 'street_id': 'fc9b91b723125e0c4107c1af', 'telephone': '(025)57720300', 'detail': 1, 'uid': 'fc9b91b723125e0c4107c1af', 'detail_info': {'tag': '生活服务;宠物服务', 'type': 'life', 'detail_url': 'http://api.map.baidu.com/place/detail?uid=fc9b91b723125e0c4107c1af&output=html&source=placeapi_v2', 'overall_rating': '5.0', 'image_num': '15', 'comment_num': '2', 'children': [], 'lat': 32.00931640229782, 'lng': 118.71013183075256}}"
"{'name': '先声再康药店(月安街药店)', 'location': {'lat': 32.02207605422085, 'lng': 118.72539804171187}, 'address': '江苏省南京市月安街31-3号,31-4号', 'province': '江苏省', 'city': '南京市', 'area': '建邺区', 'street_id': '9760edd8574c6a16715e807d', 'telephone': '(025)52367572', 'detail': 1, 'uid': '9760edd8574c6a16715e807d', 'detail_info': {'tag': '医疗;药店', 'type': 'hospital', 'detail_url': 'http://api.map.baidu.com/place/detail?uid=9760edd8574c6a16715e807d&output=html&source=placeapi_v2', 'overall_rating': '2.0', 'image_num': '16', 'comment_num': '3', 'children': [], 'lat': 32.02207605422085, 'lng': 118.72539804171187}}"
"{'name': '先声再康药店(兴隆大街药店)', 'location': {'lat': 32.020554931047975, 'lng': 118.71903278925261}, 'address': '南京市建邺区兴隆大街203-4\x7f', 'province': '江苏省', 'city': '南京市', 'area': '建邺区', 'street_id': '6fa17ee36a2065a9ed74f8e4', 'telephone': '(025)83373781', 'detail': 1, 'uid': '6fa17ee36a2065a9ed74f8e4', 'detail_info': {'tag': '医疗;药店', 'navi_location': {'lng': 118.73074313626, 'lat': 32.024399708902}, 'type': 'hospital', 'detail_url': 'http://api.map.baidu.com/place/detail?uid=6fa17ee36a2065a9ed74f8e4&output=html&source=placeapi_v2', 'image_num': '6', 'children': [], 'lat': 32.020554931047975, 'lng': 118.71903278925261}}"
"{'name': '建邺区老年公寓', 'location': {'lat': 32.01291633613731, 'lng': 118.69034414365639}, 'address': '民安路1', 'province': '江苏省', 'city': '南京市', 'area': '建邺区', 'street_id': 'a8d4c2b4b7d252f11ce9993b', 'telephone': '(025)86333022', 'detail': 1, 'uid': 'a8d4c2b4b7d252f11ce9993b', 'detail_info': {'tag': '医疗;疗养院', 'navi_location': {'lng': 118.70139774461, 'lat': 32.01652379459}, 'type': 'hospital', 'detail_url': 'http://api.map.baidu.com/place/detail?uid=a8d4c2b4b7d252f11ce9993b&output=html&source=placeapi_v2', 'image_num': '1', 'children': [], 'lat': 32.01291633613731, 'lng': 118.69034414365639}}"
"{'name': '北京同仁堂(中央商场店)', 'location': {'lat': 32.00876079949962, 'lng': 118.7266296294831}, 'address': '南京市建邺区江东中路235号中央商场F1', 'province': '江苏省', 'city': '南京市', 'area': '建邺区', 'street_id': 'f89e967b80e18f9fc72ba117', 'detail': 1, 'uid': 'f89e967b80e18f9fc72ba117', 'detail_info': {'tag': '医疗;药店', 'navi_location': {'lng': 118.7385928532, 'lat': 32.011782331342}, 'indoor_floor': 'F1', 'type': 'hospital', 'detail_url': 'http://api.map.baidu.com/place/detail?uid=f89e967b80e18f9fc72ba117&output=html&source=placeapi_v2', 'overall_rating': '3.0', 'image_num': '9', 'comment_num': '1', 'children': [], 'lat': 32.00876079949962, 'lng': 118.7266296294831}}"
"{'name': '百家药店', 'location': {'lat': 32.02245784230975, 'lng': 118.72699299065381}, 'address': '南京市建邺区燕山路与月安街交叉路口往东约100米(月安生活广场)', 'province': '江苏省', 'city': '南京市', 'area': '建邺区', 'telephone': '(025)87785610', 'detail': 1, 'uid': 'cb175d41a92a5c03c0364434', 'detail_info': {'tag': '医疗;药店', 'type': 'hospital', 'detail_url': 'http://api.map.baidu.com/place/detail?uid=cb175d41a92a5c03c0364434&output=html&source=placeapi_v2', 'image_num': '1', 'children': [], 'lat': 32.02245784230975, 'lng': 118.72699299065381}}"
"{'name': '奇冠药店(乐山路店)', 'location': {'lat': 32.018331768582094, 'lng': 118.71775418349482}, 'address': '江苏省南京市建邺区乐山路167-6', 'province': '江苏省', 'city': '南京市', 'area': '建邺区', 'street_id': '5e67185467afac895d17c396', 'telephone': '(025)83192249', 'detail': 1, 'uid': '5e67185467afac895d17c396', 'detail_info': {'tag': '医疗;药店', 'navi_location': {'lng': 118.7295442384, 'lat': 32.022233929057}, 'type': 'hospital', 'detail_url': 'http://api.map.baidu.com/place/detail?uid=5e67185467afac895d17c396&output=html&source=placeapi_v2', 'overall_rating': '1.0', 'image_num': '11', 'comment_num': '3', 'children': [], 'lat': 32.018331768582094, 'lng': 118.71775418349482}}"
"{'name': '海王星辰健康药房(南京月安街店)', 'location': {'lat': 32.024626924067945, 'lng': 118.71566771768525}, 'address': '月安街57号-2', 'province': '江苏省', 'city': '南京市', 'area': '建邺区', 'street_id': '20a2891fc96778bfce04efe8', 'telephone': '(025)58836702', 'detail': 1, 'uid': '20a2891fc96778bfce04efe8', 'detail_info': {'tag': '医疗;药店', 'navi_location': {'lng': 118.72741254372, 'lat': 32.028428242331}, 'type': 'hospital', 'detail_url': 'http://api.map.baidu.com/place/detail?uid=20a2891fc96778bfce04efe8&output=html&source=placeapi_v2', 'image_num': '11', 'children': [], 'lat': 32.024626924067945, 'lng': 118.71566771768525}}"
"{'name': '海王星辰健康药房(南京富春江西街店)', 'location': {'lat': 32.006151381792776, 'lng': 118.71388354443324}, 'address': '江苏省南京市建邺区富春江西街28-14号', 'province': '江苏省', 'city': '南京市', 'area': '建邺区', 'street_id': '213b4f1592fedd822cb90860', 'telephone': '(025)83613395', 'detail': 1, 'uid': '213b4f1592fedd822cb90860', 'detail_info': {'tag': '医疗;药店', 'navi_location': {'lng': 118.72540670118, 'lat': 32.009811335354}, 'type': 'hospital', 'detail_url': 'http://api.map.baidu.com/place/detail?uid=213b4f1592fedd822cb90860&output=html&source=placeapi_v2', 'overall_rating': '4.0', 'image_num': '20', 'comment_num': '4', 'children': [], 'lat': 32.006151381792776, 'lng': 118.71388354443324}}"
"{'name': '石城宠物', 'location': {'lat': 32.02875776991833, 'lng': 118.72621558948201}, 'address': '华山路99号积贤雅苑1栋104', 'province': '江苏省', 'city': '南京市', 'area': '建邺区', 'telephone': '(025)86702118', 'detail': 1, 'uid': '5eb1559e88b076d741e1924a', 'detail_info': {'tag': '生活服务;宠物服务', 'type': 'life', 'detail_url': 'http://api.map.baidu.com/place/detail?uid=5eb1559e88b076d741e1924a&output=html&source=placeapi_v2', 'image_num': '2', 'children': [], 'lat': 32.02875776991833, 'lng': 118.72621558948201}}"
"{'name': '南京优力大药房', 'location': {'lat': 32.0252952724412, 'lng': 118.71514911544845}, 'address': '江苏省南京市建邺区苍山路与月安街交叉口西北角凌江府01幢13室、14室', 'province': '江苏省', 'city': '南京市', 'area': '建邺区', 'street_id': '2f1bdd87567d985b4107c1dc', 'telephone': '(025)58639295', 'detail': 1, 'uid': '2f1bdd87567d985b4107c1dc', 'detail_info': {'tag': '医疗;药店', 'type': 'hospital', 'detail_url': 'http://api.map.baidu.com/place/detail?uid=2f1bdd87567d985b4107c1dc&output=html&source=placeapi_v2', 'overall_rating': '4.0', 'image_num': '19', 'comment_num': '6', 'children': [], 'lat': 32.0252952724412, 'lng': 118.71514911544845}}"
"{'name': '冬虫夏草', 'location': {'lat': 32.02072395345239, 'lng': 118.72041125015365}, 'address': '南京市建邺区兴隆大街196-1号', 'province': '江苏省', 'city': '南京市', 'area': '建邺区', 'street_id': '159268f1e5008314b426558d', 'telephone': '15652348889', 'detail': 1, 'uid': '159268f1e5008314b426558d', 'detail_info': {'tag': '购物', 'type': 'shopping', 'detail_url': 'http://api.map.baidu.com/place/detail?uid=159268f1e5008314b426558d&output=html&source=placeapi_v2', 'children': [], 'lat': 32.02072395345239, 'lng': 118.72041125015365}}"
"{'name': '先声再康药店(凌江府药店)', 'location': {'lat': 32.025598783480056, 'lng': 118.71620209368184}, 'address': '南京市建邺区苍山路(汇锦国际凌江府)', 'province': '江苏省', 'city': '南京市', 'area': '建邺区', 'street_id': 'de0cf219b4540780081cc7d5', 'telephone': '(025)57626463', 'detail': 1, 'uid': 'de0cf219b4540780081cc7d5', 'detail_info': {'tag': '医疗;药店', 'type': 'hospital', 'detail_url': 'http://api.map.baidu.com/place/detail?uid=de0cf219b4540780081cc7d5&output=html&source=placeapi_v2', 'image_num': '3', 'children': [], 'lat': 32.025598783480056, 'lng': 118.71620209368184}}"
"{'name': '街电(春语医疗美容诊所)', 'location': {'lat': 32.01965741351913, 'lng': 118.72333261090489}, 'address': '兴隆大街170-9号', 'province': '江苏省', 'city': '南京市', 'area': '建邺区', 'detail': 1, 'uid': '6f146eb5a24fc3e92902e1c1', 'detail_info': {'tag': '生活服务;其他', 'type': 'life', 'detail_url': 'http://api.map.baidu.com/place/detail?uid=6f146eb5a24fc3e92902e1c1&output=html&source=placeapi_v2', 'image_num': '1', 'children': [], 'lat': 32.01965741351913, 'lng': 118.72333261090489}}"
"{'name': '鼓楼区江东社区卫生服务中心', 'location': {'lat': 32.031961879492194, 'lng': 118.72569526730841}, 'address': '江苏省南京市鼓楼区润江路一号', 'province': '江苏省', 'city': '南京市', 'area': '鼓楼区', 'street_id': '8dc20685d2811626c336444a', 'detail': 1, 'uid': '8dc20685d2811626c336444a', 'detail_info': {'tag': '医疗;诊所', 'navi_location': {'lng': 118.73776069082, 'lat': 32.035630196609}, 'type': 'hospital', 'detail_url': 'http://api.map.baidu.com/place/detail?uid=8dc20685d2811626c336444a&output=html&source=placeapi_v2', 'overall_rating': '5.0', 'image_num': '15', 'comment_num': '5', 'children': [], 'lat': 32.031961879492194, 'lng': 118.72569526730841}}"
"{'name': '江苏省老年医院分院', 'location': {'lat': 32.03292472945795, 'lng': 118.71688401266482}, 'address': '江苏省南京市建邺区集庆门大街269号', 'province': '江苏省', 'city': '南京市', 'area': '建邺区', 'street_id': 'afc56c7c7fbbbdade115f9fe', 'telephone': '(025)86385130', 'detail': 1, 'uid': 'afc56c7c7fbbbdade115f9fe', 'detail_info': {'tag': '医疗;其他', 'navi_location': {'lng': 118.72832726127, 'lat': 32.037281756265}, 'type': 'hospital', 'detail_url': 'http://api.map.baidu.com/place/detail?uid=afc56c7c7fbbbdade115f9fe&output=html&source=placeapi_v2', 'overall_rating': '0.0', 'image_num': '5', 'comment_num': '2', 'children': [], 'lat': 32.03292472945795, 'lng': 118.71688401266482}}"
"{'name': '巨鲨医疗', 'location': {'lat': 32.041157032835294, 'lng': 118.7277806111741}, 'address': '江苏省南京市汉中门大街301号1幢8楼a座', 'province': '江苏省', 'city': '南京市', 'area': '鼓楼区', 'street_id': 'c78647b4bcf878262902e164', 'detail': 1, 'uid': 'c78647b4bcf878262902e164', 'detail_info': {'tag': '公司企业;公司', 'navi_location': {'lng': 118.7393766571, 'lat': 32.044987730503}, 'type': 'enterprise', 'detail_url': 'http://api.map.baidu.com/place/detail?uid=c78647b4bcf878262902e164&output=html&source=placeapi_v2', 'children': [], 'lat': 32.041157032835294, 'lng': 118.7277806111741}}"
"{'name': '银源城诊所', 'location': {'lat': 32.05425839437021, 'lng': 118.72519842704658}, 'address': '闽江路102号', 'province': '江苏省', 'city': '南京市', 'area': '鼓楼区', 'street_id': 'd1e19ea341a4b713631c671e', 'telephone': '(025)86287939', 'detail': 1, 'uid': 'd1e19ea341a4b713631c671e', 'detail_info': {'tag': '医疗;诊所', 'type': 'hospital', 'detail_url': 'http://api.map.baidu.com/place/detail?uid=d1e19ea341a4b713631c671e&output=html&source=placeapi_v2', 'overall_rating': '5.0', 'image_num': '9', 'comment_num': '4', 'children': [], 'lat': 32.05425839437021, 'lng': 118.72519842704658}}"
"{'name': '南京丽维安医疗美容', 'location': {'lat': 32.0344259557542, 'lng': 118.7165472853525}, 'address': '南京市鼓楼区集庆门大街272号201室', 'province': '江苏省', 'city': '南京市', 'area': '鼓楼区', 'telephone': '(025)86290777', 'detail': 1, 'uid': 'f44979ce471842e176e5b673', 'detail_info': {'tag': '医疗;其他', 'type': 'hospital', 'detail_url': 'http://api.map.baidu.com/place/detail?uid=f44979ce471842e176e5b673&output=html&source=placeapi_v2', 'overall_rating': '0.0', 'image_num': '1', 'comment_num': '1', 'children': [], 'lat': 32.0344259557542, 'lng': 118.7165472853525}}"
"{'name': '江苏省老年医院分院-东北门', 'location': {'lat': 32.0334842760573, 'lng': 118.7166397485155}, 'address': '江苏省南京市建邺区集庆门大街269号', 'province': '江苏省', 'city': '南京市', 'area': '建邺区', 'street_id': '73bf636759bc8cc5da2f28c4', 'detail': 1, 'uid': '73bf636759bc8cc5da2f28c4', 'detail_info': {'tag': '出入口;门', 'type': 'life', 'detail_url': 'http://api.map.baidu.com/place/detail?uid=73bf636759bc8cc5da2f28c4&output=html&source=placeapi_v2', 'image_num': '1', 'children': [], 'lat': 32.0334842760573, 'lng': 118.7166397485155}}"
"{'name': '江苏南大苏富特医疗科技有限公司', 'location': {'lat': 32.0402270189507, 'lng': 118.72396647809548}, 'address': '南京市鼓楼区清江南路19号南大苏富特科技创新园2号楼', 'province': '江苏省', 'city': '南京市', 'area': '鼓楼区', 'street_id': '69993e5d8954c6d4ce04efd1', 'detail': 1, 'uid': '69993e5d8954c6d4ce04efd1', 'detail_info': {'tag': '公司企业;公司', 'type': 'enterprise', 'detail_url': 'http://api.map.baidu.com/place/detail?uid=69993e5d8954c6d4ce04efd1&output=html&source=placeapi_v2', 'children': [], 'lat': 32.0402270189507, 'lng': 118.72396647809548}}"
"{'name': '文蓓医疗用品有限公司', 'location': {'lat': 32.03387553065549, 'lng': 118.71803412618533}, 'address': '南京市鼓楼区苏宁慧谷2栋1408', 'province': '江苏省', 'city': '南京市', 'area': '鼓楼区', 'street_id': '75df418bcb0d297dbca82291', 'detail': 1, 'uid': '75df418bcb0d297dbca82291', 'detail_info': {'tag': '公司企业;公司', 'type': 'enterprise', 'detail_url': 'http://api.map.baidu.com/place/detail?uid=75df418bcb0d297dbca82291&output=html&source=placeapi_v2', 'children': [], 'lat': 32.03387553065549, 'lng': 118.71803412618533}}"
"{'name': '海王星辰健康药房(南京燕山路店)', 'location': {'lat': 32.03382522898583, 'lng': 118.72641123853903}, 'address': '江苏省南京市鼓楼区燕山路19号集贤路和润江路交叉口', 'province': '江苏省', 'city': '南京市', 'area': '鼓楼区', 'street_id': 'f878979071814632a4c7568a', 'telephone': '(025)84359768', 'detail': 1, 'uid': 'f878979071814632a4c7568a', 'detail_info': {'tag': '医疗;药店', 'navi_location': {'lng': 118.73795557426, 'lat': 32.037636386915}, 'type': 'hospital', 'detail_url': 'http://api.map.baidu.com/place/detail?uid=f878979071814632a4c7568a&output=html&source=placeapi_v2', 'image_num': '20', 'children': [], 'lat': 32.03382522898583, 'lng': 118.72641123853903}}"
"{'name': '康满堂', 'location': {'lat': 32.049124170918205, 'lng': 118.727685169636}, 'address': '南京市鼓楼区清凉门大街296号苏宁馨瑰园1栋104', 'province': '江苏省', 'city': '南京市', 'area': '鼓楼区', 'street_id': 'fadfc3dcddb0db64a2a934c9', 'detail': 1, 'uid': 'fadfc3dcddb0db64a2a934c9', 'detail_info': {'tag': '医疗', 'type': 'hospital', 'detail_url': 'http://api.map.baidu.com/place/detail?uid=fadfc3dcddb0db64a2a934c9&output=html&source=placeapi_v2', 'image_num': '2', 'children': [], 'lat': 32.049124170918205, 'lng': 118.727685169636}}"
"{'name': '大德施恩SIR健康中心（鼓楼店）', 'location': {'lat': 32.034002749204426, 'lng': 118.72278558516498}, 'address': '江苏省南京市鼓楼区集贤路93号', 'province': '江苏省', 'city': '南京市', 'area': '鼓楼区', 'street_id': 'ece84a3512185be628fc4898', 'detail': 1, 'uid': 'ece84a3512185be628fc4898', 'detail_info': {'tag': '医疗;诊所', 'type': 'hospital', 'detail_url': 'http://api.map.baidu.com/place/detail?uid=ece84a3512185be628fc4898&output=html&source=placeapi_v2', 'overall_rating': '0.0', 'image_num': '4', 'comment_num': '1', 'children': [], 'lat': 32.034002749204426, 'lng': 118.72278558516498}}"
"{'name': '药帮手智慧药房', 'location': {'lat': 32.04850472546032, 'lng': 118.7272898684592}, 'address': '江苏省南京市鼓楼区清凉门大街303-6', 'province': '江苏省', 'city': '南京市', 'area': '鼓楼区', 'street_id': '3131aa13d2b03a9aa2a93425', 'telephone': '17729993330', 'detail': 1, 'uid': '3131aa13d2b03a9aa2a93425', 'detail_info': {'tag': '医疗;药店', 'type': 'hospital', 'detail_url': 'http://api.map.baidu.com/place/detail?uid=3131aa13d2b03a9aa2a93425&output=html&source=placeapi_v2', 'image_num': '1', 'children': [], 'lat': 32.04850472546032, 'lng': 118.7272898684592}}"
"{'name': '颐年堂药房(苏宁环球商贸城店)', 'location': {'lat': 32.046113375290794, 'lng': 118.72505917775918}, 'address': '南京市鼓楼区清江路99号苏宁环球商贸城F1', 'province': '江苏省', 'city': '南京市', 'area': '鼓楼区', 'street_id': 'd46ed1b6c6d1f28f932ca37a', 'telephone': '(025)52442270', 'detail': 1, 'uid': 'd46ed1b6c6d1f28f932ca37a', 'detail_info': {'tag': '医疗;药店', 'indoor_floor': 'F1', 'type': 'hospital', 'detail_url': 'http://api.map.baidu.com/place/detail?uid=d46ed1b6c6d1f28f932ca37a&output=html&source=placeapi_v2', 'image_num': '11', 'children': [], 'lat': 32.046113375290794, 'lng': 118.72505917775918}}"
"{'name': '吾医堂', 'location': {'lat': 32.08253481535685, 'lng': 118.72704173927023}, 'address': '南京市鼓楼区唐山路与南通路交叉路口往北约150米(茂悦港)', 'province': '江苏省', 'city': '南京市', 'area': '鼓楼区', 'detail': 1, 'uid': 'd9dc1a22ef335b2783a00c37', 'detail_info': {'tag': '医疗;其他', 'type': 'hospital', 'detail_url': 'http://api.map.baidu.com/place/detail?uid=d9dc1a22ef335b2783a00c37&output=html&source=placeapi_v2', 'image_num': '4', 'children': [], 'lat': 32.08253481535685, 'lng': 118.72704173927023}}"
"{'name': '康丽医美', 'location': {'lat': 32.08230751324994, 'lng': 118.72716031698894}, 'address': '江苏省南京市鼓楼区南通路118号茂悦港3号楼301', 'province': '江苏省', 'city': '南京市', 'area': '鼓楼区', 'street_id': '8630d556d043009b58f6bee6', 'detail': 1, 'uid': '8630d556d043009b58f6bee6', 'detail_info': {'tag': '医疗;专科医院', 'type': 'hospital', 'detail_url': 'http://api.map.baidu.com/place/detail?uid=8630d556d043009b58f6bee6&output=html&source=placeapi_v2', 'image_num': '1', 'children': [], 'lat': 32.08230751324994, 'lng': 118.72716031698894}}"
"{'name': '南京市第一医院(河西院区)', 'location': {'lat': 32.02281632835641, 'lng': 118.72838515210806}, 'address': '南京市建邺区燕山路139号', 'province': '江苏省', 'city': '南京市', 'area': '建邺区', 'street_id': '63df605ee06471639b68b4c6', 'detail': 1, 'uid': '63df605ee06471639b68b4c6', 'detail_info': {'tag': '医疗;综合医院', 'navi_location': {'lng': 118.7402340924, 'lat': 32.025658751101}, 'type': 'hospital', 'detail_url': 'http://api.map.baidu.com/place/detail?uid=63df605ee06471639b68b4c6&output=html&source=placeapi_v2', 'overall_rating': '3.2', 'image_num': '26', 'comment_num': '11', 'children': [], 'lat': 32.02281632835641, 'lng': 118.72838515210806}}"
"{'name': '江苏省第二中医院', 'location': {'lat': 32.02472784745188, 'lng': 118.74907894067235}, 'address': '南京市建邺区南湖路23号', 'province': '江苏省', 'city': '南京市', 'area': '建邺区', 'street_id': '41572e00deadf3adb45f1e48', 'telephone': '(025)83291236', 'detail': 1, 'uid': '41572e00deadf3adb45f1e48', 'detail_info': {'tag': '医疗;综合医院', 'navi_location': {'lng': 118.76049852893, 'lat': 32.028649478189}, 'type': 'hospital', 'detail_url': 'http://api.map.baidu.com/place/detail?uid=41572e00deadf3adb45f1e48&output=html&source=placeapi_v2', 'price': '0.0', 'overall_rating': '3.8', 'image_num': '19', 'comment_num': '12', 'children': [], 'lat': 32.02472784745188, 'lng': 118.74907894067235}}"
"{'name': '南京市建邺区南苑社区卫生服务中心', 'location': {'lat': 32.01300826978202, 'lng': 118.732339727624}, 'address': '南京市建邺区庐山路90号', 'province': '江苏省', 'city': '南京市', 'area': '建邺区', 'street_id': '38d72e1ef1f0642b2b201a92', 'telephone': '(025)86475631', 'detail': 1, 'uid': '38d72e1ef1f0642b2b201a92', 'detail_info': {'tag': '医疗;诊所', 'navi_location': {'lng': 118.74406994047, 'lat': 32.01612814244}, 'type': 'hospital', 'detail_url': 'http://api.map.baidu.com/place/detail?uid=38d72e1ef1f0642b2b201a92&output=html&source=placeapi_v2', 'overall_rating': '5.0', 'image_num': '7', 'comment_num': '4', 'children': [], 'lat': 32.01300826978202, 'lng': 118.732339727624}}"
"{'name': '康健诊所', 'location': {'lat': 32.031157620689704, 'lng': 118.761196543331}, 'address': '长虹路31-10', 'province': '江苏省', 'city': '南京市', 'area': '建邺区', 'street_id': 'a9f24886e2c48473ca1b95c5', 'telephone': '(025)86529074', 'detail': 1, 'uid': 'a9f24886e2c48473ca1b95c5', 'detail_info': {'tag': '医疗;诊所', 'type': 'hospital', 'detail_url': 'http://api.map.baidu.com/place/detail?uid=a9f24886e2c48473ca1b95c5&output=html&source=placeapi_v2', 'overall_rating': '0.0', 'image_num': '3', 'comment_num': '1', 'children': [], 'lat': 32.031157620689704, 'lng': 118.761196543331}}"
"{'name': '南京市建邺区妇幼保健所', 'location': {'lat': 32.022413590484696, 'lng': 118.72923247250115}, 'address': '南京市建邺区月安街18-2号', 'province': '江苏省', 'city': '南京市', 'area': '建邺区', 'street_id': '37d60a46cc7b35791e1d1144', 'telephone': '(025)84205200', 'detail': 1, 'uid': '37d60a46cc7b35791e1d1144', 'detail_info': {'tag': '医疗;专科医院', 'navi_location': {'lng': 118.74080904655, 'lat': 32.025762427898}, 'type': 'hospital', 'detail_url': 'http://api.map.baidu.com/place/detail?uid=37d60a46cc7b35791e1d1144&output=html&source=placeapi_v2', 'overall_rating': '4.0', 'image_num': '15', 'comment_num': '5', 'children': [], 'lat': 32.022413590484696, 'lng': 118.72923247250115}}"
"{'name': '伊美荟医疗', 'location': {'lat': 32.031290176789526, 'lng': 118.73236324970267}, 'address': '江苏省南京市万达广场D座13层', 'province': '江苏省', 'city': '南京市', 'area': '建邺区', 'detail': 1, 'uid': 'c53da8ec80546249a104647c', 'detail_info': {'tag': '医疗;其他', 'type': 'hospital', 'detail_url': 'http://api.map.baidu.com/place/detail?uid=c53da8ec80546249a104647c&output=html&source=placeapi_v2', 'image_num': '1', 'children': [], 'lat': 32.031290176789526, 'lng': 118.73236324970267}}"
"{'name': '南湖社区卫生服务中心', 'location': {'lat': 32.0284069016606, 'lng': 118.7508376711328}, 'address': '南湖路7号', 'province': '江苏省', 'city': '南京市', 'area': '建邺区', 'street_id': '57432c1cfb35ed9cb020a891', 'detail': 1, 'uid': 'ffd6d4035686588f16b54baf', 'detail_info': {'tag': '医疗;诊所', 'navi_location': {'lng': 118.76220306363, 'lat': 32.032276438229}, 'type': 'hospital', 'detail_url': 'http://api.map.baidu.com/place/detail?uid=ffd6d4035686588f16b54baf&output=html&source=placeapi_v2', 'overall_rating': '3.0', 'image_num': '20', 'comment_num': '9', 'children': [], 'lat': 32.0284069016606, 'lng': 118.7508376711328}}"
"{'name': '河西中心动物医院', 'location': {'lat': 32.019374545599966, 'lng': 118.73242375087624}, 'address': '江东中路203号301室', 'province': '江苏省', 'city': '南京市', 'area': '建邺区', 'street_id': '232b2d2881c20281f03cbacc', 'telephone': '(025)58786120', 'detail': 1, 'uid': '232b2d2881c20281f03cbacc', 'detail_info': {'tag': '生活服务;宠物服务', 'navi_location': {'lng': 118.74407431971, 'lat': 32.022965027982}, 'type': 'life', 'detail_url': 'http://api.map.baidu.com/place/detail?uid=232b2d2881c20281f03cbacc&output=html&source=placeapi_v2', 'overall_rating': '3.7', 'image_num': '5', 'comment_num': '3', 'children': [], 'lat': 32.019374545599966, 'lng': 118.73242375087624}}"
"{'name': '集庆门医院', 'location': {'lat': 32.02000622834919, 'lng': 118.76389503174596}, 'address': '南京市秦淮区集庆门豆腐坊29号', 'province': '江苏省', 'city': '南京市', 'area': '秦淮区', 'street_id': '1e07177c8cdd51a4fa2d61e9', 'detail': 1, 'uid': '1e07177c8cdd51a4fa2d61e9', 'detail_info': {'tag': '医疗;综合医院', 'navi_location': {'lng': 118.77578093165, 'lat': 32.024050117028}, 'type': 'hospital', 'detail_url': 'http://api.map.baidu.com/place/detail?uid=1e07177c8cdd51a4fa2d61e9&output=html&source=placeapi_v2', 'overall_rating': '2.7', 'image_num': '10', 'comment_num': '9', 'children': [], 'lat': 32.02000622834919, 'lng': 118.76389503174596}}"
"{'name': '南京肛泰肛肠医院', 'location': {'lat': 32.018040539963735, 'lng': 118.74304478288141}, 'address': '江苏省南京市建邺区黄山路2号', 'province': '江苏省', 'city': '南京市', 'area': '建邺区', 'street_id': 'e93761f66aa7da15233bf2ab', 'telephone': '(025)82226851', 'detail': 1, 'uid': 'e93761f66aa7da15233bf2ab', 'detail_info': {'tag': '医疗;专科医院', 'navi_location': {'lng': 118.75521811397, 'lat': 32.021491065306}, 'type': 'hospital', 'detail_url': 'http://api.map.baidu.com/place/detail?uid=e93761f66aa7da15233bf2ab&output=html&source=placeapi_v2', 'price': '0.0', 'overall_rating': '4.1', 'image_num': '26', 'comment_num': '50', 'children': [], 'lat': 32.018040539963735, 'lng': 118.74304478288141}}"
"{'name': '南京市口腔医院第五门诊部', 'location': {'lat': 32.0118855849687, 'lng': 118.73167271765948}, 'address': '南京市建邺区庐山路98-2号', 'province': '江苏省', 'city': '南京市', 'area': '建邺区', 'street_id': '37a967a3329dc901704b873b', 'telephone': '(025)83620113', 'detail': 1, 'uid': '37a967a3329dc901704b873b', 'detail_info': {'tag': '医疗;诊所', 'navi_location': {'lng': 118.74356552935, 'lat': 32.015413011502}, 'type': 'hospital', 'detail_url': 'http://api.map.baidu.com/place/detail?uid=37a967a3329dc901704b873b&output=html&source=placeapi_v2', 'image_num': '7', 'children': [], 'lat': 32.0118855849687, 'lng': 118.73167271765948}}"
"{'name': '建邺区兴隆社区卫生服务中心', 'location': {'lat': 32.02350533100371, 'lng': 118.72983055493297}, 'address': '江苏省南京市建邺区应天大街919号', 'province': '江苏省', 'city': '南京市', 'area': '建邺区', 'street_id': 'd1de8cb0c390d54a17c8f611', 'telephone': '(025)83361131', 'detail': 1, 'uid': 'd1de8cb0c390d54a17c8f611', 'detail_info': {'tag': '医疗;诊所', 'navi_location': {'lng': 118.74188865527, 'lat': 32.027804303}, 'type': 'hospital', 'detail_url': 'http://api.map.baidu.com/place/detail?uid=d1de8cb0c390d54a17c8f611&output=html&source=placeapi_v2', 'image_num': '10', 'children': [], 'lat': 32.02350533100371, 'lng': 118.72983055493297}}"
"{'name': '星美医疗美容医院', 'location': {'lat': 32.01729950378508, 'lng': 118.75043294022935}, 'address': '江苏省南京市建邺区应天大街79号', 'province': '江苏省', 'city': '南京市', 'area': '建邺区', 'street_id': '38afff1a4e2fce5429fc4860', 'detail': 1, 'uid': '38afff1a4e2fce5429fc4860', 'detail_info': {'tag': '医疗;其他', 'navi_location': {'lng': 118.76212052373, 'lat': 32.020868249881}, 'type': 'hospital', 'detail_url': 'http://api.map.baidu.com/place/detail?uid=38afff1a4e2fce5429fc4860&output=html&source=placeapi_v2', 'overall_rating': '5.0', 'image_num': '9', 'comment_num': '2', 'children': [], 'lat': 32.01729950378508, 'lng': 118.75043294022935}}"
"{'name': '江苏省第二中医院-门诊楼', 'location': {'lat': 32.02458958204031, 'lng': 118.74893954523388}, 'address': '江苏省南京市建邺区南湖路23号', 'province': '江苏省', 'city': '南京市', 'area': '建邺区', 'street_id': '2f74f7dec62ad2b909a8d461', 'telephone': '(025)83291236', 'detail': 1, 'uid': '2f74f7dec62ad2b909a8d461', 'detail_info': {'tag': '医疗;其他', 'navi_location': {'lng': 118.76057824635, 'lat': 32.028628471741}, 'type': 'hospital', 'detail_url': 'http://api.map.baidu.com/place/detail?uid=2f74f7dec62ad2b909a8d461&output=html&source=placeapi_v2', 'image_num': '1', 'children': [], 'lat': 32.02458958204031, 'lng': 118.74893954523388}}"
"{'name': '南京台安口腔诊所', 'location': {'lat': 32.02408617590717, 'lng': 118.75726832975356}, 'address': '江苏省南京市建邺区云河路29号', 'province': '江苏省', 'city': '南京市', 'area': '建邺区', 'street_id': '0b0afd99164c49835cd4fe79', 'telephone': '(025)87708389', 'detail': 1, 'uid': '0b0afd99164c49835cd4fe79', 'detail_info': {'tag': '医疗;诊所', 'navi_location': {'lng': 118.76894196472, 'lat': 32.028056960527}, 'type': 'hospital', 'detail_url': 'http://api.map.baidu.com/place/detail?uid=0b0afd99164c49835cd4fe79&output=html&source=placeapi_v2', 'overall_rating': '0.0', 'image_num': '12', 'children': [], 'lat': 32.02408617590717, 'lng': 118.75726832975356}}"
"{'name': '江苏省口腔医院(南苑门诊部)', 'location': {'lat': 32.01273135100283, 'lng': 118.73241966482723}, 'address': '南京市建邺区庐山路90号南苑社区服务中心二层', 'province': '江苏省', 'city': '南京市', 'area': '建邺区', 'street_id': '4c592f444dc84103f90cadec', 'telephone': '(025)86516056', 'detail': 1, 'uid': '4c592f444dc84103f90cadec', 'detail_info': {'tag': '医疗;其他', 'navi_location': {'lng': 118.7441433491, 'lat': 32.016085762241}, 'type': 'hospital', 'detail_url': 'http://api.map.baidu.com/place/detail?uid=4c592f444dc84103f90cadec&output=html&source=placeapi_v2', 'overall_rating': '0.0', 'image_num': '8', 'comment_num': '1', 'children': [], 'lat': 32.01273135100283, 'lng': 118.73241966482723}}"
"{'name': '石城宠物医院(集庆门大街店)', 'location': {'lat': 32.02913407889003, 'lng': 118.74282718139838}, 'address': '集庆门大街151-1(集庆门大街与湖西街交叉路西南角)', 'province': '江苏省', 'city': '南京市', 'area': '建邺区', 'street_id': '5ff6329aa623f893220220e0', 'telephone': '(025)86302118', 'detail': 1, 'uid': '5ff6329aa623f893220220e0', 'detail_info': {'tag': '生活服务;宠物服务', 'navi_location': {'lng': 118.75419352287, 'lat': 32.033072469014}, 'type': 'life', 'detail_url': 'http://api.map.baidu.com/place/detail?uid=5ff6329aa623f893220220e0&output=html&source=placeapi_v2', 'overall_rating': '3.1', 'image_num': '24', 'comment_num': '8', 'children': [], 'lat': 32.02913407889003, 'lng': 118.74282718139838}}"
"{'name': '允和泰中医诊所', 'location': {'lat': 32.014392553610406, 'lng': 118.74159227582786}, 'address': '江苏省南京市建邺区黄山路21号', 'province': '江苏省', 'city': '南京市', 'area': '建邺区', 'street_id': 'c534cdbadf7417fcb11e363f', 'telephone': '(025)86635390', 'detail': 1, 'uid': 'c534cdbadf7417fcb11e363f', 'detail_info': {'tag': '医疗;诊所', 'navi_location': {'lng': 118.75318978414, 'lat': 32.018175491354}, 'type': 'hospital', 'detail_url': 'http://api.map.baidu.com/place/detail?uid=c534cdbadf7417fcb11e363f&output=html&source=placeapi_v2', 'overall_rating': '4.0', 'image_num': '2', 'comment_num': '2', 'children': [], 'lat': 32.014392553610406, 'lng': 118.74159227582786}}"
"{'name': '建邺区疾病预防控制中心', 'location': {'lat': 32.02230747265512, 'lng': 118.72920958551374}, 'address': '江苏省南京市建邺区月安街18-1号', 'province': '江苏省', 'city': '南京市', 'area': '建邺区', 'street_id': 'cdef4edf67dd034e28d7ab42', 'detail': 1, 'uid': 'cdef4edf67dd034e28d7ab42', 'detail_info': {'tag': '医疗;疾控中心', 'navi_location': {'lng': 118.74094824438, 'lat': 32.02574666355}, 'type': 'hospital', 'detail_url': 'http://api.map.baidu.com/place/detail?uid=cdef4edf67dd034e28d7ab42&output=html&source=placeapi_v2', 'overall_rating': '3.0', 'image_num': '11', 'comment_num': '5', 'children': [], 'lat': 32.02230747265512, 'lng': 118.72920958551374}}"
"{'name': '南京师皇宠物医院(河西店)', 'location': {'lat': 32.02810427291464, 'lng': 118.73740288448505}, 'address': '江苏省南京市建邺区云锦路139号', 'province': '江苏省', 'city': '南京市', 'area': '建邺区', 'street_id': '00d410f62189a68c1c389434', 'telephone': '(025)86800910,13338613406', 'detail': 1, 'uid': '00d410f62189a68c1c389434', 'detail_info': {'tag': '生活服务;宠物服务', 'navi_location': {'lng': 118.74896851989, 'lat': 32.031791010524}, 'type': 'life', 'detail_url': 'http://api.map.baidu.com/place/detail?uid=00d410f62189a68c1c389434&output=html&source=placeapi_v2', 'overall_rating': '2.7', 'image_num': '18', 'comment_num': '23', 'children': [], 'lat': 32.02810427291464, 'lng': 118.73740288448505}}"
"{'name': '南京易安体检中心', 'location': {'lat': 32.01758433543822, 'lng': 118.7319420980491}, 'address': '江苏省南京市建邺区江东中路211号凤凰文化广场A座7楼', 'province': '江苏省', 'city': '南京市', 'area': '建邺区', 'street_id': 'b2f029f51d1116c0373a71b0', 'telephone': '(025)84455558,(025)83136663', 'detail': 1, 'uid': 'b2f029f51d1116c0373a71b0', 'detail_info': {'tag': '医疗;体检机构', 'navi_location': {'lng': 118.74352819038, 'lat': 32.021162607864}, 'type': 'hospital', 'detail_url': 'http://api.map.baidu.com/place/detail?uid=b2f029f51d1116c0373a71b0&output=html&source=placeapi_v2', 'image_num': '7', 'children': [], 'lat': 32.01758433543822, 'lng': 118.7319420980491}}"
"{'name': '南京肛泰肛肠医院-地面停车场', 'location': {'lat': 32.01798880034133, 'lng': 118.74338249071624}, 'address': '黄山路2号', 'province': '江苏省', 'city': '南京市', 'area': '建邺区', 'street_id': '69df1b7b7c776072e01103f1', 'detail': 1, 'uid': '69df1b7b7c776072e01103f1', 'detail_info': {'tag': '交通设施;停车场', 'navi_location': {'lng': 118.75507490161, 'lat': 32.021642371247}, 'type': 'life', 'detail_url': 'http://api.map.baidu.com/place/detail?uid=69df1b7b7c776072e01103f1&output=html&source=placeapi_v2', 'image_num': '1', 'children': [], 'lat': 32.01798880034133, 'lng': 118.74338249071624}}"
"{'name': '美年大健康(河西分院)', 'location': {'lat': 32.02966757745118, 'lng': 118.7334685895227}, 'address': '江苏省南京市建邺区江东中路118号', 'province': '江苏省', 'city': '南京市', 'area': '建邺区', 'detail': 1, 'uid': '8b03427a5e8bb12d3904b120', 'detail_info': {'tag': '医疗;体检机构', 'navi_location': {'lng': 118.74539724546, 'lat': 32.033270345074}, 'type': 'hospital', 'detail_url': 'http://api.map.baidu.com/place/detail?uid=8b03427a5e8bb12d3904b120&output=html&source=placeapi_v2', 'image_num': '7', 'children': [], 'lat': 32.02966757745118, 'lng': 118.7334685895227}}"
"{'name': '玉蕙口腔', 'location': {'lat': 32.01692870660054, 'lng': 118.73475377412362}, 'address': '江苏省南京市建邺区白鹭东街92-6号', 'province': '江苏省', 'city': '南京市', 'area': '建邺区', 'street_id': '5d277989f4cd11c10089729b', 'telephone': '(025)83206168', 'detail': 1, 'uid': '5d277989f4cd11c10089729b', 'detail_info': {'tag': '医疗;诊所', 'detail_url': 'http://api.map.baidu.com/place/detail?uid=5d277989f4cd11c10089729b&output=html&source=placeapi_v2', 'children': [], 'lat': 32.01692870660054, 'lng': 118.73475377412362}}"
"{'name': '江苏省第二中医院-停车场', 'location': {'lat': 32.02493276605954, 'lng': 118.74892625613754}, 'address': '江苏省南京市建邺区南湖路23号', 'province': '江苏省', 'city': '南京市', 'area': '建邺区', 'street_id': '31cebc82fa557b340d3dda1d', 'detail': 1, 'uid': '31cebc82fa557b340d3dda1d', 'detail_info': {'tag': '交通设施;停车场', 'navi_location': {'lng': 118.7604125, 'lat': 32.028461777169}, 'type': 'life', 'detail_url': 'http://api.map.baidu.com/place/detail?uid=31cebc82fa557b340d3dda1d&output=html&source=placeapi_v2', 'overall_rating': '4.0', 'image_num': '1', 'comment_num': '1', 'children': [], 'lat': 32.02493276605954, 'lng': 118.74892625613754}}"
"{'name': '易可中医门诊', 'location': {'lat': 32.021187043794185, 'lng': 118.75949480899556}, 'address': '江苏省南京市建邺区集庆门大街11号', 'province': '江苏省', 'city': '南京市', 'area': '建邺区', 'street_id': '39963ed510dd6f9d843304b0', 'telephone': '(025)52687099', 'detail': 1, 'uid': '39963ed510dd6f9d843304b0', 'detail_info': {'tag': '医疗;其他', 'navi_location': {'lng': 118.77123512219, 'lat': 32.025194269971}, 'type': 'hospital', 'detail_url': 'http://api.map.baidu.com/place/detail?uid=39963ed510dd6f9d843304b0&output=html&source=placeapi_v2', 'image_num': '5', 'children': [], 'lat': 32.021187043794185, 'lng': 118.75949480899556}}"
"{'name': '乐雅口腔门诊部', 'location': {'lat': 32.0252170260296, 'lng': 118.75224293754036}, 'address': '集庆门大街89,91号', 'province': '江苏省', 'city': '南京市', 'area': '建邺区', 'street_id': '3b6630e77e362b71ce04efa6', 'telephone': '(025)86629764', 'detail': 1, 'uid': '3b6630e77e362b71ce04efa6', 'detail_info': {'tag': '医疗;其他', 'navi_location': {'lng': 118.76410936985, 'lat': 32.029025104433}, 'type': 'hospital', 'detail_url': 'http://api.map.baidu.com/place/detail?uid=3b6630e77e362b71ce04efa6&output=html&source=placeapi_v2', 'image_num': '5', 'children': [], 'lat': 32.0252170260296, 'lng': 118.75224293754036}}"
"{'name': '怡康门诊部', 'location': {'lat': 32.01303734252287, 'lng': 118.74977951185063}, 'address': '南京市建邺区怡康街18号涟城商铺129号', 'province': '江苏省', 'city': '南京市', 'area': '建邺区', 'street_id': '0e5702a81f233ae3aeb22ad6', 'detail': 1, 'uid': '0e5702a81f233ae3aeb22ad6', 'detail_info': {'tag': '医疗;其他', 'type': 'hospital', 'detail_url': 'http://api.map.baidu.com/place/detail?uid=0e5702a81f233ae3aeb22ad6&output=html&source=placeapi_v2', 'overall_rating': '5.0', 'image_num': '14', 'comment_num': '1', 'children': [], 'lat': 32.01303734252287, 'lng': 118.74977951185063}}"
"{'name': '牙仙子口腔', 'location': {'lat': 32.03137161799385, 'lng': 118.73007173027632}, 'address': '江苏省南京市建邺区集庆门大街222-3号', 'province': '江苏省', 'city': '南京市', 'area': '建邺区', 'street_id': '8cf938dfa3ca08dce4e965be', 'telephone': '(025)86700566', 'detail': 1, 'uid': '8cf938dfa3ca08dce4e965be', 'detail_info': {'tag': '医疗;诊所', 'navi_location': {'lng': 118.74198450357, 'lat': 32.03489180433}, 'type': 'hospital', 'detail_url': 'http://api.map.baidu.com/place/detail?uid=8cf938dfa3ca08dce4e965be&output=html&source=placeapi_v2', 'overall_rating': '0.0', 'image_num': '2', 'comment_num': '1', 'children': [], 'lat': 32.03137161799385, 'lng': 118.73007173027632}}"
"{'name': '芸生和宠物医院', 'location': {'lat': 32.021289724760265, 'lng': 118.75834966039831}, 'address': '江苏省南京市建邺区集庆门大街17号', 'province': '江苏省', 'city': '南京市', 'area': '建邺区', 'street_id': '11e61b45b274aec04afd3fa6', 'telephone': '13222730755', 'detail': 1, 'uid': '11e61b45b274aec04afd3fa6', 'detail_info': {'tag': '生活服务;宠物服务', 'type': 'life', 'detail_url': 'http://api.map.baidu.com/place/detail?uid=11e61b45b274aec04afd3fa6&output=html&source=placeapi_v2', 'overall_rating': '0.0', 'image_num': '2', 'comment_num': '1', 'children': [], 'lat': 32.021289724760265, 'lng': 118.75834966039831}}"
"{'name': '江苏省第二中医院-住院部', 'location': {'lat': 32.02481353665074, 'lng': 118.74980752751719}, 'address': '南湖路21号', 'province': '江苏省', 'city': '南京市', 'area': '建邺区', 'street_id': '0b2eea9a0438e1f83617dcdc', 'detail': 1, 'uid': '0b2eea9a0438e1f83617dcdc', 'detail_info': {'tag': '医疗;其他', 'navi_location': {'lng': 118.76127710019, 'lat': 32.028582001884}, 'type': 'hospital', 'detail_url': 'http://api.map.baidu.com/place/detail?uid=0b2eea9a0438e1f83617dcdc&output=html&source=placeapi_v2', 'overall_rating': '0.0', 'image_num': '7', 'comment_num': '1', 'children': [], 'lat': 32.02481353665074, 'lng': 118.74980752751719}}"
"{'name': '南京市第一医院(河西院区)门诊部-西北门', 'location': {'lat': 32.023126147542435, 'lng': 118.72816748601385}, 'address': '月安街18号附近', 'province': '江苏省', 'city': '南京市', 'area': '建邺区', 'street_id': '2ce9ec5bdf1d58852b201a8b', 'detail': 1, 'uid': '2ce9ec5bdf1d58852b201a8b', 'detail_info': {'tag': '出入口;门', 'navi_location': {'lng': 118.73952054318, 'lat': 32.026934503729}, 'type': 'life', 'detail_url': 'http://api.map.baidu.com/place/detail?uid=2ce9ec5bdf1d58852b201a8b&output=html&source=placeapi_v2', 'image_num': '1', 'children': [], 'lat': 32.023126147542435, 'lng': 118.72816748601385}}"
"{'name': '建邺区国安诊所', 'location': {'lat': 32.01442414028379, 'lng': 118.74709113931183}, 'address': '江苏省南京市建邺区泰山路9-2临', 'province': '江苏省', 'city': '南京市', 'area': '建邺区', 'street_id': '26e8042acda0c223c61e5121', 'detail': 1, 'uid': '26e8042acda0c223c61e5121', 'detail_info': {'tag': '医疗;诊所', 'type': 'hospital', 'detail_url': 'http://api.map.baidu.com/place/detail?uid=26e8042acda0c223c61e5121&output=html&source=placeapi_v2', 'overall_rating': '0.0', 'image_num': '13', 'comment_num': '2', 'children': [], 'lat': 32.01442414028379, 'lng': 118.74709113931183}}"
"{'name': '众一口腔', 'location': {'lat': 32.02138711777314, 'lng': 118.75761779915821}, 'address': '江苏省南京市建邺区集庆门大街15号18栋', 'province': '江苏省', 'city': '南京市', 'area': '建邺区', 'street_id': 'a23cc1faae955e306ca3cc69', 'telephone': '(025)52344198,17705151800', 'detail': 1, 'uid': 'a23cc1faae955e306ca3cc69', 'detail_info': {'tag': '医疗;诊所', 'navi_location': {'lng': 118.76957724099, 'lat': 32.025354860261}, 'type': 'hospital', 'detail_url': 'http://api.map.baidu.com/place/detail?uid=a23cc1faae955e306ca3cc69&output=html&source=placeapi_v2', 'image_num': '2', 'children': [], 'lat': 32.02138711777314, 'lng': 118.75761779915821}}"
"{'name': '集庆门医院-医疗美容', 'location': {'lat': 32.020867917751346, 'lng': 118.76498286863679}, 'address': '江苏省南京市秦淮区集庆路233号', 'province': '江苏省', 'city': '南京市', 'area': '秦淮区', 'street_id': 'f019ca7d765a7acc283a9f24', 'detail': 1, 'uid': 'f019ca7d765a7acc283a9f24', 'detail_info': {'tag': '医疗;其他', 'type': 'hospital', 'detail_url': 'http://api.map.baidu.com/place/detail?uid=f019ca7d765a7acc283a9f24&output=html&source=placeapi_v2', 'image_num': '13', 'children': [], 'lat': 32.020867917751346, 'lng': 118.76498286863679}}"
"{'name': '癸源堂中医馆', 'location': {'lat': 32.0313130579722, 'lng': 118.73074757189741}, 'address': '集庆门大街216号-9号', 'province': '江苏省', 'city': '南京市', 'area': '建邺区', 'street_id': 'f57d6044ac05231ff8f0cb47', 'telephone': '(025)83359976', 'detail': 1, 'uid': 'f57d6044ac05231ff8f0cb47', 'detail_info': {'tag': '医疗;诊所', 'navi_location': {'lng': 118.74251142712, 'lat': 32.034805173962}, 'type': 'hospital', 'detail_url': 'http://api.map.baidu.com/place/detail?uid=f57d6044ac05231ff8f0cb47&output=html&source=placeapi_v2', 'overall_rating': '5.0', 'image_num': '7', 'comment_num': '11', 'children': [], 'lat': 32.0313130579722, 'lng': 118.73074757189741}}"
"{'name': '建邺医院', 'location': {'lat': 32.028680354129165, 'lng': 118.75065773192918}, 'address': '南湖路7号', 'province': '江苏省', 'city': '南京市', 'area': '建邺区', 'street_id': '93398e254d4fd9e202294fa0', 'detail': 1, 'uid': '93398e254d4fd9e202294fa0', 'detail_info': {'tag': '医疗;综合医院', 'type': 'hospital', 'detail_url': 'http://api.map.baidu.com/place/detail?uid=93398e254d4fd9e202294fa0&output=html&source=placeapi_v2', 'image_num': '1', 'children': [], 'lat': 32.028680354129165, 'lng': 118.75065773192918}}"
"{'name': '南京华韩奇致美容医院', 'location': {'lat': 32.02959556414548, 'lng': 118.73345266745339}, 'address': '江东中路126号德盈大厦1层', 'province': '江苏省', 'city': '南京市', 'area': '建邺区', 'street_id': '83c4d3f4c2aba84ee9f8531b', 'detail': 1, 'uid': '83c4d3f4c2aba84ee9f8531b', 'detail_info': {'tag': '医疗;专科医院', 'navi_location': {'lng': 118.74550385346, 'lat': 32.033973382488}, 'type': 'hospital', 'detail_url': 'http://api.map.baidu.com/place/detail?uid=83c4d3f4c2aba84ee9f8531b&output=html&source=placeapi_v2', 'overall_rating': '3.3', 'image_num': '8', 'comment_num': '3', 'children': [], 'lat': 32.02959556414548, 'lng': 118.73345266745339}}"
"{'name': '华世佳宝妇产医院', 'location': {'lat': 32.031436317537555, 'lng': 118.75409990506077}, 'address': '南京市建邺区水西门大街文体西路9号', 'province': '江苏省', 'city': '南京市', 'area': '建邺区', 'street_id': 'dbf4d6eeca44b2336fa3cc58', 'telephone': '(025)86577666,(025)86577607', 'detail': 1, 'uid': 'dbf4d6eeca44b2336fa3cc58', 'detail_info': {'tag': '医疗;专科医院', 'navi_location': {'lng': 118.76563165951, 'lat': 32.035409794521}, 'type': 'hospital', 'detail_url': 'http://api.map.baidu.com/place/detail?uid=dbf4d6eeca44b2336fa3cc58&output=html&source=placeapi_v2', 'overall_rating': '4.7', 'image_num': '25', 'comment_num': '29', 'children': [], 'lat': 32.031436317537555, 'lng': 118.75409990506077}}"
"{'name': '建邺晓海诊所', 'location': {'lat': 32.021490247996404, 'lng': 118.74770032540769}, 'address': '南苑思园9幢101室', 'province': '江苏省', 'city': '南京市', 'area': '建邺区', 'street_id': '4eb3b533fc7fd075420245af', 'detail': 1, 'uid': '4eb3b533fc7fd075420245af', 'detail_info': {'tag': '医疗;诊所', 'type': 'hospital', 'detail_url': 'http://api.map.baidu.com/place/detail?uid=4eb3b533fc7fd075420245af&output=html&source=placeapi_v2', 'overall_rating': '4.5', 'image_num': '9', 'comment_num': '3', 'children': [], 'lat': 32.021490247996404, 'lng': 118.74770032540769}}"
"{'name': '南京中医药大学附属第二医院江苏省第二中医院-西1门', 'location': {'lat': 32.025068836689286, 'lng': 118.74892114070293}, 'address': '南湖路23号', 'province': '江苏省', 'city': '南京市', 'area': '建邺区', 'street_id': '26896a55a5556e6257bfffc3', 'detail': 1, 'uid': '26896a55a5556e6257bfffc3', 'detail_info': {'tag': '出入口;门', 'navi_location': {'lng': 118.76081226033, 'lat': 32.028804654085}, 'type': 'life', 'detail_url': 'http://api.map.baidu.com/place/detail?uid=26896a55a5556e6257bfffc3&output=html&source=placeapi_v2', 'image_num': '1', 'children': [], 'lat': 32.025068836689286, 'lng': 118.74892114070293}}"
"{'name': '南京市第一医院河西院区-南门', 'location': {'lat': 32.02206858429315, 'lng': 118.72844546026992}, 'address': '江苏省南京市建邺区月安路18', 'province': '江苏省', 'city': '南京市', 'area': '建邺区', 'street_id': '7d3406342d475838db13180d', 'detail': 1, 'uid': '7d3406342d475838db13180d', 'detail_info': {'tag': '出入口;门', 'navi_location': {'lng': 118.74019399564, 'lat': 32.025598986962}, 'type': 'life', 'detail_url': 'http://api.map.baidu.com/place/detail?uid=7d3406342d475838db13180d&output=html&source=placeapi_v2', 'image_num': '1', 'children': [], 'lat': 32.02206858429315, 'lng': 118.72844546026992}}"
"{'name': '江苏省第二中医院站-自行车租赁点', 'location': {'lat': 32.024307525310086, 'lng': 118.74786710605237}, 'address': '江苏省南京市建邺区南湖路23号江苏省第二中医院', 'province': '江苏省', 'city': '南京市', 'area': '建邺区', 'street_id': '9d24226a3d30a9c786420ef0', 'detail': 1, 'uid': '9d24226a3d30a9c786420ef0', 'detail_info': {'tag': '交通设施;其他', 'type': 'life', 'detail_url': 'http://api.map.baidu.com/place/detail?uid=9d24226a3d30a9c786420ef0&output=html&source=placeapi_v2', 'image_num': '2', 'children': [], 'lat': 32.024307525310086, 'lng': 118.74786710605237}}"
"{'name': '集庆堂中医诊所', 'location': {'lat': 32.03162472029698, 'lng': 118.74536168196148}, 'address': '南京市建邺区玉塘村10栋31号102室', 'province': '江苏省', 'city': '南京市', 'area': '建邺区', 'street_id': 'c0f7b94e528e660a1e5800dd', 'telephone': '(025)86613557', 'detail': 1, 'uid': 'c0f7b94e528e660a1e5800dd', 'detail_info': {'tag': '医疗;诊所', 'type': 'hospital', 'detail_url': 'http://api.map.baidu.com/place/detail?uid=c0f7b94e528e660a1e5800dd&output=html&source=placeapi_v2', 'overall_rating': '0.0', 'image_num': '4', 'comment_num': '1', 'children': [], 'lat': 32.03162472029698, 'lng': 118.74536168196148}}"
"{'name': '君晏堂中医诊所', 'location': {'lat': 32.016689224735906, 'lng': 118.74140338166646}, 'address': '南京市建邺区怡康街68号', 'province': '江苏省', 'city': '南京市', 'area': '建邺区', 'street_id': 'b7b2ea519ebfd0b12dfaa7cc', 'telephone': '(025)83323933', 'detail': 1, 'uid': 'b7b2ea519ebfd0b12dfaa7cc', 'detail_info': {'tag': '医疗;诊所', 'type': 'hospital', 'detail_url': 'http://api.map.baidu.com/place/detail?uid=b7b2ea519ebfd0b12dfaa7cc&output=html&source=placeapi_v2', 'overall_rating': '5.0', 'image_num': '5', 'comment_num': '1', 'children': [], 'lat': 32.016689224735906, 'lng': 118.74140338166646}}"
"{'name': '江苏省第二中医院停车场-出入口', 'location': {'lat': 32.0250496330939, 'lng': 118.74885692945703}, 'address': '南京市建邺区南湖路', 'province': '江苏省', 'city': '南京市', 'area': '建邺区', 'street_id': '6b3d440c3309c0633717dc11', 'detail': 1, 'uid': '6b3d440c3309c0633717dc11', 'detail_info': {'tag': '出入口;停车场出入口', 'type': 'life', 'detail_url': 'http://api.map.baidu.com/place/detail?uid=6b3d440c3309c0633717dc11&output=html&source=placeapi_v2', 'image_num': '1', 'children': [], 'lat': 32.0250496330939, 'lng': 118.74885692945703}}"
"{'name': '南京建邺广灵斋中医诊所', 'location': {'lat': 32.026168017326235, 'lng': 118.73185629007911}, 'address': '南京市建邺区江东中路与积贤街交叉路口往西南约100米(积善新寓东区)', 'province': '江苏省', 'city': '南京市', 'area': '建邺区', 'detail': 1, 'uid': '06095b7d54eff653ab059ddf', 'detail_info': {'tag': '医疗;诊所', 'type': 'hospital', 'detail_url': 'http://api.map.baidu.com/place/detail?uid=06095b7d54eff653ab059ddf&output=html&source=placeapi_v2', 'image_num': '1', 'children': [], 'lat': 32.026168017326235, 'lng': 118.73185629007911}}"
"{'name': '益丰大药房(南京集庆门店)', 'location': {'lat': 32.02475465273876, 'lng': 118.75281372047525}, 'address': '江苏省南京市建邺区集庆门大街81号', 'province': '江苏省', 'city': '南京市', 'area': '建邺区', 'street_id': 'cc788fde7aa3d49388fc0649', 'telephone': '(025)86791788', 'detail': 1, 'uid': 'cc788fde7aa3d49388fc0649', 'detail_info': {'tag': '医疗;药店', 'navi_location': {'lng': 118.76490857298, 'lat': 32.028646242201}, 'type': 'hospital', 'detail_url': 'http://api.map.baidu.com/place/detail?uid=cc788fde7aa3d49388fc0649&output=html&source=placeapi_v2', 'price': '0.0', 'overall_rating': '4.7', 'image_num': '19', 'comment_num': '7', 'children': [], 'lat': 32.02475465273876, 'lng': 118.75281372047525}}"
"{'name': '雨花台区应天花园-社区卫生服务站', 'location': {'lat': 32.01437316354726, 'lng': 118.75517234917662}, 'address': '江苏省南京市雨花台区应天大街695', 'province': '江苏省', 'city': '南京市', 'area': '雨花台区', 'street_id': '6ed3083ab9e6c1b72a3a9f84', 'detail': 1, 'uid': '6ed3083ab9e6c1b72a3a9f84', 'detail_info': {'tag': '医疗;诊所', 'type': 'hospital', 'detail_url': 'http://api.map.baidu.com/place/detail?uid=6ed3083ab9e6c1b72a3a9f84&output=html&source=placeapi_v2', 'overall_rating': '1.0', 'image_num': '15', 'comment_num': '3', 'children': [], 'lat': 32.01437316354726, 'lng': 118.75517234917662}}"
"{'name': '口腔诊所', 'location': {'lat': 32.03047960345856, 'lng': 118.76136812679965}, 'address': '南京市长虹路45-8号', 'province': '江苏省', 'city': '南京市', 'area': '建邺区', 'street_id': '8126337d56e3c734f5b91654', 'detail': 1, 'uid': '8126337d56e3c734f5b91654', 'detail_info': {'tag': '医疗;诊所', 'type': 'hospital', 'detail_url': 'http://api.map.baidu.com/place/detail?uid=8126337d56e3c734f5b91654&output=html&source=placeapi_v2', 'image_num': '7', 'children': [], 'lat': 32.03047960345856, 'lng': 118.76136812679965}}"
"{'name': '泰乐城健康管理中心', 'location': {'lat': 32.03100293273124, 'lng': 118.7388901455611}, 'address': '莫愁湖街道集庆门大街188号', 'province': '江苏省', 'city': '南京市', 'area': '建邺区', 'street_id': 'cd201cffa5f1bc3e0e3dda7b', 'telephone': '(025)85433332', 'detail': 1, 'uid': 'cd201cffa5f1bc3e0e3dda7b', 'detail_info': {'tag': '医疗;诊所', 'navi_location': {'lng': 118.75066826538, 'lat': 32.034514034521}, 'type': 'hospital', 'detail_url': 'http://api.map.baidu.com/place/detail?uid=cd201cffa5f1bc3e0e3dda7b&output=html&source=placeapi_v2', 'image_num': '14', 'children': [], 'lat': 32.03100293273124, 'lng': 118.7388901455611}}"
"{'name': '建邺区健园社区卫生服务站', 'location': {'lat': 32.022726609139646, 'lng': 118.75432485921426}, 'address': '台晔路29号附近', 'province': '江苏省', 'city': '南京市', 'area': '建邺区', 'street_id': '1afe1fcfb95b5aba354aaeb6', 'detail': 1, 'uid': '1afe1fcfb95b5aba354aaeb6', 'detail_info': {'tag': '医疗;诊所', 'navi_location': {'lng': 118.76620907771, 'lat': 32.026514256929}, 'type': 'hospital', 'detail_url': 'http://api.map.baidu.com/place/detail?uid=1afe1fcfb95b5aba354aaeb6&output=html&source=placeapi_v2', 'image_num': '10', 'children': [], 'lat': 32.022726609139646, 'lng': 118.75432485921426}}"
"{'name': '海王星辰健康药房(南京兴隆大街店)', 'location': {'lat': 32.01514455098444, 'lng': 118.73178405599336}, 'address': '江苏省南京市建邺区兴隆大街113附近', 'province': '江苏省', 'city': '南京市', 'area': '建邺区', 'street_id': 'ad42f545da896b7c220262a0', 'telephone': '(025)83193286', 'detail': 1, 'uid': 'ad42f545da896b7c220262a0', 'detail_info': {'tag': '医疗;药店', 'navi_location': {'lng': 118.74371428785, 'lat': 32.01920007739}, 'type': 'hospital', 'detail_url': 'http://api.map.baidu.com/place/detail?uid=ad42f545da896b7c220262a0&output=html&source=placeapi_v2', 'image_num': '4', 'children': [], 'lat': 32.01514455098444, 'lng': 118.73178405599336}}"
"{'name': '京城御医', 'location': {'lat': 32.0313038490511, 'lng': 118.73133963012347}, 'address': '江苏省南京市建邺区集庆门大街216-5附近', 'province': '江苏省', 'city': '南京市', 'area': '建邺区', 'detail': 1, 'uid': '1a383d7ff9afcbc7c27da23f', 'detail_info': {'tag': '医疗;其他', 'type': 'hospital', 'detail_url': 'http://api.map.baidu.com/place/detail?uid=1a383d7ff9afcbc7c27da23f&output=html&source=placeapi_v2', 'image_num': '3', 'children': [], 'lat': 32.0313038490511, 'lng': 118.73133963012347}}"
"{'name': '南京建邺新河口诊所', 'location': {'lat': 32.02526969434333, 'lng': 118.7534812982204}, 'address': '建邺区东升村44号102室', 'province': '江苏省', 'city': '南京市', 'area': '建邺区', 'street_id': '1647a5fa45a8b796246e9829', 'detail': 1, 'uid': '1647a5fa45a8b796246e9829', 'detail_info': {'tag': '医疗;诊所', 'type': 'hospital', 'detail_url': 'http://api.map.baidu.com/place/detail?uid=1647a5fa45a8b796246e9829&output=html&source=placeapi_v2', 'overall_rating': '0.0', 'image_num': '6', 'children': [], 'lat': 32.02526969434333, 'lng': 118.7534812982204}}"
"{'name': '建邺区南湖社区卫生服务中心-急诊', 'location': {'lat': 32.02825250737034, 'lng': 118.75064604976349}, 'address': '南湖路7号南京市建邺区南湖社区卫生服务中心内', 'province': '江苏省', 'city': '南京市', 'area': '建邺区', 'street_id': 'cd559c56fad4b863a8059dea', 'detail': 1, 'uid': 'cd559c56fad4b863a8059dea', 'detail_info': {'tag': '医疗;其他', 'type': 'hospital', 'detail_url': 'http://api.map.baidu.com/place/detail?uid=cd559c56fad4b863a8059dea&output=html&source=placeapi_v2', 'image_num': '2', 'children': [], 'lat': 32.02825250737034, 'lng': 118.75064604976349}}"
"{'name': '南京龙盛口腔门诊部', 'location': {'lat': 32.02422061568011, 'lng': 118.75439521014302}, 'address': '集庆门大街55-6(链家地产)', 'province': '江苏省', 'city': '南京市', 'area': '建邺区', 'street_id': 'c16c77c90ead91b55b109307', 'telephone': '(025)86419119', 'detail': 1, 'uid': 'c16c77c90ead91b55b109307', 'detail_info': {'tag': '医疗;其他', 'navi_location': {'lng': 118.76616512093, 'lat': 32.028162191209}, 'type': 'hospital', 'detail_url': 'http://api.map.baidu.com/place/detail?uid=c16c77c90ead91b55b109307&output=html&source=placeapi_v2', 'price': '179.0', 'overall_rating': '5.0', 'image_num': '9', 'comment_num': '5', 'children': [], 'lat': 32.02422061568011, 'lng': 118.75439521014302}}"
"{'name': '晶亮口腔诊所', 'location': {'lat': 32.015635557151064, 'lng': 118.74794757270706}, 'address': '建邺区虹苑东路21号(醉笑天土菜馆)', 'province': '江苏省', 'city': '南京市', 'area': '建邺区', 'street_id': '3192f3db5208fb5210293534', 'telephone': '(025)86404262', 'detail': 1, 'uid': '3192f3db5208fb5210293534', 'detail_info': {'tag': '医疗;诊所', 'navi_location': {'lng': 118.7597955339, 'lat': 32.019588852495}, 'type': 'hospital', 'detail_url': 'http://api.map.baidu.com/place/detail?uid=3192f3db5208fb5210293534&output=html&source=placeapi_v2', 'price': '0.0', 'overall_rating': '5.0', 'image_num': '17', 'comment_num': '3', 'children': [], 'lat': 32.015635557151064, 'lng': 118.74794757270706}}"
"{'name': '益丰大药房(庐山路店)', 'location': {'lat': 32.02058234347629, 'lng': 118.73866368326094}, 'address': '江苏省南京市建邺区应天大街855号', 'province': '江苏省', 'city': '南京市', 'area': '建邺区', 'street_id': 'fa5bcb9cd22354bae5e965a4', 'telephone': '(025)86223937', 'detail': 1, 'uid': 'fa5bcb9cd22354bae5e965a4', 'detail_info': {'tag': '医疗;药店', 'navi_location': {'lng': 118.75074305595, 'lat': 32.024163928793}, 'type': 'hospital', 'detail_url': 'http://api.map.baidu.com/place/detail?uid=fa5bcb9cd22354bae5e965a4&output=html&source=placeapi_v2', 'price': '0.0', 'image_num': '12', 'children': [], 'lat': 32.02058234347629, 'lng': 118.73866368326094}}"
"{'name': '南京建邺万福园诊所', 'location': {'lat': 32.014035195654735, 'lng': 118.74418939650072}, 'address': '怡康街29号', 'province': '江苏省', 'city': '南京市', 'area': '建邺区', 'street_id': '58255984dfa1645f047ce86e', 'detail': 1, 'uid': '58255984dfa1645f047ce86e', 'detail_info': {'tag': '医疗;诊所', 'navi_location': {'lng': 118.755758142, 'lat': 32.017792348898}, 'type': 'hospital', 'detail_url': 'http://api.map.baidu.com/place/detail?uid=58255984dfa1645f047ce86e&output=html&source=placeapi_v2', 'overall_rating': '0.0', 'image_num': '8', 'comment_num': '1', 'children': [], 'lat': 32.014035195654735, 'lng': 118.74418939650072}}"
"{'name': '立标诊所', 'location': {'lat': 32.0151913990747, 'lng': 118.75591475899807}, 'address': '应天大街697-7号', 'province': '江苏省', 'city': '南京市', 'area': '雨花台区', 'street_id': '7e4398adfd451db0c9c3db64', 'detail': 1, 'uid': '7e4398adfd451db0c9c3db64', 'detail_info': {'tag': '医疗;诊所', 'type': 'hospital', 'detail_url': 'http://api.map.baidu.com/place/detail?uid=7e4398adfd451db0c9c3db64&output=html&source=placeapi_v2', 'image_num': '4', 'children': [], 'lat': 32.0151913990747, 'lng': 118.75591475899807}}"
"{'name': '江苏省第二中医院-卒中中心', 'location': {'lat': 32.02481495823127, 'lng': 118.74899056634516}, 'address': '江苏省南京市建邺区南湖路23号', 'province': '江苏省', 'city': '南京市', 'area': '建邺区', 'street_id': 'b2dc5644a9c14d79d91318ee', 'detail': 1, 'uid': 'b2dc5644a9c14d79d91318ee', 'detail_info': {'tag': '医疗;其他', 'type': 'hospital', 'detail_url': 'http://api.map.baidu.com/place/detail?uid=b2dc5644a9c14d79d91318ee&output=html&source=placeapi_v2', 'image_num': '1', 'children': [], 'lat': 32.02481495823127, 'lng': 118.74899056634516}}"
"{'name': '江苏省第二中医院-摄片室', 'location': {'lat': 32.02447894900099, 'lng': 118.7487479528386}, 'address': '南湖路23号', 'province': '江苏省', 'city': '南京市', 'area': '建邺区', 'street_id': '186d3328e725001f42d63e91', 'detail': 1, 'uid': '186d3328e725001f42d63e91', 'detail_info': {'tag': '医疗;其他', 'navi_location': {'lng': 118.76046873932, 'lat': 32.028347158123}, 'type': 'hospital', 'detail_url': 'http://api.map.baidu.com/place/detail?uid=186d3328e725001f42d63e91&output=html&source=placeapi_v2', 'image_num': '1', 'children': [], 'lat': 32.02447894900099, 'lng': 118.7487479528386}}"
"{'name': '益丰大药房(南京应天大街店)', 'location': {'lat': 32.02330573887331, 'lng': 118.73837691298367}, 'address': '江苏省南京市建邺区应天大街866号欧尚(应天店)1层', 'province': '江苏省', 'city': '南京市', 'area': '建邺区', 'street_id': 'f349efe2745f64ef7adbd2cf', 'telephone': '(025)85617706', 'detail': 1, 'uid': 'f349efe2745f64ef7adbd2cf', 'detail_info': {'tag': '医疗;药店', 'type': 'hospital', 'detail_url': 'http://api.map.baidu.com/place/detail?uid=f349efe2745f64ef7adbd2cf&output=html&source=placeapi_v2', 'price': '0.0', 'image_num': '1', 'children': [], 'lat': 32.02330573887331, 'lng': 118.73837691298367}}"
"{'name': '国安诊所-口腔科', 'location': {'lat': 32.01443077226161, 'lng': 118.7471242397268}, 'address': '江苏省南京市建邺区泰山路9-2临', 'province': '江苏省', 'city': '南京市', 'area': '建邺区', 'telephone': '15996498685', 'detail': 1, 'uid': '41b86c65da9d4f5f8936ee89', 'detail_info': {'tag': '医疗;其他', 'type': 'hospital', 'detail_url': 'http://api.map.baidu.com/place/detail?uid=41b86c65da9d4f5f8936ee89&output=html&source=placeapi_v2', 'overall_rating': '0.0', 'image_num': '4', 'comment_num': '1', 'children': [], 'lat': 32.01443077226161, 'lng': 118.7471242397268}}"
"{'name': '江苏省第二中医院-发热门诊', 'location': {'lat': 32.02452654151103, 'lng': 118.74861847222131}, 'address': '南湖路23号', 'province': '江苏省', 'city': '南京市', 'area': '建邺区', 'street_id': 'bdb8af0e80f0a2689f09f72d', 'detail': 1, 'uid': 'bdb8af0e80f0a2689f09f72d', 'detail_info': {'tag': '医疗;其他', 'navi_location': {'lng': 118.76046873932, 'lat': 32.028347158123}, 'type': 'hospital', 'detail_url': 'http://api.map.baidu.com/place/detail?uid=bdb8af0e80f0a2689f09f72d&output=html&source=placeapi_v2', 'image_num': '1', 'children': [], 'lat': 32.02452654151103, 'lng': 118.74861847222131}}"
"{'name': '南京世科医疗器械有限公司', 'location': {'lat': 32.0261037480831, 'lng': 118.7368193409738}, 'address': '所街169号云锦路所街交界处新悦天地4楼', 'province': '江苏省', 'city': '南京市', 'area': '建邺区', 'detail': 1, 'uid': '3de97b203b202d1703ff2d21', 'detail_info': {'tag': '医疗;医疗器械', 'type': 'hospital', 'detail_url': 'http://api.map.baidu.com/place/detail?uid=3de97b203b202d1703ff2d21&output=html&source=placeapi_v2', 'children': [], 'lat': 32.0261037480831, 'lng': 118.7368193409738}}"
"{'name': '王灿晖名老中医工作室', 'location': {'lat': 32.02486972343106, 'lng': 118.74900959466598}, 'address': '江苏省南京市建邺区南湖路23号', 'province': '江苏省', 'city': '南京市', 'area': '建邺区', 'street_id': '870501e37f74725dc13644eb', 'detail': 1, 'uid': '870501e37f74725dc13644eb', 'detail_info': {'tag': '医疗;综合医院', 'type': 'hospital', 'detail_url': 'http://api.map.baidu.com/place/detail?uid=870501e37f74725dc13644eb&output=html&source=placeapi_v2', 'image_num': '1', 'children': [], 'lat': 32.02486972343106, 'lng': 118.74900959466598}}"
"{'name': '宁医堂', 'location': {'lat': 32.011011573689125, 'lng': 118.76028513544297}, 'address': '江苏省南京市雨花台区长虹路222高', 'province': '江苏省', 'city': '南京市', 'area': '雨花台区', 'detail': 1, 'uid': '16b67e3fa38a8ffa00ec0187', 'detail_info': {'tag': '医疗;药店', 'type': 'hospital', 'detail_url': 'http://api.map.baidu.com/place/detail?uid=16b67e3fa38a8ffa00ec0187&output=html&source=placeapi_v2', 'overall_rating': '0.0', 'image_num': '1', 'comment_num': '1', 'children': [], 'lat': 32.011011573689125, 'lng': 118.76028513544297}}"
"{'name': '益丰大药房(莺歌苑店)', 'location': {'lat': 32.030643198642856, 'lng': 118.73667249009684}, 'address': '南京市建邺区集庆门大街与云锦路交叉路口往西北约50米(莺歌苑小区)', 'province': '江苏省', 'city': '南京市', 'area': '建邺区', 'street_id': 'b884b45598f8e4e321f017bd', 'telephone': '(025)83317827', 'detail': 1, 'uid': 'b884b45598f8e4e321f017bd', 'detail_info': {'tag': '医疗;药店', 'type': 'hospital', 'detail_url': 'http://api.map.baidu.com/place/detail?uid=b884b45598f8e4e321f017bd&output=html&source=placeapi_v2', 'price': '0.0', 'overall_rating': '0.0', 'image_num': '13', 'comment_num': '2', 'children': [], 'lat': 32.030643198642856, 'lng': 118.73667249009684}}"
"{'name': '益丰大药房(所街店)', 'location': {'lat': 32.02001124415142, 'lng': 118.75025510752207}, 'address': '江苏省南京市建邺区所街65号附近', 'province': '江苏省', 'city': '南京市', 'area': '建邺区', 'street_id': '1bad47d0b44c8b0e42afe650', 'telephone': '(025)86790305', 'detail': 1, 'uid': '1bad47d0b44c8b0e42afe650', 'detail_info': {'tag': '医疗;药店', 'navi_location': {'lng': 118.76201271898, 'lat': 32.023895220384}, 'type': 'hospital', 'detail_url': 'http://api.map.baidu.com/place/detail?uid=1bad47d0b44c8b0e42afe650&output=html&source=placeapi_v2', 'image_num': '4', 'children': [], 'lat': 32.02001124415142, 'lng': 118.75025510752207}}"
"{'name': '老百姓大药房(泰山路店)', 'location': {'lat': 32.01150395176748, 'lng': 118.74563330837205}, 'address': '江苏省南京市建邺区泰山路65-11号', 'province': '江苏省', 'city': '南京市', 'area': '建邺区', 'street_id': '4f9d38079a33f4a5c056aca0', 'telephone': '(025)86287366', 'detail': 1, 'uid': '4f9d38079a33f4a5c056aca0', 'detail_info': {'tag': '医疗;药店', 'navi_location': {'lng': 118.75751854592, 'lat': 32.015325595972}, 'type': 'hospital', 'detail_url': 'http://api.map.baidu.com/place/detail?uid=4f9d38079a33f4a5c056aca0&output=html&source=placeapi_v2', 'overall_rating': '0.0', 'image_num': '8', 'children': [], 'lat': 32.01150395176748, 'lng': 118.74563330837205}}"
"{'name': '健康乐园', 'location': {'lat': 32.03104356347303, 'lng': 118.75214264781634}, 'address': '南京市建邺区文体西村27栋108室', 'province': '江苏省', 'city': '南京市', 'area': '建邺区', 'street_id': '68a04554dd76191daeb22a44', 'detail': 1, 'uid': '68a04554dd76191daeb22a44', 'detail_info': {'tag': '医疗', 'type': 'hospital', 'detail_url': 'http://api.map.baidu.com/place/detail?uid=68a04554dd76191daeb22a44&output=html&source=placeapi_v2', 'image_num': '2', 'children': [], 'lat': 32.03104356347303, 'lng': 118.75214264781634}}"
"{'name': '南京市爱婴医院', 'location': {'lat': 32.031379457171134, 'lng': 118.75409091744443}, 'address': '南京市建邺区文体西街与蓓蕾街交叉路口南侧(华世佳宝妇产医院)', 'province': '江苏省', 'city': '南京市', 'area': '建邺区', 'street_id': 'ab203a141168b07e1811d557', 'detail': 1, 'uid': 'ab203a141168b07e1811d557', 'detail_info': {'tag': '医疗;其他', 'type': 'hospital', 'detail_url': 'http://api.map.baidu.com/place/detail?uid=ab203a141168b07e1811d557&output=html&source=placeapi_v2', 'image_num': '1', 'children': [], 'lat': 32.031379457171134, 'lng': 118.75409091744443}}"
"{'name': '江苏省第二中医院-C栋', 'location': {'lat': 32.024892702313856, 'lng': 118.74971813993491}, 'address': '江苏省南京市建邺区江苏省第二中医院', 'province': '江苏省', 'city': '南京市', 'area': '建邺区', 'street_id': 'ad06f7944a61358e7369d31a', 'detail': 1, 'uid': 'ad06f7944a61358e7369d31a', 'detail_info': {'tag': '医疗;其他', 'type': 'hospital', 'detail_url': 'http://api.map.baidu.com/place/detail?uid=ad06f7944a61358e7369d31a&output=html&source=placeapi_v2', 'image_num': '1', 'children': [], 'lat': 32.024892702313856, 'lng': 118.74971813993491}}"
"{'name': '江苏省第二中医院-感染性疾病科', 'location': {'lat': 32.02452654151103, 'lng': 118.74861847222131}, 'address': '南湖路23号', 'province': '江苏省', 'city': '南京市', 'area': '建邺区', 'street_id': '9e5037af88f7dac46ca3cc56', 'detail': 1, 'uid': '9e5037af88f7dac46ca3cc56', 'detail_info': {'tag': '医疗;其他', 'navi_location': {'lng': 118.76046873932, 'lat': 32.028347158123}, 'type': 'hospital', 'detail_url': 'http://api.map.baidu.com/place/detail?uid=9e5037af88f7dac46ca3cc56&output=html&source=placeapi_v2', 'image_num': '1', 'children': [], 'lat': 32.02452654151103, 'lng': 118.74861847222131}}"
"{'name': '国大药房(怡康新寓店)', 'location': {'lat': 32.013142178816075, 'lng': 118.74900970513299}, 'address': '南京市建邺区怡康新寓1幢1层', 'province': '江苏省', 'city': '南京市', 'area': '建邺区', 'street_id': '3d576cc2a6f8a44840afe6d2', 'telephone': '(025)87756395', 'detail': 1, 'uid': '3d576cc2a6f8a44840afe6d2', 'detail_info': {'tag': '医疗;药店', 'type': 'hospital', 'detail_url': 'http://api.map.baidu.com/place/detail?uid=3d576cc2a6f8a44840afe6d2&output=html&source=placeapi_v2', 'overall_rating': '0.0', 'image_num': '17', 'children': [], 'lat': 32.013142178816075, 'lng': 118.74900970513299}}"
"{'name': '好药师大药房(湖西店)', 'location': {'lat': 32.026606699146356, 'lng': 118.74273910244582}, 'address': '湖西街50号', 'province': '江苏省', 'city': '南京市', 'area': '建邺区', 'street_id': '11219e8ae0ab98160c0e6b8f', 'detail': 1, 'uid': '11219e8ae0ab98160c0e6b8f', 'detail_info': {'tag': '医疗;药店', 'type': 'hospital', 'detail_url': 'http://api.map.baidu.com/place/detail?uid=11219e8ae0ab98160c0e6b8f&output=html&source=placeapi_v2', 'overall_rating': '0.0', 'image_num': '12', 'children': [], 'lat': 32.026606699146356, 'lng': 118.74273910244582}}"
"{'name': '海王星辰健康药房(云河路店)', 'location': {'lat': 32.02409524446231, 'lng': 118.7562351292824}, 'address': '南京市建邺区集庆门大街36号', 'province': '江苏省', 'city': '南京市', 'area': '建邺区', 'street_id': '2c0bd6c54ecfdeb343ab9a5e', 'detail': 1, 'uid': '2c0bd6c54ecfdeb343ab9a5e', 'detail_info': {'tag': '医疗;药店', 'type': 'hospital', 'detail_url': 'http://api.map.baidu.com/place/detail?uid=2c0bd6c54ecfdeb343ab9a5e&output=html&source=placeapi_v2', 'price': '0.0', 'overall_rating': '4.3', 'image_num': '12', 'comment_num': '6', 'children': [], 'lat': 32.02409524446231, 'lng': 118.7562351292824}}"
"{'name': '筑康药房', 'location': {'lat': 32.01652608982368, 'lng': 118.73546364193655}, 'address': '庐山路与白鹭东街交叉口西北50米', 'province': '江苏省', 'city': '南京市', 'area': '建邺区', 'street_id': 'eb5e872a3483a5ad2bd7ab1f', 'telephone': '(025)85579097', 'detail': 1, 'uid': 'eb5e872a3483a5ad2bd7ab1f', 'detail_info': {'tag': '医疗;药店', 'navi_location': {'lng': 118.74718010501, 'lat': 32.020084803753}, 'type': 'hospital', 'detail_url': 'http://api.map.baidu.com/place/detail?uid=eb5e872a3483a5ad2bd7ab1f&output=html&source=placeapi_v2', 'image_num': '8', 'children': [], 'lat': 32.01652608982368, 'lng': 118.73546364193655}}"
"{'name': '江苏省第二中医院-检验科', 'location': {'lat': 32.02452855391923, 'lng': 118.74861746736242}, 'address': '南湖路23号', 'province': '江苏省', 'city': '南京市', 'area': '建邺区', 'street_id': '39303ca7598a0ff554bfff84', 'detail': 1, 'uid': '39303ca7598a0ff554bfff84', 'detail_info': {'tag': '医疗;其他', 'navi_location': {'lng': 118.76046873932, 'lat': 32.028347158123}, 'type': 'hospital', 'detail_url': 'http://api.map.baidu.com/place/detail?uid=39303ca7598a0ff554bfff84&output=html&source=placeapi_v2', 'image_num': '1', 'children': [], 'lat': 32.02452855391923, 'lng': 118.74861746736242}}"
"{'name': '奇冠药店(赛虹桥店)', 'location': {'lat': 32.014191606269364, 'lng': 118.75710794619047}, 'address': '应天大街677-3号', 'province': '江苏省', 'city': '南京市', 'area': '雨花台区', 'street_id': '87387aa96c40eaffb35c6a74', 'telephone': '(025)83216373', 'detail': 1, 'uid': '87387aa96c40eaffb35c6a74', 'detail_info': {'tag': '医疗;药店', 'navi_location': {'lng': 118.76882129354, 'lat': 32.018142709299}, 'type': 'hospital', 'detail_url': 'http://api.map.baidu.com/place/detail?uid=87387aa96c40eaffb35c6a74&output=html&source=placeapi_v2', 'overall_rating': '0.0', 'image_num': '18', 'comment_num': '3', 'children': [], 'lat': 32.014191606269364, 'lng': 118.75710794619047}}"
"{'name': '先声再康药店(积贤街药店)', 'location': {'lat': 32.02738243012716, 'lng': 118.73335863248448}, 'address': '南京市建邺区积贤街与江东中路交叉路口往东约50米(积善新寓东区)', 'province': '江苏省', 'city': '南京市', 'area': '建邺区', 'street_id': 'e117657a2eaccb347bf7964e', 'telephone': '(025)57027742', 'detail': 1, 'uid': 'e117657a2eaccb347bf7964e', 'detail_info': {'tag': '医疗;药店', 'type': 'hospital', 'detail_url': 'http://api.map.baidu.com/place/detail?uid=e117657a2eaccb347bf7964e&output=html&source=placeapi_v2', 'image_num': '6', 'children': [], 'lat': 32.02738243012716, 'lng': 118.73335863248448}}"
"{'name': '南京市建邺医院(南湖路)-2栋', 'location': {'lat': 32.02851693168669, 'lng': 118.75083556938952}, 'address': '南湖东路14号(南湖东路口)', 'province': '江苏省', 'city': '南京市', 'area': '建邺区', 'street_id': '50974b4a7dddfe858e77279c', 'detail': 1, 'uid': '50974b4a7dddfe858e77279c', 'detail_info': {'tag': '医疗;其他', 'navi_location': {'lng': 118.76215481744, 'lat': 32.032281566288}, 'type': 'hospital', 'detail_url': 'http://api.map.baidu.com/place/detail?uid=50974b4a7dddfe858e77279c&output=html&source=placeapi_v2', 'image_num': '1', 'children': [], 'lat': 32.02851693168669, 'lng': 118.75083556938952}}"
"{'name': '先声再康药店(泰康店)', 'location': {'lat': 32.02108256610702, 'lng': 118.76607208843964}, 'address': '集庆路230号', 'province': '江苏省', 'city': '南京市', 'area': '秦淮区', 'street_id': '036370c8c464ba829ff779d1', 'telephone': '(025)83197950', 'detail': 1, 'uid': '036370c8c464ba829ff779d1', 'detail_info': {'tag': '医疗;药店', 'navi_location': {'lng': 118.7778345371, 'lat': 32.024994565726}, 'type': 'hospital', 'detail_url': 'http://api.map.baidu.com/place/detail?uid=036370c8c464ba829ff779d1&output=html&source=placeapi_v2', 'image_num': '7', 'children': [], 'lat': 32.02108256610702, 'lng': 118.76607208843964}}"
"{'name': '益丰大药房(双塘路店)', 'location': {'lat': 32.02561368054731, 'lng': 118.7671001338482}, 'address': '来凤里103号', 'province': '江苏省', 'city': '南京市', 'area': '秦淮区', 'street_id': '7d5f3a0a71d26f522cb90849', 'telephone': '(025)52339303,(025)83404711', 'detail': 1, 'uid': '7d5f3a0a71d26f522cb90849', 'detail_info': {'tag': '医疗;药店', 'navi_location': {'lng': 118.7788435372, 'lat': 32.029686200221}, 'type': 'hospital', 'detail_url': 'http://api.map.baidu.com/place/detail?uid=7d5f3a0a71d26f522cb90849&output=html&source=placeapi_v2', 'price': '0.0', 'overall_rating': '0.0', 'image_num': '13', 'comment_num': '2', 'children': [], 'lat': 32.02561368054731, 'lng': 118.7671001338482}}"
"{'name': '老百姓大药房(应天大街店)', 'location': {'lat': 32.01731976657286, 'lng': 118.74862030862364}, 'address': '江苏省南京市建邺区应天大街785-1号', 'province': '江苏省', 'city': '南京市', 'area': '建邺区', 'street_id': '0e0c5eaa69905338c929153e', 'telephone': '(025)83628376', 'detail': 1, 'uid': '0e0c5eaa69905338c929153e', 'detail_info': {'tag': '医疗;药店', 'navi_location': {'lng': 118.76048795048, 'lat': 32.021129249806}, 'type': 'hospital', 'detail_url': 'http://api.map.baidu.com/place/detail?uid=0e0c5eaa69905338c929153e&output=html&source=placeapi_v2', 'overall_rating': '0.0', 'image_num': '8', 'comment_num': '1', 'children': [], 'lat': 32.01731976657286, 'lng': 118.74862030862364}}"
"{'name': '先声再康药店', 'location': {'lat': 32.02890058599315, 'lng': 118.75375764128538}, 'address': '江苏省南京市建邺区南湖东路25号附近', 'province': '江苏省', 'city': '南京市', 'area': '建邺区', 'detail': 1, 'uid': '6662e1aa2f6570993913fdc8', 'detail_info': {'tag': '医疗;药店', 'navi_location': {'lng': 118.76569469989, 'lat': 32.032905050711}, 'type': 'hospital', 'detail_url': 'http://api.map.baidu.com/place/detail?uid=6662e1aa2f6570993913fdc8&output=html&source=placeapi_v2', 'image_num': '4', 'children': [], 'lat': 32.02890058599315, 'lng': 118.75375764128538}}"
"{'name': '葆宁堂大药房', 'location': {'lat': 32.03182102376094, 'lng': 118.7329141280767}, 'address': '江东中路106-9', 'province': '江苏省', 'city': '南京市', 'area': '建邺区', 'street_id': '40a7295f04a38eac601c6714', 'telephone': '13337824877', 'detail': 1, 'uid': '40a7295f04a38eac601c6714', 'detail_info': {'tag': '医疗;药店', 'navi_location': {'lng': 118.74565950285, 'lat': 32.03544199036}, 'type': 'hospital', 'detail_url': 'http://api.map.baidu.com/place/detail?uid=40a7295f04a38eac601c6714&output=html&source=placeapi_v2', 'overall_rating': '1.2', 'image_num': '13', 'comment_num': '5', 'children': [], 'lat': 32.03182102376094, 'lng': 118.7329141280767}}"
"{'name': '唐瑞健康管理中心(康泰街)', 'location': {'lat': 32.02475027745927, 'lng': 118.74692383317834}, 'address': '江苏省南京市建邺区南苑街道康泰街安泰村21栋', 'province': '江苏省', 'city': '南京市', 'area': '建邺区', 'street_id': '9d659c079b8027e66b49f385', 'detail': 1, 'uid': '9d659c079b8027e66b49f385', 'detail_info': {'tag': '医疗;体检机构', 'type': 'hospital', 'detail_url': 'http://api.map.baidu.com/place/detail?uid=9d659c079b8027e66b49f385&output=html&source=placeapi_v2', 'image_num': '9', 'children': [], 'lat': 32.02475027745927, 'lng': 118.74692383317834}}"
"{'name': '益丰大药房(南京安泰村店)', 'location': {'lat': 32.02557308788039, 'lng': 118.74865986325734}, 'address': '江苏省南京市建邺区南湖路安泰村6号(二中医院对面)', 'province': '江苏省', 'city': '南京市', 'area': '建邺区', 'street_id': 'abc5f5bbde16fc53f8f0cbe9', 'telephone': '(025)83373573', 'detail': 1, 'uid': 'abc5f5bbde16fc53f8f0cbe9', 'detail_info': {'tag': '医疗;药店', 'navi_location': {'lng': 118.76045099958, 'lat': 32.029228015809}, 'type': 'hospital', 'detail_url': 'http://api.map.baidu.com/place/detail?uid=abc5f5bbde16fc53f8f0cbe9&output=html&source=placeapi_v2', 'price': '0.0', 'overall_rating': '0.0', 'image_num': '10', 'comment_num': '1', 'children': [], 'lat': 32.02557308788039, 'lng': 118.74865986325734}}"
"{'name': '南京人民药店', 'location': {'lat': 32.03128230758843, 'lng': 118.73114894498705}, 'address': '江苏省南京市建邺区集庆门大街216-4', 'province': '江苏省', 'city': '南京市', 'area': '建邺区', 'telephone': '(025)57051615', 'detail': 1, 'uid': '38f6bb1269ad51c93686f40e', 'detail_info': {'tag': '医疗;药店', 'type': 'hospital', 'detail_url': 'http://api.map.baidu.com/place/detail?uid=38f6bb1269ad51c93686f40e&output=html&source=placeapi_v2', 'overall_rating': '0.0', 'image_num': '7', 'comment_num': '1', 'children': [], 'lat': 32.03128230758843, 'lng': 118.73114894498705}}"
"{'name': '南京达迪嘉医疗器械有限公司', 'location': {'lat': 32.02005618135237, 'lng': 118.74220532382219}, 'address': '江苏省南京市建邺区应天大街837号8楼', 'province': '江苏省', 'city': '南京市', 'area': '建邺区', 'telephone': '13390778068', 'detail': 1, 'uid': '767d6a5d26592164d4851f49', 'detail_info': {'tag': '医疗;医疗器械', 'type': 'hospital', 'detail_url': 'http://api.map.baidu.com/place/detail?uid=767d6a5d26592164d4851f49&output=html&source=placeapi_v2', 'image_num': '1', 'children': [], 'lat': 32.02005618135237, 'lng': 118.74220532382219}}"
"{'name': '江苏省第二中医院-B栋', 'location': {'lat': 32.025065768984774, 'lng': 118.74924529374022}, 'address': '南京市建邺区第二中医院B栋', 'province': '江苏省', 'city': '南京市', 'area': '建邺区', 'street_id': '57fc9b896325ba27754ff13d', 'detail': 1, 'uid': '57fc9b896325ba27754ff13d', 'detail_info': {'tag': '医疗;其他', 'type': 'hospital', 'detail_url': 'http://api.map.baidu.com/place/detail?uid=57fc9b896325ba27754ff13d&output=html&source=placeapi_v2', 'image_num': '1', 'children': [], 'lat': 32.025065768984774, 'lng': 118.74924529374022}}"
"{'name': '奇冠药店(应天大街店)', 'location': {'lat': 32.02186889386908, 'lng': 118.73856090887409}, 'address': '南苑街道应天大街859号', 'province': '江苏省', 'city': '南京市', 'area': '建邺区', 'street_id': '9f537bac19fa9df89f09f7b9', 'telephone': '(025)58837341', 'detail': 1, 'uid': '9f537bac19fa9df89f09f7b9', 'detail_info': {'tag': '医疗;药店', 'type': 'hospital', 'detail_url': 'http://api.map.baidu.com/place/detail?uid=9f537bac19fa9df89f09f7b9&output=html&source=placeapi_v2', 'overall_rating': '0.0', 'image_num': '18', 'comment_num': '2', 'children': [], 'lat': 32.02186889386908, 'lng': 118.73856090887409}}"
"{'name': '日式成人用品无人售货', 'location': {'lat': 32.028271859905104, 'lng': 118.75941035489055}, 'address': '江苏省南京市建邺区长虹路199号附近', 'province': '江苏省', 'city': '南京市', 'area': '建邺区', 'detail': 1, 'uid': 'e3292d877586c39c593ac84d', 'detail_info': {'tag': '医疗;医疗保健', 'type': 'hospital', 'detail_url': 'http://api.map.baidu.com/place/detail?uid=e3292d877586c39c593ac84d&output=html&source=placeapi_v2', 'image_num': '7', 'children': [], 'lat': 32.028271859905104, 'lng': 118.75941035489055}}"
"{'name': '虹苑新寓大药房', 'location': {'lat': 32.01755360789774, 'lng': 118.74838943519315}, 'address': '南京市建邺区应天大街与泰山路交叉路口西侧(虹苑新寓小区东北侧)', 'province': '江苏省', 'city': '南京市', 'area': '建邺区', 'street_id': 'd7fd2ad382f725540accddac', 'detail': 1, 'uid': 'd7fd2ad382f725540accddac', 'detail_info': {'tag': '医疗;药店', 'navi_location': {'lng': 118.76024987077, 'lat': 32.021240530053}, 'type': 'hospital', 'detail_url': 'http://api.map.baidu.com/place/detail?uid=d7fd2ad382f725540accddac&output=html&source=placeapi_v2', 'overall_rating': '1.0', 'image_num': '27', 'comment_num': '4', 'children': [], 'lat': 32.01755360789774, 'lng': 118.74838943519315}}"
"{'name': '江苏省第二中医院血透中心', 'location': {'lat': 32.02487067753012, 'lng': 118.74995001888263}, 'address': '江苏省南京市建邺区南湖路21号', 'province': '江苏省', 'city': '南京市', 'area': '建邺区', 'street_id': '93036e7bcc64cea1c3364456', 'detail': 1, 'uid': '93036e7bcc64cea1c3364456', 'detail_info': {'tag': '医疗;综合医院', 'type': 'hospital', 'detail_url': 'http://api.map.baidu.com/place/detail?uid=93036e7bcc64cea1c3364456&output=html&source=placeapi_v2', 'image_num': '1', 'children': [], 'lat': 32.02487067753012, 'lng': 118.74995001888263}}"
"{'name': '益丰大药房(南京集庆路三店)', 'location': {'lat': 32.021138863989314, 'lng': 118.76554900969775}, 'address': '江苏省南京市秦淮区集庆路242号-1', 'province': '江苏省', 'city': '南京市', 'area': '秦淮区', 'street_id': 'dde52c2697314ad9128824f6', 'telephone': '(025)84873310', 'detail': 1, 'uid': 'dde52c2697314ad9128824f6', 'detail_info': {'tag': '医疗;药店', 'type': 'hospital', 'detail_url': 'http://api.map.baidu.com/place/detail?uid=dde52c2697314ad9128824f6&output=html&source=placeapi_v2', 'overall_rating': '5.0', 'image_num': '4', 'comment_num': '3', 'children': [], 'lat': 32.021138863989314, 'lng': 118.76554900969775}}"
"{'name': '成人用品', 'location': {'lat': 32.0281035819479, 'lng': 118.74988928462615}, 'address': '南京市建邺区南湖路与沿河街交叉路口往东南约50米(东升沿一小区西北侧)', 'province': '江苏省', 'city': '南京市', 'area': '建邺区', 'detail': 1, 'uid': 'f4b7195cdb7a105bf7eafcc2', 'detail_info': {'tag': '医疗;医疗保健', 'type': 'hospital', 'detail_url': 'http://api.map.baidu.com/place/detail?uid=f4b7195cdb7a105bf7eafcc2&output=html&source=placeapi_v2', 'image_num': '6', 'children': [], 'lat': 32.0281035819479, 'lng': 118.74988928462615}}"
"{'name': '国大药房(来凤街店)', 'location': {'lat': 32.02317318157631, 'lng': 118.76503480106668}, 'address': '南京市秦淮区来凤街9-9号', 'province': '江苏省', 'city': '南京市', 'area': '秦淮区', 'street_id': '06227ee845f566564d2fdfb9', 'detail': 1, 'uid': '06227ee845f566564d2fdfb9', 'detail_info': {'tag': '医疗;药店', 'type': 'hospital', 'detail_url': 'http://api.map.baidu.com/place/detail?uid=06227ee845f566564d2fdfb9&output=html&source=placeapi_v2', 'image_num': '12', 'children': [], 'lat': 32.02317318157631, 'lng': 118.76503480106668}}"
"{'name': '国医养生来凤店', 'location': {'lat': 32.023514132404, 'lng': 118.76509492717453}, 'address': '江苏省南京市秦淮区来凤街9号附近', 'province': '江苏省', 'city': '南京市', 'area': '秦淮区', 'detail': 1, 'uid': 'ea436a0c942d364dfbdc8541', 'detail_info': {'tag': '医疗;药店', 'type': 'hospital', 'detail_url': 'http://api.map.baidu.com/place/detail?uid=ea436a0c942d364dfbdc8541&output=html&source=placeapi_v2', 'image_num': '1', 'children': [], 'lat': 32.023514132404, 'lng': 118.76509492717453}}"
"{'name': '日式成人用品', 'location': {'lat': 32.028400332522345, 'lng': 118.75967165396581}, 'address': '南京市建邺区南湖东路与长虹路交叉路口往西约100米(长虹大市场西北侧约50米)', 'province': '江苏省', 'city': '南京市', 'area': '建邺区', 'detail': 1, 'uid': '69691800ed786afeb6f42f74', 'detail_info': {'tag': '医疗;医疗保健', 'type': 'hospital', 'detail_url': 'http://api.map.baidu.com/place/detail?uid=69691800ed786afeb6f42f74&output=html&source=placeapi_v2', 'image_num': '3', 'children': [], 'lat': 32.028400332522345, 'lng': 118.75967165396581}}"
"{'name': '润天好药房(省第二中医院药店)', 'location': {'lat': 32.02442160675798, 'lng': 118.7504060671166}, 'address': '南苑街道南湖路23号江苏省第二中医院附近', 'province': '江苏省', 'city': '南京市', 'area': '建邺区', 'telephone': '(025)83651861', 'detail': 1, 'uid': '62d837bb2b17d9066b49f3b9', 'detail_info': {'tag': '医疗;药店', 'type': 'hospital', 'detail_url': 'http://api.map.baidu.com/place/detail?uid=62d837bb2b17d9066b49f3b9&output=html&source=placeapi_v2', 'image_num': '1', 'children': [], 'lat': 32.02442160675798, 'lng': 118.7504060671166}}"
"{'name': '建邺区动物检疫换证申报点犬类防疫中心', 'location': {'lat': 32.021790057538546, 'lng': 118.76053010198989}, 'address': '江苏省南京市建邺区集庆门大街1-2号', 'province': '江苏省', 'city': '南京市', 'area': '建邺区', 'street_id': 'a6e2becd9439d9e3892fb589', 'detail': 1, 'uid': 'a6e2becd9439d9e3892fb589', 'detail_info': {'tag': '医疗;疾控中心', 'type': 'hospital', 'detail_url': 'http://api.map.baidu.com/place/detail?uid=a6e2becd9439d9e3892fb589&output=html&source=placeapi_v2', 'overall_rating': '1.0', 'image_num': '1', 'comment_num': '1', 'children': [], 'lat': 32.021790057538546, 'lng': 118.76053010198989}}"
"{'name': '星益城', 'location': {'lat': 32.03068415754891, 'lng': 118.74748069541778}, 'address': '茶亭东街79号', 'province': '江苏省', 'city': '南京市', 'area': '建邺区', 'street_id': 'fa9309de9f16bece0a5cb359', 'detail': 1, 'uid': 'fa9309de9f16bece0a5cb359', 'detail_info': {'tag': '房地产;住宅区', 'type': 'house', 'detail_url': 'http://api.map.baidu.com/place/detail?uid=fa9309de9f16bece0a5cb359&output=html&source=placeapi_v2', 'children': [], 'lat': 32.03068415754891, 'lng': 118.74748069541778}}"
"{'name': '德晟堂北京中科', 'location': {'lat': 32.02973441971956, 'lng': 118.76435878800777}, 'address': '江苏省南京市秦淮区凤台路28-1附近', 'province': '江苏省', 'city': '南京市', 'area': '秦淮区', 'street_id': 'b7055bae125dc86a38e4a6ce', 'detail': 1, 'uid': 'b7055bae125dc86a38e4a6ce', 'detail_info': {'tag': '医疗;药店', 'type': 'hospital', 'detail_url': 'http://api.map.baidu.com/place/detail?uid=b7055bae125dc86a38e4a6ce&output=html&source=placeapi_v2', 'image_num': '3', 'children': [], 'lat': 32.02973441971956, 'lng': 118.76435878800777}}"
"{'name': '江苏省人民医院', 'location': {'lat': 32.05128178887866, 'lng': 118.76186109105528}, 'address': '南京市鼓楼区广州路300号', 'province': '江苏省', 'city': '南京市', 'area': '鼓楼区', 'street_id': '04bdf4a396dc3856354aae47', 'telephone': '(025)83714511', 'detail': 1, 'uid': '04bdf4a396dc3856354aae47', 'detail_info': {'tag': '医疗;综合医院', 'navi_location': {'lng': 118.7720897449, 'lat': 32.053639982507}, 'type': 'hospital', 'detail_url': 'http://api.map.baidu.com/place/detail?uid=04bdf4a396dc3856354aae47&output=html&source=placeapi_v2', 'price': '0.0', 'overall_rating': '3.1', 'image_num': '30', 'comment_num': '41', 'children': [], 'lat': 32.05128178887866, 'lng': 118.76186109105528}}"
"{'name': '南京脑科医院', 'location': {'lat': 32.052294947252626, 'lng': 118.76353661569016}, 'address': '南京市鼓楼区广州路264号', 'province': '江苏省', 'city': '南京市', 'area': '鼓楼区', 'street_id': 'b533ea4a5de81c404e6d4682', 'telephone': '(025)82296000', 'detail': 1, 'uid': 'b533ea4a5de81c404e6d4682', 'detail_info': {'tag': '医疗;专科医院', 'navi_location': {'lng': 118.77636924002, 'lat': 32.055857961835}, 'type': 'hospital', 'detail_url': 'http://api.map.baidu.com/place/detail?uid=b533ea4a5de81c404e6d4682&output=html&source=placeapi_v2', 'price': '0.0', 'overall_rating': '3.1', 'image_num': '19', 'comment_num': '25', 'children': [], 'lat': 32.052294947252626, 'lng': 118.76353661569016}}"
"{'name': '鼓楼区凤凰社区卫生服务中心', 'location': {'lat': 32.04213560172227, 'lng': 118.75391786658683}, 'address': '江苏省南京市鼓楼区莫愁新寓涌泉里2号', 'province': '江苏省', 'city': '南京市', 'area': '鼓楼区', 'street_id': '9a957cfe144e5d56d7851fab', 'telephone': '(025)68735726', 'detail': 1, 'uid': '9a957cfe144e5d56d7851fab', 'detail_info': {'tag': '医疗;诊所', 'navi_location': {'lng': 118.76543565733, 'lat': 32.04542324901}, 'type': 'hospital', 'detail_url': 'http://api.map.baidu.com/place/detail?uid=9a957cfe144e5d56d7851fab&output=html&source=placeapi_v2', 'overall_rating': '1.2', 'image_num': '7', 'comment_num': '3', 'children': [], 'lat': 32.04213560172227, 'lng': 118.75391786658683}}"
"{'name': '鼓楼区宁海路社区卫生服务中心', 'location': {'lat': 32.05667487785386, 'lng': 118.76685496800393}, 'address': '江苏省南京市鼓楼区汉口西路28号', 'province': '江苏省', 'city': '南京市', 'area': '鼓楼区', 'street_id': 'f11286da85849407df1e52f2', 'detail': 1, 'uid': 'f11286da85849407df1e52f2', 'detail_info': {'tag': '医疗;诊所', 'navi_location': {'lng': 118.77921088577, 'lat': 32.060827071274}, 'type': 'hospital', 'detail_url': 'http://api.map.baidu.com/place/detail?uid=f11286da85849407df1e52f2&output=html&source=placeapi_v2', 'overall_rating': '5.0', 'image_num': '15', 'comment_num': '5', 'children': [], 'lat': 32.05667487785386, 'lng': 118.76685496800393}}"
"{'name': '南京市胸科医院', 'location': {'lat': 32.04926192162531, 'lng': 118.76399325245382}, 'address': '南京市鼓楼区广州路215号', 'province': '江苏省', 'city': '南京市', 'area': '鼓楼区', 'street_id': 'a7c56ee08760ebb3a2acc4a0', 'telephone': '(025)83728558', 'detail': 1, 'uid': 'a7c56ee08760ebb3a2acc4a0', 'detail_info': {'tag': '医疗;专科医院', 'navi_location': {'lng': 118.77588428889, 'lat': 32.054293519526}, 'type': 'hospital', 'detail_url': 'http://api.map.baidu.com/place/detail?uid=a7c56ee08760ebb3a2acc4a0&output=html&source=placeapi_v2', 'price': '0.0', 'overall_rating': '5.0', 'image_num': '12', 'comment_num': '7', 'children': [], 'lat': 32.04926192162531, 'lng': 118.76399325245382}}"
"{'name': '江苏省人民医院-停车场', 'location': {'lat': 32.051589453029635, 'lng': 118.75913884963528}, 'address': '江苏省南京市鼓楼区虎踞关60号小区西南100米', 'province': '江苏省', 'city': '南京市', 'area': '鼓楼区', 'street_id': '615ba290cb35a57046e27477', 'detail': 1, 'uid': '615ba290cb35a57046e27477', 'detail_info': {'tag': '交通设施;停车场', 'navi_location': {'lng': 118.77041730486, 'lat': 32.05583554004}, 'type': 'life', 'detail_url': 'http://api.map.baidu.com/place/detail?uid=615ba290cb35a57046e27477&output=html&source=placeapi_v2', 'overall_rating': '2.5', 'image_num': '1', 'comment_num': '4', 'children': [], 'lat': 32.051589453029635, 'lng': 118.75913884963528}}"
"{'name': '江苏省人民医院-6号门', 'location': {'lat': 32.05201530894932, 'lng': 118.75879761797405}, 'address': '江苏省南京市鼓楼区虎踞关60号小区西南100米', 'province': '江苏省', 'city': '南京市', 'area': '鼓楼区', 'street_id': '71baf64c9004c5ea9fec2b5f', 'detail': 1, 'uid': '71baf64c9004c5ea9fec2b5f', 'detail_info': {'tag': '出入口;门', 'navi_location': {'lng': 118.7703235029, 'lat': 32.056001709793}, 'type': 'life', 'detail_url': 'http://api.map.baidu.com/place/detail?uid=71baf64c9004c5ea9fec2b5f&output=html&source=placeapi_v2', 'overall_rating': '5.0', 'image_num': '1', 'comment_num': '1', 'children': [], 'lat': 32.05201530894932, 'lng': 118.75879761797405}}"
"{'name': '南京中医药大学国医堂', 'location': {'lat': 32.04538113794637, 'lng': 118.76214080899614}, 'address': '江苏省南京市鼓楼区汉中路282号28号楼', 'province': '江苏省', 'city': '南京市', 'area': '鼓楼区', 'street_id': '6835e3a70c08ef57e211039c', 'telephone': '(025)58999999', 'detail': 1, 'uid': '6835e3a70c08ef57e211039c', 'detail_info': {'tag': '医疗;其他', 'navi_location': {'lng': 118.77387330894, 'lat': 32.048879666431}, 'type': 'hospital', 'detail_url': 'http://api.map.baidu.com/place/detail?uid=6835e3a70c08ef57e211039c&output=html&source=placeapi_v2', 'overall_rating': '5.0', 'image_num': '15', 'comment_num': '6', 'children': [], 'lat': 32.04538113794637, 'lng': 118.76214080899614}}"
"{'name': '江苏省人民医院住院部', 'location': {'lat': 32.05053415393414, 'lng': 118.76076573613904}, 'address': '江苏省南京市鼓楼区广州路300号省人民医院内', 'province': '江苏省', 'city': '南京市', 'area': '鼓楼区', 'street_id': 'c6f68b6a95e1eea0c4f025ad', 'detail': 1, 'uid': 'c6f68b6a95e1eea0c4f025ad', 'detail_info': {'tag': '医疗;其他', 'navi_location': {'lng': 118.77147778955, 'lat': 32.055502625968}, 'type': 'hospital', 'detail_url': 'http://api.map.baidu.com/place/detail?uid=c6f68b6a95e1eea0c4f025ad&output=html&source=placeapi_v2', 'overall_rating': '5.0', 'image_num': '6', 'comment_num': '1', 'children': [], 'lat': 32.05053415393414, 'lng': 118.76076573613904}}"
"{'name': '南京脑科医院-门诊部', 'location': {'lat': 32.05188462748904, 'lng': 118.76400369269174}, 'address': '南京市鼓楼区广州路264号', 'province': '江苏省', 'city': '南京市', 'area': '鼓楼区', 'street_id': 'c21db9e56ca73dfe01ff2dbc', 'telephone': '(025)82296409', 'detail': 1, 'uid': 'c21db9e56ca73dfe01ff2dbc', 'detail_info': {'tag': '医疗;其他', 'navi_location': {'lng': 118.77630657871, 'lat': 32.055881792498}, 'type': 'hospital', 'detail_url': 'http://api.map.baidu.com/place/detail?uid=c21db9e56ca73dfe01ff2dbc&output=html&source=placeapi_v2', 'overall_rating': '5.0', 'image_num': '7', 'comment_num': '4', 'children': [], 'lat': 32.05188462748904, 'lng': 118.76400369269174}}"
"{'name': '江苏省中医院南院-住院部', 'location': {'lat': 32.04225236598154, 'lng': 118.7673150767367}, 'address': '江苏省南京市秦淮区石鼓路187号', 'province': '江苏省', 'city': '南京市', 'area': '秦淮区', 'street_id': 'f44012936c9465cc0b1cc71b', 'detail': 1, 'uid': 'f44012936c9465cc0b1cc71b', 'detail_info': {'tag': '医疗;其他', 'navi_location': {'lng': 118.77792246055, 'lat': 32.046665828597}, 'type': 'hospital', 'detail_url': 'http://api.map.baidu.com/place/detail?uid=f44012936c9465cc0b1cc71b&output=html&source=placeapi_v2', 'overall_rating': '0.0', 'image_num': '5', 'comment_num': '3', 'children': [], 'lat': 32.04225236598154, 'lng': 118.7673150767367}}"
"{'name': '华世佳宝妇产医院地上停车场-入口', 'location': {'lat': 32.03176239989908, 'lng': 118.75402927194831}, 'address': '文体西路9号', 'province': '江苏省', 'city': '南京市', 'area': '建邺区', 'street_id': '3ec8b5243432b19d9e9d6858', 'detail': 1, 'uid': '3ec8b5243432b19d9e9d6858', 'detail_info': {'tag': '出入口;停车场出入口', 'navi_location': {'lng': 118.76585915179, 'lat': 32.035604323859}, 'type': 'life', 'detail_url': 'http://api.map.baidu.com/place/detail?uid=3ec8b5243432b19d9e9d6858&output=html&source=placeapi_v2', 'image_num': '1', 'children': [], 'lat': 32.03176239989908, 'lng': 118.75402927194831}}"
"{'name': '江苏省人民医院-4号门', 'location': {'lat': 32.049723169107125, 'lng': 118.76048199481355}, 'address': '江苏省南京市鼓楼区广州路300号', 'province': '江苏省', 'city': '南京市', 'area': '鼓楼区', 'street_id': 'a93b3c7c40ab631131f71d96', 'detail': 1, 'uid': 'a93b3c7c40ab631131f71d96', 'detail_info': {'tag': '出入口;门', 'navi_location': {'lng': 118.77213648374, 'lat': 32.053607827712}, 'type': 'life', 'detail_url': 'http://api.map.baidu.com/place/detail?uid=a93b3c7c40ab631131f71d96&output=html&source=placeapi_v2', 'image_num': '1', 'children': [], 'lat': 32.049723169107125, 'lng': 118.76048199481355}}"
"{'name': '南京传统中医门诊部', 'location': {'lat': 32.04332257313482, 'lng': 118.73715929255805}, 'address': '江苏省南京市鼓楼区凤凰西街208号', 'province': '江苏省', 'city': '南京市', 'area': '鼓楼区', 'street_id': '5c56edd6cfa2e15aa1d2305d', 'telephone': '(025)66039012', 'detail': 1, 'uid': '5c56edd6cfa2e15aa1d2305d', 'detail_info': {'tag': '医疗;诊所', 'navi_location': {'lng': 118.74914331128, 'lat': 32.046804954816}, 'type': 'hospital', 'detail_url': 'http://api.map.baidu.com/place/detail?uid=5c56edd6cfa2e15aa1d2305d&output=html&source=placeapi_v2', 'overall_rating': '4.7', 'image_num': '6', 'comment_num': '8', 'children': [], 'lat': 32.04332257313482, 'lng': 118.73715929255805}}"
"{'name': '固生堂(南京宁西门诊部)', 'location': {'lat': 32.03620252529866, 'lng': 118.7401792119576}, 'address': '江苏省南京市建邺区水西门大街273号', 'province': '江苏省', 'city': '南京市', 'area': '建邺区', 'street_id': '49a02a7a29cd23592a201a9b', 'telephone': '(025)86664120', 'detail': 1, 'uid': '49a02a7a29cd23592a201a9b', 'detail_info': {'tag': '医疗;其他', 'navi_location': {'lng': 118.75191489369, 'lat': 32.039940119406}, 'type': 'hospital', 'detail_url': 'http://api.map.baidu.com/place/detail?uid=49a02a7a29cd23592a201a9b&output=html&source=placeapi_v2', 'overall_rating': '4.4', 'image_num': '3', 'comment_num': '8', 'children': [], 'lat': 32.03620252529866, 'lng': 118.7401792119576}}"
"{'name': '南京脑科医院-停车场', 'location': {'lat': 32.05172320570941, 'lng': 118.76436392535507}, 'address': '广州路264号', 'province': '江苏省', 'city': '南京市', 'area': '鼓楼区', 'street_id': 'e43d16ec874ecaeb0c0e6b17', 'detail': 1, 'uid': 'e43d16ec874ecaeb0c0e6b17', 'detail_info': {'tag': '交通设施;停车场', 'navi_location': {'lng': 118.77636128013, 'lat': 32.05585781257}, 'type': 'life', 'detail_url': 'http://api.map.baidu.com/place/detail?uid=e43d16ec874ecaeb0c0e6b17&output=html&source=placeapi_v2', 'overall_rating': '3.3', 'image_num': '3', 'comment_num': '7', 'children': [], 'lat': 32.05172320570941, 'lng': 118.76436392535507}}"
"{'name': '南京市胸科医院-门诊楼', 'location': {'lat': 32.04965223618536, 'lng': 118.76414271336263}, 'address': '广州路215号南京市胸科医院内', 'province': '江苏省', 'city': '南京市', 'area': '鼓楼区', 'street_id': 'bcb9ae9cc47c4018ddee8b80', 'detail': 1, 'uid': 'bcb9ae9cc47c4018ddee8b80', 'detail_info': {'tag': '医疗;其他', 'type': 'hospital', 'detail_url': 'http://api.map.baidu.com/place/detail?uid=bcb9ae9cc47c4018ddee8b80&output=html&source=placeapi_v2', 'image_num': '4', 'children': [], 'lat': 32.04965223618536, 'lng': 118.76414271336263}}"
"{'name': '省人民医院', 'location': {'lat': 32.049549218302, 'lng': 118.76172808494748}, 'address': '6路;43路;60路;91路;160路;302路;303路;317路;318路;502路;532路;552路;D15路;y6路夜间', 'province': '江苏省', 'city': '南京市', 'area': '鼓楼区', 'detail': 0, 'uid': '4b46645cd5426ed32d4733fa', 'detail_info': {'tag': '公交车站', 'children': [], 'lat': 32.049549218302, 'lng': 118.76172808494748}}"
"{'name': '南京消防医院-北门', 'location': {'lat': 32.0483985179074, 'lng': 118.73182571800061}, 'address': '江苏省南京市清凉门大街203号', 'province': '江苏省', 'city': '南京市', 'area': '鼓楼区', 'detail': 1, 'uid': 'd6cecde57ba4fe6c213bf266', 'detail_info': {'tag': '出入口;门', 'type': 'life', 'detail_url': 'http://api.map.baidu.com/place/detail?uid=d6cecde57ba4fe6c213bf266&output=html&source=placeapi_v2', 'image_num': '1', 'children': [], 'lat': 32.0483985179074, 'lng': 118.73182571800061}}"
"{'name': '江苏省国医馆', 'location': {'lat': 32.04864185850965, 'lng': 118.7365304170901},