"{'name': '南京市民卡服务中心', 'location': {'lat': 32.0070010903376, 'lng': 118.72750694186455}, 'address': '江东中路259号新城大厦一楼', 'province': '江苏省', 'city': '南京市', 'area': '建邺区', 'street_id': '96838c05707bf80872210b98', 'detail': 1, 'uid': '96838c05707bf80872210b98', 'detail_info': {'tag': '生活服务;其他', 'navi_location': {'lng': 118.7380817497, 'lat': 32.011950297338}, 'type': 'life', 'detail_url': 'http://api.map.baidu.com/place/detail?uid=96838c05707bf80872210b98&output=html&source=placeapi_v2', 'overall_rating': '2.3', 'image_num': '6', 'comment_num': '15', 'children': [], 'lat': 32.0070010903376, 'lng': 118.72750694186455}}"
"{'name': '苏通卡客服中心', 'location': {'lat': 32.00933205076495, 'lng': 118.7167569732768}, 'address': '南京市建邺区江东中路222号', 'province': '江苏省', 'city': '南京市', 'area': '建邺区', 'street_id': 'cfc6aeaa71e891f02b201a15', 'telephone': '(025)84369952', 'detail': 1, 'uid': 'cfc6aeaa71e891f02b201a15', 'detail_info': {'tag': '生活服务;其他', 'navi_location': {'lng': 118.72861408753, 'lat': 32.012936986073}, 'type': 'life', 'detail_url': 'http://api.map.baidu.com/place/detail?uid=cfc6aeaa71e891f02b201a15&output=html&source=placeapi_v2', 'overall_rating': '3.8', 'image_num': '5', 'comment_num': '24', 'children': [], 'lat': 32.00933205076495, 'lng': 118.7167569732768}}"
"{'name': '南京市妇女儿童活动中心', 'location': {'lat': 32.015538728975436, 'lng': 118.71394796204626}, 'address': '乐山路150号', 'province': '江苏省', 'city': '南京市', 'area': '建邺区', 'street_id': '89560b516be12d6216a190ee', 'telephone': '(025)89600237', 'detail': 1, 'uid': '89560b516be12d6216a190ee', 'detail_info': {'tag': '休闲娱乐;其他', 'navi_location': {'lng': 118.72613418491, 'lat': 32.018559165052}, 'type': 'life', 'detail_url': 'http://api.map.baidu.com/place/detail?uid=89560b516be12d6216a190ee&output=html&source=placeapi_v2', 'overall_rating': '4.6', 'image_num': '4', 'comment_num': '16', 'children': [], 'lat': 32.015538728975436, 'lng': 118.71394796204626}}"
"{'name': 'AMC中心动物医院(梦都大街分院)', 'location': {'lat': 32.01754634385537, 'lng': 118.71623348974315}, 'address': '江苏省南京市建邺区梦都大街176-2号地铁10号线梦都大街站4号出口旁', 'province': '江苏省', 'city': '南京市', 'area': '建邺区', 'street_id': '2d7b451cc5773f00b5147f93', 'telephone': '(025)58790763', 'detail': 1, 'uid': '2d7b451cc5773f00b5147f93', 'detail_info': {'tag': '生活服务;宠物服务', 'navi_location': {'lng': 118.72802280398, 'lat': 32.021193479864}, 'type': 'life', 'detail_url': 'http://api.map.baidu.com/place/detail?uid=2d7b451cc5773f00b5147f93&output=html&source=placeapi_v2', 'overall_rating': '4.6', 'image_num': '5', 'comment_num': '19', 'children': [], 'lat': 32.01754634385537, 'lng': 118.71623348974315}}"
"{'name': '南京奥林匹克体育中心-商务东区', 'location': {'lat': 32.010678460592196, 'lng': 118.72113178499751}, 'address': '南京市建邺区江东中路222号南京奥林匹克体育中心内', 'province': '江苏省', 'city': '南京市', 'area': '建邺区', 'street_id': '9fdf5565db512f4cb45f1ee2', 'detail': 1, 'uid': '9fdf5565db512f4cb45f1ee2', 'detail_info': {'tag': '生活服务;其他', 'navi_location': {'lng': 118.73308953451, 'lat': 32.014406198054}, 'type': 'life', 'detail_url': 'http://api.map.baidu.com/place/detail?uid=9fdf5565db512f4cb45f1ee2&output=html&source=placeapi_v2', 'overall_rating': '0.0', 'image_num': '1', 'comment_num': '1', 'children': [], 'lat': 32.010678460592196, 'lng': 118.72113178499751}}"
"{'name': '肥皂的喵与汪(奥体中心)', 'location': {'lat': 32.008621932929685, 'lng': 118.7099370124885}, 'address': '奥体大街199号金马骊城16栋103室(奥体中心)', 'province': '江苏省', 'city': '南京市', 'area': '建邺区', 'street_id': '313fc6f29d296f251c389481', 'telephone': '17372762872,17712878087', 'detail': 1, 'uid': '313fc6f29d296f251c389481', 'detail_info': {'tag': '生活服务;宠物服务', 'navi_location': {'lng': 118.72175103074, 'lat': 32.012535315139}, 'type': 'life', 'detail_url': 'http://api.map.baidu.com/place/detail?uid=313fc6f29d296f251c389481&output=html&source=placeapi_v2', 'overall_rating': '4.8', 'image_num': '10', 'comment_num': '70', 'children': [], 'lat': 32.008621932929685, 'lng': 118.7099370124885}}"
"{'name': '艾贝尔宠物医院(奥体店)', 'location': {'lat': 32.020871142080516, 'lng': 118.72009162900356}, 'address': '兴隆大街196-4号', 'province': '江苏省', 'city': '南京市', 'area': '建邺区', 'street_id': 'cc6c4baa7412f9c675e5b68f', 'telephone': '(025)84614136', 'detail': 1, 'uid': 'cc6c4baa7412f9c675e5b68f', 'detail_info': {'tag': '生活服务;宠物服务', 'navi_location': {'lng': 118.73178137801, 'lat': 32.02440546521}, 'type': 'life', 'detail_url': 'http://api.map.baidu.com/place/detail?uid=cc6c4baa7412f9c675e5b68f&output=html&source=placeapi_v2', 'price': '855', 'overall_rating': '4.8', 'image_num': '15', 'comment_num': '30', 'children': [], 'lat': 32.020871142080516, 'lng': 118.72009162900356}}"
"{'name': '中国联通智慧生活馆', 'location': {'lat': 32.020685708685726, 'lng': 118.71893618878882}, 'address': '江苏省南京市建邺区兴隆大街203-7号', 'province': '江苏省', 'city': '南京市', 'area': '建邺区', 'street_id': '1e94446c16f5b0ff130daa52', 'telephone': '(025)66068576', 'detail': 1, 'uid': '1e94446c16f5b0ff130daa52', 'detail_info': {'tag': '生活服务;通讯营业厅', 'navi_location': {'lng': 118.73049448889, 'lat': 32.024689563237}, 'type': 'life', 'detail_url': 'http://api.map.baidu.com/place/detail?uid=1e94446c16f5b0ff130daa52&output=html&source=placeapi_v2', 'overall_rating': '1.8', 'image_num': '8', 'comment_num': '7', 'children': [], 'lat': 32.020685708685726, 'lng': 118.71893618878882}}"
"{'name': 'CY宠物', 'location': {'lat': 32.0254928850437, 'lng': 118.720967733032}, 'address': '建邺区乐山路111-20号', 'province': '江苏省', 'city': '南京市', 'area': '建邺区', 'street_id': '43cecdcd9906840980a00cec', 'telephone': '18652024811,15005150195', 'detail': 1, 'uid': '43cecdcd9906840980a00cec', 'detail_info': {'tag': '生活服务;宠物服务', 'type': 'life', 'detail_url': 'http://api.map.baidu.com/place/detail?uid=43cecdcd9906840980a00cec&output=html&source=placeapi_v2', 'overall_rating': '4.9', 'image_num': '9', 'comment_num': '55', 'children': [], 'lat': 32.0254928850437, 'lng': 118.720967733032}}"
"{'name': '艾米莉宠物医院', 'location': {'lat': 32.025441712940214, 'lng': 118.72069398090498}, 'address': '江苏省南京市建邺区乐山路111-24号(靠近应天高架)', 'province': '江苏省', 'city': '南京市', 'area': '建邺区', 'street_id': 'db22b8d53082a2e6d6851fa0', 'telephone': '15950587556', 'detail': 1, 'uid': 'db22b8d53082a2e6d6851fa0', 'detail_info': {'tag': '生活服务;宠物服务', 'navi_location': {'lng': 118.73239870074, 'lat': 32.029153014798}, 'type': 'life', 'detail_url': 'http://api.map.baidu.com/place/detail?uid=db22b8d53082a2e6d6851fa0&output=html&source=placeapi_v2', 'overall_rating': '5.0', 'image_num': '8', 'comment_num': '5', 'children': [], 'lat': 32.025441712940214, 'lng': 118.72069398090498}}"
"{'name': '南京萌宠派宠物生活馆(梦都大街店)', 'location': {'lat': 32.018589062704805, 'lng': 118.70958257031478}, 'address': '梦都大街184-1号', 'province': '江苏省', 'city': '南京市', 'area': '建邺区', 'street_id': '14739a120c401aa7eddfca29', 'detail': 1, 'uid': '967ec10b31f90ee22cb17e11', 'detail_info': {'tag': '生活服务;宠物服务', 'navi_location': {'lng': 118.72109453021, 'lat': 32.022068340589}, 'type': 'life', 'detail_url': 'http://api.map.baidu.com/place/detail?uid=967ec10b31f90ee22cb17e11&output=html&source=placeapi_v2', 'price': '225', 'overall_rating': '5.0', 'image_num': '10', 'comment_num': '4', 'children': [], 'lat': 32.018589062704805, 'lng': 118.70958257031478}}"
"{'name': '中国电信(兴隆大街营业厅)', 'location': {'lat': 32.02006268648799, 'lng': 118.72039565909873}, 'address': '江苏省南京市建邺区兴隆大街197-7号', 'province': '江苏省', 'city': '南京市', 'area': '建邺区', 'street_id': '2bd71e5fbca6e44841e19258', 'telephone': '(025)52413922', 'detail': 1, 'uid': '2bd71e5fbca6e44841e19258', 'detail_info': {'tag': '生活服务;通讯营业厅', 'navi_location': {'lng': 118.73229298725, 'lat': 32.024036869347}, 'type': 'life', 'detail_url': 'http://api.map.baidu.com/place/detail?uid=2bd71e5fbca6e44841e19258&output=html&source=placeapi_v2', 'overall_rating': '1.5', 'image_num': '14', 'comment_num': '5', 'children': [], 'lat': 32.02006268648799, 'lng': 118.72039565909873}}"
"{'name': '德邦快递(苏宁大市场店)', 'location': {'lat': 32.02721058451689, 'lng': 118.72619793403011}, 'address': '南京市建邺区燕山路118号苏宁大市场一号库', 'province': '江苏省', 'city': '南京市', 'area': '建邺区', 'street_id': 'eb66136d18b90f6bebe5829c', 'telephone': '95353', 'detail': 1, 'uid': 'eb66136d18b90f6bebe5829c', 'detail_info': {'tag': '生活服务;物流公司', 'navi_location': {'lng': 118.73798513156, 'lat': 32.031036617774}, 'type': 'life', 'detail_url': 'http://api.map.baidu.com/place/detail?uid=eb66136d18b90f6bebe5829c&output=html&source=placeapi_v2', 'overall_rating': '4.0', 'image_num': '15', 'comment_num': '4', 'children': [], 'lat': 32.02721058451689, 'lng': 118.72619793403011}}"
"{'name': '成畅图文', 'location': {'lat': 32.02228734070734, 'lng': 118.72425480502292}, 'address': '月安街33-5号', 'province': '江苏省', 'city': '南京市', 'area': '建邺区', 'street_id': 'c0046fb309a678b722f0171a', 'telephone': '(025)51877759', 'detail': 1, 'uid': 'c0046fb309a678b722f0171a', 'detail_info': {'tag': '生活服务;图文快印店', 'navi_location': {'lng': 118.73611555657, 'lat': 32.026161383709}, 'type': 'life', 'detail_url': 'http://api.map.baidu.com/place/detail?uid=c0046fb309a678b722f0171a&output=html&source=placeapi_v2', 'overall_rating': '2.9', 'image_num': '18', 'comment_num': '23', 'children': [], 'lat': 32.02228734070734, 'lng': 118.72425480502292}}"
"{'name': '爱康君安健疗(国际南京旗舰中心)', 'location': {'lat': 32.00808981376748, 'lng': 118.7035072741444}, 'address': '南京市建邺区扬子江大道266号', 'province': '江苏省', 'city': '南京市', 'area': '建邺区', 'street_id': '6b729979baa5599f96ca07cf', 'telephone': '(025)82280118', 'detail': 1, 'uid': '6b729979baa5599f96ca07cf', 'detail_info': {'tag': '医疗;体检机构', 'navi_location': {'lng': 118.71441377194, 'lat': 32.012118197194}, 'type': 'hospital', 'detail_url': 'http://api.map.baidu.com/place/detail?uid=6b729979baa5599f96ca07cf&output=html&source=placeapi_v2', 'overall_rating': '0.0', 'image_num': '0', 'children': [], 'lat': 32.00808981376748, 'lng': 118.7035072741444}}"
"{'name': '公共厕所(中央商场河西店)', 'location': {'lat': 32.00894305555514, 'lng': 118.72710130627641}, 'address': '江东中路237号中央商场河西店2楼', 'province': '江苏省', 'city': '南京市', 'area': '建邺区', 'street_id': '18f3edd0aaf21dc21b11d581', 'detail': 1, 'uid': '18f3edd0aaf21dc21b11d581', 'detail_info': {'tag': '生活服务;公共厕所', 'type': 'life', 'detail_url': 'http://api.map.baidu.com/place/detail?uid=18f3edd0aaf21dc21b11d581&output=html&source=placeapi_v2', 'overall_rating': '3.3', 'image_num': '3', 'comment_num': '1', 'children': [], 'lat': 32.00894305555514, 'lng': 118.72710130627641}}"
"{'name': '二度空间摄影工作室', 'location': {'lat': 32.02731088292848, 'lng': 118.72665749395635}, 'address': '燕山路118号', 'province': '江苏省', 'city': '南京市', 'area': '建邺区', 'street_id': '0faace334d0e2d2b725e80e4', 'telephone': '15380891051,13515121051', 'detail': 1, 'uid': '0faace334d0e2d2b725e80e4', 'detail_info': {'tag': '生活服务;照相馆', 'navi_location': {'lng': 118.73825154023, 'lat': 32.030808447719}, 'type': 'life', 'detail_url': 'http://api.map.baidu.com/place/detail?uid=0faace334d0e2d2b725e80e4&output=html&source=placeapi_v2', 'overall_rating': '5.0', 'image_num': '14', 'comment_num': '27', 'children': [], 'lat': 32.02731088292848, 'lng': 118.72665749395635}}"
"{'name': '江苏大剧院售票处', 'location': {'lat': 32.014048848557955, 'lng': 118.70938127785503}, 'address': '梦都大街181号', 'province': '江苏省', 'city': '南京市', 'area': '建邺区', 'street_id': 'e5a337829da9c37bbea240aa', 'telephone': '(025)85437777,(025)85438888', 'detail': 1, 'uid': 'e5a337829da9c37bbea240aa', 'detail_info': {'tag': '生活服务;售票处', 'type': 'life', 'detail_url': 'http://api.map.baidu.com/place/detail?uid=e5a337829da9c37bbea240aa&output=html&source=placeapi_v2', 'overall_rating': '5.0', 'image_num': '1', 'comment_num': '8', 'children': [], 'lat': 32.014048848557955, 'lng': 118.70938127785503}}"
"{'name': '公厕', 'location': {'lat': 32.02263050793095, 'lng': 118.71937596154449}, 'address': '南京市建邺区乐山路与月安街交叉路口往南约100米(中国石化)', 'province': '江苏省', 'city': '南京市', 'area': '建邺区', 'street_id': 'a2a0f77cc85e67e6b11e36d9', 'detail': 1, 'uid': 'a2a0f77cc85e67e6b11e36d9', 'detail_info': {'tag': '生活服务;公共厕所', 'navi_location': {'lng': 118.73096327411, 'lat': 32.026117548119}, 'type': 'life', 'detail_url': 'http://api.map.baidu.com/place/detail?uid=a2a0f77cc85e67e6b11e36d9&output=html&source=placeapi_v2', 'overall_rating': '0.0', 'image_num': '3', 'comment_num': '2', 'children': [], 'lat': 32.02263050793095, 'lng': 118.71937596154449}}"
"{'name': '思印达图文', 'location': {'lat': 32.01539374068003, 'lng': 118.71427411539973}, 'address': '兴隆街道乐山路150号妇女儿童活动中心南楼1楼(近一号线奥体站)', 'province': '江苏省', 'city': '南京市', 'area': '建邺区', 'street_id': '3e3c3c8e235456b0a1046456', 'telephone': '13222748061', 'detail': 1, 'uid': '3e3c3c8e235456b0a1046456', 'detail_info': {'tag': '生活服务;图文快印店', 'navi_location': {'lng': 118.72629163631, 'lat': 32.019236054133}, 'type': 'life', 'detail_url': 'http://api.map.baidu.com/place/detail?uid=3e3c3c8e235456b0a1046456&output=html&source=placeapi_v2', 'overall_rating': '4.7', 'image_num': '1', 'comment_num': '3', 'children': [], 'lat': 32.01539374068003, 'lng': 118.71427411539973}}"
"{'name': '公共厕所', 'location': {'lat': 32.00715393864782, 'lng': 118.71644140480225}, 'address': '南京市建邺区奥体大街与燕山路交叉口西100米', 'province': '江苏省', 'city': '南京市', 'area': '建邺区', 'street_id': '75d0881a2ad4ed4d3b04b1b2', 'detail': 1, 'uid': '75d0881a2ad4ed4d3b04b1b2', 'detail_info': {'tag': '生活服务;公共厕所', 'type': 'life', 'detail_url': 'http://api.map.baidu.com/place/detail?uid=75d0881a2ad4ed4d3b04b1b2&output=html&source=placeapi_v2', 'overall_rating': '0.0', 'image_num': '8', 'comment_num': '3', 'children': [], 'lat': 32.00715393864782, 'lng': 118.71644140480225}}"
"{'name': '圣安宠物医院(富春江西街)', 'location': {'lat': 32.00625009583226, 'lng': 118.71367080846144}, 'address': '江苏省南京市建邺区富春江西街28-18号', 'province': '江苏省', 'city': '南京市', 'area': '建邺区', 'street_id': 'cd173e760ccd973e6d47607e', 'telephone': '(025)87715727', 'detail': 1, 'uid': 'cd173e760ccd973e6d47607e', 'detail_info': {'tag': '生活服务;宠物服务', 'type': 'life', 'detail_url': 'http://api.map.baidu.com/place/detail?uid=cd173e760ccd973e6d47607e&output=html&source=placeapi_v2', 'overall_rating': '5.0', 'image_num': '30', 'comment_num': '7', 'children': [], 'lat': 32.00625009583226, 'lng': 118.71367080846144}}"
"{'name': '兴隆街道奥体社区', 'location': {'lat': 32.02064425019475, 'lng': 118.72157220268451}, 'address': '华山路18附近', 'province': '江苏省', 'city': '南京市', 'area': '建邺区', 'street_id': '237af1611d716fdb77026931', 'detail': 1, 'uid': '237af1611d716fdb77026931', 'detail_info': {'tag': '生活服务;其他', 'type': 'life', 'detail_url': 'http://api.map.baidu.com/place/detail?uid=237af1611d716fdb77026931&output=html&source=placeapi_v2', 'image_num': '1', 'children': [], 'lat': 32.02064425019475, 'lng': 118.72157220268451}}"
"{'name': '饮水处', 'location': {'lat': 32.01495952870185, 'lng': 118.70512399657655}, 'address': '南京市建邺区扬子江大道228号滨江公园内', 'province': '江苏省', 'city': '南京市', 'area': '建邺区', 'street_id': 'ef68a08205431cb6f60e7764', 'detail': 1, 'uid': 'ef68a08205431cb6f60e7764', 'detail_info': {'tag': '生活服务;其他', 'type': 'life', 'detail_url': 'http://api.map.baidu.com/place/detail?uid=ef68a08205431cb6f60e7764&output=html&source=placeapi_v2', 'image_num': '1', 'children': [], 'lat': 32.01495952870185, 'lng': 118.70512399657655}}"
"{'name': '洲岛家园邻里中心', 'location': {'lat': 32.02816310507394, 'lng': 118.69067426983752}, 'address': '南京市建邺区红星街(洲岛家园-绿洲苑)', 'province': '江苏省', 'city': '南京市', 'area': '建邺区', 'street_id': '49d26ee1bb53103c77026956', 'detail': 1, 'uid': '49d26ee1bb53103c77026956', 'detail_info': {'tag': '购物;其他', 'navi_location': {'lng': 118.70261766146, 'lat': 32.032553166664}, 'type': 'shopping', 'detail_url': 'http://api.map.baidu.com/place/detail?uid=49d26ee1bb53103c77026956&output=html&source=placeapi_v2', 'children': [], 'lat': 32.02816310507394, 'lng': 118.69067426983752}}"
"{'name': '顺丰速运(乐山路店)', 'location': {'lat': 32.0116595581337, 'lng': 118.7125966022944}, 'address': '江苏省南京市建邺区乐山路180号-北座-3层', 'province': '江苏省', 'city': '南京市', 'area': '建邺区', 'street_id': 'f71d2be0dbca7e142806ce3c', 'telephone': '95338', 'detail': 1, 'uid': 'f71d2be0dbca7e142806ce3c', 'detail_info': {'tag': '生活服务;物流公司', 'type': 'life', 'detail_url': 'http://api.map.baidu.com/place/detail?uid=f71d2be0dbca7e142806ce3c&output=html&source=placeapi_v2', 'overall_rating': '0.0', 'image_num': '1', 'comment_num': '0', 'children': [], 'lat': 32.0116595581337, 'lng': 118.7125966022944}}"
"{'name': '公厕', 'location': {'lat': 32.012703749161915, 'lng': 118.71984545718597}, 'address': '南京市建邺区江东中路222号南京奥林匹克体育中心网球中心内', 'province': '江苏省', 'city': '南京市', 'area': '建邺区', 'street_id': '3aac3ae3b7b0e66aafcb66b6', 'detail': 1, 'uid': '3aac3ae3b7b0e66aafcb66b6', 'detail_info': {'tag': '生活服务;公共厕所', 'type': 'life', 'detail_url': 'http://api.map.baidu.com/place/detail?uid=3aac3ae3b7b0e66aafcb66b6&output=html&source=placeapi_v2', 'overall_rating': '3.0', 'image_num': '2', 'comment_num': '2', 'children': [], 'lat': 32.012703749161915, 'lng': 118.71984545718597}}"
"{'name': '中铁十五局集团有限公司钢筋加工车间', 'location': {'lat': 32.025853391943016, 'lng': 118.71220886179037}, 'address': '南京市建邺区月安街与螺丝桥大街交叉路口往西约100米(奥体新城青桐园西北侧约200米)', 'province': '江苏省', 'city': '南京市', 'area': '建邺区', 'street_id': '9f7519d2fd1288731e5800aa', 'detail': 1, 'uid': '9f7519d2fd1288731e5800aa', 'detail_info': {'tag': '生活服务;其他', 'type': 'enterprise', 'detail_url': 'http://api.map.baidu.com/place/detail?uid=9f7519d2fd1288731e5800aa&output=html&source=placeapi_v2', 'children': [], 'lat': 32.025853391943016, 'lng': 118.71220886179037}}"
"{'name': '公厕', 'location': {'lat': 32.00937538085608, 'lng': 118.69566125574453}, 'address': '南京市建邺区洲秦路与民安路交叉路口往南约50米(南京市公安局建邺分局江心洲派出所南侧)', 'province': '江苏省', 'city': '南京市', 'area': '建邺区', 'street_id': 'c7fb04bd0a91d015fb0cadb2', 'detail': 1, 'uid': 'c7fb04bd0a91d015fb0cadb2', 'detail_info': {'tag': '生活服务;公共厕所', 'type': 'life', 'detail_url': 'http://api.map.baidu.com/place/detail?uid=c7fb04bd0a91d015fb0cadb2&output=html&source=placeapi_v2', 'image_num': '1', 'children': [], 'lat': 32.00937538085608, 'lng': 118.69566125574453}}"
"{'name': '来电(聚亿阁)', 'location': {'lat': 32.028871775391416, 'lng': 118.72635307890691}, 'address': '华山路99号贤雅苑1栋107室', 'province': '江苏省', 'city': '南京市', 'area': '建邺区', 'detail': 1, 'uid': '5ec4edb6851edf37b04c4995', 'detail_info': {'tag': '生活服务;其他', 'type': 'life', 'detail_url': 'http://api.map.baidu.com/place/detail?uid=5ec4edb6851edf37b04c4995&output=html&source=placeapi_v2', 'image_num': '1', 'children': [], 'lat': 32.028871775391416, 'lng': 118.72635307890691}}"
"{'name': '公共厕所', 'location': {'lat': 32.01356004480712, 'lng': 118.71310136577691}, 'address': '乐山路170号附近', 'province': '江苏省', 'city': '南京市', 'area': '建邺区', 'street_id': '609c16c744bb1034d518b7c6', 'detail': 1, 'uid': '609c16c744bb1034d518b7c6', 'detail_info': {'tag': '生活服务;公共厕所', 'type': 'life', 'detail_url': 'http://api.map.baidu.com/place/detail?uid=609c16c744bb1034d518b7c6&output=html&source=placeapi_v2', 'overall_rating': '3.8', 'image_num': '3', 'comment_num': '4', 'children': [], 'lat': 32.01356004480712, 'lng': 118.71310136577691}}"
"{'name': '双色球图文印刷中心(应天大街店)', 'location': {'lat': 32.02541321349187, 'lng': 118.72732010590238}, 'address': '应天大街926', 'province': '江苏省', 'city': '南京市', 'area': '建邺区', 'street_id': '8b4b815a9711c6bfe856fa37', 'telephone': '13057500088', 'detail': 1, 'uid': '8b4b815a9711c6bfe856fa37', 'detail_info': {'tag': '生活服务;图文快印店', 'navi_location': {'lng': 118.73907330651, 'lat': 32.029013584684}, 'type': 'life', 'detail_url': 'http://api.map.baidu.com/place/detail?uid=8b4b815a9711c6bfe856fa37&output=html&source=placeapi_v2', 'overall_rating': '2.9', 'image_num': '15', 'comment_num': '11', 'children': [], 'lat': 32.02541321349187, 'lng': 118.72732010590238}}"
"{'name': '公共厕所', 'location': {'lat': 32.03082333700206, 'lng': 118.72513017438351}, 'address': '南京市建邺区集庆门大街与华山路交叉路口往西南约100米(精金花园-北区东北侧)', 'province': '江苏省', 'city': '南京市', 'area': '建邺区', 'street_id': '891350e6b6467c084d2fdfeb', 'detail': 1, 'uid': '891350e6b6467c084d2fdfeb', 'detail_info': {'tag': '生活服务;公共厕所', 'type': 'life', 'detail_url': 'http://api.map.baidu.com/place/detail?uid=891350e6b6467c084d2fdfeb&output=html&source=placeapi_v2', 'image_num': '3', 'children': [], 'lat': 32.03082333700206, 'lng': 118.72513017438351}}"
"{'name': '中国移动(营业厅)', 'location': {'lat': 32.02258092828836, 'lng': 118.72715546469009}, 'address': '月安街24-5号', 'province': '江苏省', 'city': '南京市', 'area': '建邺区', 'street_id': '32315cad05d3f920901fc908', 'telephone': '13770558806', 'detail': 1, 'uid': '32315cad05d3f920901fc908', 'detail_info': {'tag': '生活服务;通讯营业厅', 'navi_location': {'lng': 118.73897911159, 'lat': 32.026181161288}, 'type': 'life', 'detail_url': 'http://api.map.baidu.com/place/detail?uid=32315cad05d3f920901fc908&output=html&source=placeapi_v2', 'overall_rating': '0.0', 'image_num': '11', 'comment_num': '1', 'children': [], 'lat': 32.02258092828836, 'lng': 118.72715546469009}}"
"{'name': '南京奥体中心-客服中心', 'location': {'lat': 32.00959106669886, 'lng': 118.7171091284546}, 'address': '江东中路222号奥体中心体育场1楼', 'province': '江苏省', 'city': '南京市', 'area': '建邺区', 'detail': 1, 'uid': 'b5597d6ef38b7884ab059dcd', 'detail_info': {'tag': '生活服务;其他', 'type': 'life', 'detail_url': 'http://api.map.baidu.com/place/detail?uid=b5597d6ef38b7884ab059dcd&output=html&source=placeapi_v2', 'image_num': '1', 'children': [], 'lat': 32.00959106669886, 'lng': 118.7171091284546}}"
"{'name': '怪兽充电(水月金陵足浴养生会所奥体店)', 'location': {'lat': 32.010607399878204, 'lng': 118.71229247718638}, 'address': '乐山路180号奥体中心站3号出口处', 'province': '江苏省', 'city': '南京市', 'area': '建邺区', 'detail': 1, 'uid': '38b9e129c76638b82a02e1b9', 'detail_info': {'tag': '生活服务;其他', 'type': 'life', 'detail_url': 'http://api.map.baidu.com/place/detail?uid=38b9e129c76638b82a02e1b9&output=html&source=placeapi_v2', 'image_num': '1', 'children': [], 'lat': 32.010607399878204, 'lng': 118.71229247718638}}"
"{'name': '中通快递(建邺五部)', 'location': {'lat': 32.02716205086967, 'lng': 118.72668254168856}, 'address': '南京市建邺区燕山路118号和悦储运仓库园内', 'province': '江苏省', 'city': '南京市', 'area': '建邺区', 'street_id': '822ab91bbf05bef72902e115', 'telephone': '18551975676', 'detail': 1, 'uid': '822ab91bbf05bef72902e115', 'detail_info': {'tag': '生活服务;物流公司', 'type': 'life', 'detail_url': 'http://api.map.baidu.com/place/detail?uid=822ab91bbf05bef72902e115&output=html&source=placeapi_v2', 'image_num': '12', 'children': [], 'lat': 32.02716205086967, 'lng': 118.72668254168856}}"
"{'name': '鼎盛宠物(梦都大街店)', 'location': {'lat': 32.01728217277807, 'lng': 118.71473887192414}, 'address': '梦都大街176-1号108室', 'province': '江苏省', 'city': '南京市', 'area': '建邺区', 'street_id': '5d46d98068457f0230169b63', 'telephone': '15094314772', 'detail': 1, 'uid': '5d46d98068457f0230169b63', 'detail_info': {'tag': '生活服务;宠物服务', 'navi_location': {'lng': 118.72639281605, 'lat': 32.020968116205}, 'type': 'life', 'detail_url': 'http://api.map.baidu.com/place/detail?uid=5d46d98068457f0230169b63&output=html&source=placeapi_v2', 'overall_rating': '5.0', 'image_num': '15', 'comment_num': '1', 'children': [], 'lat': 32.01728217277807, 'lng': 118.71473887192414}}"
"{'name': '大鼻子宠物', 'location': {'lat': 32.025230556128314, 'lng': 118.71530230726266}, 'address': '江苏省南京市建邺区月安街59-10号', 'province': '江苏省', 'city': '南京市', 'area': '建邺区', 'street_id': '9c4fc39345f653429d82ea58', 'telephone': '17712891693', 'detail': 1, 'uid': '9c4fc39345f653429d82ea58', 'detail_info': {'tag': '生活服务;宠物服务', 'navi_location': {'lng': 118.72704007841, 'lat': 32.02891751635}, 'type': 'life', 'detail_url': 'http://api.map.baidu.com/place/detail?uid=9c4fc39345f653429d82ea58&output=html&source=placeapi_v2', 'overall_rating': '5.0', 'image_num': '7', 'comment_num': '3', 'children': [], 'lat': 32.025230556128314, 'lng': 118.71530230726266}}"
"{'name': '南京奥体中心游泳馆总服务台', 'location': {'lat': 32.00908331104263, 'lng': 118.72055030496904}, 'address': '江苏省南京市建邺区兴隆街道江东中路222号南京奥体中心游泳馆总服务台', 'province': '江苏省', 'city': '南京市', 'area': '建邺区', 'detail': 1, 'uid': 'a2828e45fb8673c0593ac82b', 'detail_info': {'tag': '生活服务;其他', 'type': 'life', 'detail_url': 'http://api.map.baidu.com/place/detail?uid=a2828e45fb8673c0593ac82b&output=html&source=placeapi_v2', 'image_num': '1', 'children': [], 'lat': 32.00908331104263, 'lng': 118.72055030496904}}"
"{'name': '我爱我家(月安店)', 'location': {'lat': 32.02241785373349, 'lng': 118.72314085113955}, 'address': '月安街35-8号', 'province': '江苏省', 'city': '南京市', 'area': '建邺区', 'street_id': 'e5f7cb8a8ac01278260bd0b7', 'telephone': '(025)51877905', 'detail': 1, 'uid': 'e5f7cb8a8ac01278260bd0b7', 'detail_info': {'tag': '生活服务;房产中介机构', 'type': 'life', 'detail_url': 'http://api.map.baidu.com/place/detail?uid=e5f7cb8a8ac01278260bd0b7&output=html&source=placeapi_v2', 'overall_rating': '0.0', 'image_num': '13', 'comment_num': '1', 'children': [], 'lat': 32.02241785373349, 'lng': 118.72314085113955}}"
"{'name': '礼品回收(兴隆大街店)', 'location': {'lat': 32.01894311872321, 'lng': 118.72373044585459}, 'address': '兴隆大街171-4号', 'province': '江苏省', 'city': '南京市', 'area': '建邺区', 'street_id': '5f3bac3ca6f6137a3a04b1f0', 'detail': 1, 'uid': '5f3bac3ca6f6137a3a04b1f0', 'detail_info': {'tag': '生活服务;其他', 'type': 'life', 'detail_url': 'http://api.map.baidu.com/place/detail?uid=5f3bac3ca6f6137a3a04b1f0&output=html&source=placeapi_v2', 'children': [], 'lat': 32.01894311872321, 'lng': 118.72373044585459}}"
"{'name': '公用电话', 'location': {'lat': 32.029853630608144, 'lng': 118.71943214940184}, 'address': '江苏省南京市建邺区河北大街7附近', 'province': '江苏省', 'city': '南京市', 'area': '建邺区', 'detail': 1, 'uid': 'a75c1bb8e8452d15210262d4', 'detail_info': {'tag': '生活服务;其他', 'type': 'life', 'detail_url': 'http://api.map.baidu.com/place/detail?uid=a75c1bb8e8452d15210262d4&output=html&source=placeapi_v2', 'image_num': '1', 'children': [], 'lat': 32.029853630608144, 'lng': 118.71943214940184}}"
"{'name': '洁丹妮干洗店(兴隆大街店)', 'location': {'lat': 32.02042136747297, 'lng': 118.72003213858233}, 'address': '兴隆大街201-1号', 'province': '江苏省', 'city': '南京市', 'area': '建邺区', 'street_id': 'e2995ba8890d887887330417', 'detail': 1, 'uid': 'e2995ba8890d887887330417', 'detail_info': {'tag': '生活服务;洗衣店', 'type': 'life', 'detail_url': 'http://api.map.baidu.com/place/detail?uid=e2995ba8890d887887330417&output=html&source=placeapi_v2', 'overall_rating': '4.0', 'image_num': '7', 'comment_num': '3', 'children': [], 'lat': 32.02042136747297, 'lng': 118.72003213858233}}"
"{'name': '公共厕所', 'location': {'lat': 32.02251088929434, 'lng': 118.7082550477011}, 'address': '兴隆大街229号中华中学上新河初级中学附近', 'province': '江苏省', 'city': '南京市', 'area': '建邺区', 'street_id': 'f4a6453d9e6c720c1e580042', 'detail': 1, 'uid': 'f4a6453d9e6c720c1e580042', 'detail_info': {'tag': '生活服务;公共厕所', 'navi_location': {'lng': 118.71965840919, 'lat': 32.026491978184}, 'type': 'life', 'detail_url': 'http://api.map.baidu.com/place/detail?uid=f4a6453d9e6c720c1e580042&output=html&source=placeapi_v2', 'overall_rating': '0.0', 'image_num': '8', 'comment_num': '2', 'children': [], 'lat': 32.02251088929434, 'lng': 118.7082550477011}}"
"{'name': '卡柏洗衣(松花江西街店)', 'location': {'lat': 32.01997480212507, 'lng': 118.71314298076446}, 'address': '松花江西街65号6室滨江奥城北门', 'province': '江苏省', 'city': '南京市', 'area': '建邺区', 'street_id': '4f6ec31c069170148d77271e', 'telephone': '(025)86697477', 'detail': 1, 'uid': '4f6ec31c069170148d77271e', 'detail_info': {'tag': '生活服务;洗衣店', 'type': 'life', 'detail_url': 'http://api.map.baidu.com/place/detail?uid=4f6ec31c069170148d77271e&output=html&source=placeapi_v2', 'overall_rating': '5.0', 'image_num': '13', 'comment_num': '2', 'children': [], 'lat': 32.01997480212507, 'lng': 118.71314298076446}}"
"{'name': '遇见爱猫', 'location': {'lat': 32.00929228441466, 'lng': 118.71060286364266}, 'address': '奥体大街199号金马郦城4-132号', 'province': '江苏省', 'city': '南京市', 'area': '建邺区', 'telephone': '13585170283', 'detail': 1, 'uid': '279f18ac46cc9cd381a00caf', 'detail_info': {'tag': '购物;商铺', 'type': 'shopping', 'detail_url': 'http://api.map.baidu.com/place/detail?uid=279f18ac46cc9cd381a00caf&output=html&source=placeapi_v2', 'overall_rating': '5.0', 'comment_num': '5', 'children': [], 'lat': 32.00929228441466, 'lng': 118.71060286364266}}"
"{'name': '绿博园儿童游乐场-售票处', 'location': {'lat': 32.02835223721479, 'lng': 118.70617137785145}, 'address': '南京市建邺区扬子江大道228号滨江公园南京中国绿化博览园绿博园儿童游乐场内', 'province': '江苏省', 'city': '南京市', 'area': '建邺区', 'street_id': '28ae127710fedcc7df1e5216', 'detail': 1, 'uid': '28ae127710fedcc7df1e5216', 'detail_info': {'tag': '生活服务;售票处', 'navi_location': {'lng': 118.7197381859, 'lat': 32.028915891244}, 'type': 'life', 'detail_url': 'http://api.map.baidu.com/place/detail?uid=28ae127710fedcc7df1e5216&output=html&source=placeapi_v2', 'overall_rating': '5.0', 'image_num': '1', 'comment_num': '1', 'children': [], 'lat': 32.02835223721479, 'lng': 118.70617137785145}}"
"{'name': '麦当劳(南京苍山路店)-洗手间', 'location': {'lat': 32.02182151030709, 'lng': 118.71606734306518}, 'address': '兴隆大街209号', 'province': '江苏省', 'city': '南京市', 'area': '建邺区', 'street_id': '6b6a47dfbeec921b95ec84f1', 'detail': 1, 'uid': '6b6a47dfbeec921b95ec84f1', 'detail_info': {'tag': '生活服务;公共厕所', 'navi_location': {'lng': 118.72769010307, 'lat': 32.025520084598}, 'type': 'life', 'detail_url': 'http://api.map.baidu.com/place/detail?uid=6b6a47dfbeec921b95ec84f1&output=html&source=placeapi_v2', 'image_num': '1', 'children': [], 'lat': 32.02182151030709, 'lng': 118.71606734306518}}"
"{'name': '淑媛荟', 'location': {'lat': 32.008209022597924, 'lng': 118.70345960788104}, 'address': '扬子江大道266-1号', 'province': '江苏省', 'city': '南京市', 'area': '建邺区', 'street_id': '41f3494eab0738bf1ce99962', 'telephone': '15895817525', 'detail': 1, 'uid': '41f3494eab0738bf1ce99962', 'detail_info': {'tag': '休闲娱乐;其他', 'type': 'life', 'detail_url': 'http://api.map.baidu.com/place/detail?uid=41f3494eab0738bf1ce99962&output=html&source=placeapi_v2', 'image_num': '1', 'children': [], 'lat': 32.008209022597924, 'lng': 118.70345960788104}}"
"{'name': '公共厕所', 'location': {'lat': 32.025285382040174, 'lng': 118.72457069830925}, 'address': '江苏省南京市建邺区应天大街942西南100米', 'province': '江苏省', 'city': '南京市', 'area': '建邺区', 'detail': 1, 'uid': '2964fd96a2466b8adbd891c7', 'detail_info': {'tag': '生活服务;公共厕所', 'type': 'life', 'detail_url': 'http://api.map.baidu.com/place/detail?uid=2964fd96a2466b8adbd891c7&output=html&source=placeapi_v2', 'overall_rating': '0.0', 'image_num': '2', 'comment_num': '1', 'children': [], 'lat': 32.025285382040174, 'lng': 118.72457069830925}}"
"{'name': '卫生间', 'location': {'lat': 32.013783912332606, 'lng': 118.71967708764801}, 'address': '南京市建邺区梦都大街与华山路交叉路口东南侧(南京奥林匹克体育中心)', 'province': '江苏省', 'city': '南京市', 'area': '建邺区', 'street_id': 'c370b8930c41b9729c09f78c', 'detail': 1, 'uid': 'c370b8930c41b9729c09f78c', 'detail_info': {'tag': '生活服务;公共厕所', 'type': 'life', 'detail_url': 'http://api.map.baidu.com/place/detail?uid=c370b8930c41b9729c09f78c&output=html&source=placeapi_v2', 'image_num': '1', 'children': [], 'lat': 32.013783912332606, 'lng': 118.71967708764801}}"
"{'name': '公厕', 'location': {'lat': 32.014888219448906, 'lng': 118.7174647827479}, 'address': '南京市建邺区江东中路222号南京奥林匹克体育中心内', 'province': '江苏省', 'city': '南京市', 'area': '建邺区', 'street_id': 'fe863eadf7971fe507fef5c8', 'detail': 1, 'uid': 'fe863eadf7971fe507fef5c8', 'detail_info': {'tag': '生活服务;公共厕所', 'navi_location': {'lng': 118.72896907631, 'lat': 32.018439036427}, 'type': 'life', 'detail_url': 'http://api.map.baidu.com/place/detail?uid=fe863eadf7971fe507fef5c8&output=html&source=placeapi_v2', 'overall_rating': '0.0', 'image_num': '2', 'comment_num': '2', 'children': [], 'lat': 32.014888219448906, 'lng': 118.7174647827479}}"
"{'name': '秀派宠物会所(金马郦城店)', 'location': {'lat': 32.00931640229782, 'lng': 118.71013183075256}, 'address': '江苏省南京市建邺区奥体大街199号金马郦城3幢112', 'province': '江苏省', 'city': '南京市', 'area': '建邺区', 'street_id': 'fc9b91b723125e0c4107c1af', 'telephone': '(025)57720300', 'detail': 1, 'uid': 'fc9b91b723125e0c4107c1af', 'detail_info': {'tag': '生活服务;宠物服务', 'type': 'life', 'detail_url': 'http://api.map.baidu.com/place/detail?uid=fc9b91b723125e0c4107c1af&output=html&source=placeapi_v2', 'overall_rating': '5.0', 'image_num': '15', 'comment_num': '2', 'children': [], 'lat': 32.00931640229782, 'lng': 118.71013183075256}}"
"{'name': '街电(恩禧美甲彩妆金马郦城西)', 'location': {'lat': 32.00897516912793, 'lng': 118.71054122917259}, 'address': '奥体大街199号金马郦城5幢107室', 'province': '江苏省', 'city': '南京市', 'area': '建邺区', 'detail': 1, 'uid': '2d2a7e740677b80b82a00c13', 'detail_info': {'tag': '生活服务;其他', 'type': 'life', 'detail_url': 'http://api.map.baidu.com/place/detail?uid=2d2a7e740677b80b82a00c13&output=html&source=placeapi_v2', 'image_num': '1', 'children': [], 'lat': 32.00897516912793, 'lng': 118.71054122917259}}"
"{'name': '公共厕所', 'location': {'lat': 32.02888927340483, 'lng': 118.70113559194596}, 'address': '林荫路东100米', 'province': '江苏省', 'city': '南京市', 'area': '建邺区', 'detail': 1, 'uid': '7e1fbf7ad49178d7d0ff2371', 'detail_info': {'tag': '生活服务;公共厕所', 'type': 'life', 'detail_url': 'http://api.map.baidu.com/place/detail?uid=7e1fbf7ad49178d7d0ff2371&output=html&source=placeapi_v2', 'overall_rating': '0.0', 'image_num': '3', 'comment_num': '1', 'children': [], 'lat': 32.02888927340483, 'lng': 118.70113559194596}}"
"{'name': '中央商场-扶梯', 'location': {'lat': 32.009240980074054, 'lng': 118.7270773957093}, 'address': '南京市建邺区江东中路270号中央商场F3', 'province': '江苏省', 'city': '南京市', 'area': '建邺区', 'street_id': '7cdb8e5aab920a49a2d23061', 'detail': 1, 'uid': '7cdb8e5aab920a49a2d23061', 'detail_info': {'tag': '生活服务;其他', 'indoor_floor': 'F3', 'type': 'life', 'detail_url': 'http://api.map.baidu.com/place/detail?uid=7cdb8e5aab920a49a2d23061&output=html&source=placeapi_v2', 'image_num': '1', 'children': [], 'lat': 32.009240980074054, 'lng': 118.7270773957093}}"
"{'name': '应急掩蔽场所(滨江·奥城听雨苑南)', 'location': {'lat': 32.01815500151644, 'lng': 118.71342513458991}, 'address': '梦都大街与苍山路交叉口东北150米', 'province': '江苏省', 'city': '南京市', 'area': '建邺区', 'detail': 1, 'uid': '11f80e4147d1341a3d9a5ee4', 'detail_info': {'tag': '生活服务;其他', 'type': 'life', 'detail_url': 'http://api.map.baidu.com/place/detail?uid=11f80e4147d1341a3d9a5ee4&output=html&source=placeapi_v2', 'image_num': '1', 'children': [], 'lat': 32.01815500151644, 'lng': 118.71342513458991}}"
"{'name': '南京市建邺区苏服老年人服务中心', 'location': {'lat': 32.02047613874231, 'lng': 118.7221170143881}, 'address': '兴隆大街175-2号', 'province': '江苏省', 'city': '南京市', 'area': '建邺区', 'telephone': '(025)83357390', 'detail': 1, 'uid': '53bfdb31e6bb7acd09b93aab', 'detail_info': {'tag': '生活服务;其他', 'type': 'life', 'detail_url': 'http://api.map.baidu.com/place/detail?uid=53bfdb31e6bb7acd09b93aab&output=html&source=placeapi_v2', 'image_num': '1', 'children': [], 'lat': 32.02047613874231, 'lng': 118.7221170143881}}"
"{'name': '街电(二少爷龙虾私房菜奥体中心旗舰店)', 'location': {'lat': 32.00994755479027, 'lng': 118.72160374793027}, 'address': '南京市建邺区江东中路222号奥体中心46号柱', 'province': '江苏省', 'city': '南京市', 'area': '建邺区', 'detail': 1, 'uid': '44df499b911eef6479b55ce6', 'detail_info': {'tag': '生活服务;其他', 'type': 'life', 'detail_url': 'http://api.map.baidu.com/place/detail?uid=44df499b911eef6479b55ce6&output=html&source=placeapi_v2', 'image_num': '1', 'children': [], 'lat': 32.00994755479027, 'lng': 118.72160374793027}}"
"{'name': '街电(长颈鹿美语奥体中心校区)', 'location': {'lat': 32.01150243508164, 'lng': 118.71277852046592}, 'address': '乐山路180号3楼(地铁10号线奥体中心站4号出口)', 'province': '江苏省', 'city': '南京市', 'area': '建邺区', 'detail': 1, 'uid': '75d9f68374eef4595d0d0279', 'detail_info': {'tag': '生活服务;其他', 'type': 'life', 'detail_url': 'http://api.map.baidu.com/place/detail?uid=75d9f68374eef4595d0d0279&output=html&source=placeapi_v2', 'image_num': '1', 'children': [], 'lat': 32.01150243508164, 'lng': 118.71277852046592}}"
"{'name': '怪兽充电(王师傅私房牛肉面奥体中心总店)', 'location': {'lat': 32.01036885698221, 'lng': 118.72171229714155}, 'address': '江东中路222号(奥体中心34号柱)', 'province': '江苏省', 'city': '南京市', 'area': '建邺区', 'detail': 1, 'uid': 'e0a339cd4cd4d7504f6d46be', 'detail_info': {'tag': '生活服务;其他', 'detail_url': 'http://api.map.baidu.com/place/detail?uid=e0a339cd4cd4d7504f6d46be&output=html&source=placeapi_v2', 'children': [], 'lat': 32.01036885698221, 'lng': 118.72171229714155}}"
"{'name': '梵梦映像摄影工作室', 'location': {'lat': 32.00995400910626, 'lng': 118.70845062518755}, 'address': '奥体大街金马郦城C区34栋2单元1楼', 'province': '江苏省', 'city': '南京市', 'area': '建邺区', 'detail': 1, 'uid': 'fbbe66118993d39ea1a9348a', 'detail_info': {'tag': '生活服务;照相馆', 'type': 'life', 'detail_url': 'http://api.map.baidu.com/place/detail?uid=fbbe66118993d39ea1a9348a&output=html&source=placeapi_v2', 'overall_rating': '5.0', 'image_num': '1', 'comment_num': '2', 'children': [], 'lat': 32.00995400910626, 'lng': 118.70845062518755}}"
"{'name': '公共厕所', 'location': {'lat': 32.027559669571076, 'lng': 118.69030487280052}, 'address': '南京市建邺区红星街(洲岛家园-绿洲苑)', 'province': '江苏省', 'city': '南京市', 'area': '建邺区', 'detail': 1, 'uid': 'f96095132ed4ebfba1acc4df', 'detail_info': {'tag': '生活服务;公共厕所', 'type': 'life', 'detail_url': 'http://api.map.baidu.com/place/detail?uid=f96095132ed4ebfba1acc4df&output=html&source=placeapi_v2', 'image_num': '1', 'children': [], 'lat': 32.027559669571076, 'lng': 118.69030487280052}}"
"{'name': '饮水处', 'location': {'lat': 32.02021387025434, 'lng': 118.70126883659367}, 'address': '南京市建邺区扬子江大道228号滨江公园南京中国绿化博览园荷兰园内', 'province': '江苏省', 'city': '南京市', 'area': '建邺区', 'detail': 1, 'uid': 'a1fcc943a52a5a350482c2d4', 'detail_info': {'tag': '生活服务;其他', 'type': 'life', 'detail_url': 'http://api.map.baidu.com/place/detail?uid=a1fcc943a52a5a350482c2d4&output=html&source=placeapi_v2', 'image_num': '1', 'children': [], 'lat': 32.02021387025434, 'lng': 118.70126883659367}}"
"{'name': '公用电话', 'location': {'lat': 32.01023550653204, 'lng': 118.71362453748665}, 'address': '南京市建邺区江东中路222号南京奥林匹克体育中心内', 'province': '江苏省', 'city': '南京市', 'area': '建邺区', 'street_id': '2114aa1c9236ec112bb97cda', 'detail': 1, 'uid': '2114aa1c9236ec112bb97cda', 'detail_info': {'tag': '生活服务;其他', 'navi_location': {'lng': 118.72542322281, 'lat': 32.013979701724}, 'type': 'life', 'detail_url': 'http://api.map.baidu.com/place/detail?uid=2114aa1c9236ec112bb97cda&output=html&source=placeapi_v2', 'image_num': '1', 'children': [], 'lat': 32.01023550653204, 'lng': 118.71362453748665}}"
"{'name': '美团专送', 'location': {'lat': 32.008675740933214, 'lng': 118.70857176933855}, 'address': '金马郦城17栋', 'province': '江苏省', 'city': '南京市', 'area': '建邺区', 'detail': 1, 'uid': 'ee17cad80c7ea0536c4760eb', 'detail_info': {'tag': '生活服务;其他', 'type': 'life', 'detail_url': 'http://api.map.baidu.com/place/detail?uid=ee17cad80c7ea0536c4760eb&output=html&source=placeapi_v2', 'image_num': '5', 'children': [], 'lat': 32.008675740933214, 'lng': 118.70857176933855}}"
"{'name': '中央商场-直梯(货梯)', 'location': {'lat': 32.0086237485925, 'lng': 118.72691878728936}, 'address': '南京市建邺区江东中路270号中央商场F1', 'province': '江苏省', 'city': '南京市', 'area': '建邺区', 'street_id': '86b6a33a72c50803f219374c', 'detail': 1, 'uid': '86b6a33a72c50803f219374c', 'detail_info': {'tag': '生活服务;其他', 'indoor_floor': 'F1', 'type': 'life', 'detail_url': 'http://api.map.baidu.com/place/detail?uid=86b6a33a72c50803f219374c&output=html&source=placeapi_v2', 'image_num': '1', 'children': [], 'lat': 32.0086237485925, 'lng': 118.72691878728936}}"
"{'name': '公共厕所', 'location': {'lat': 32.013716906118994, 'lng': 118.70215517524254}, 'address': '南京市建邺区太阳宫路(南京中国绿化博览园南侧)', 'province': '江苏省', 'city': '南京市', 'area': '建邺区', 'detail': 1, 'uid': 'ceeb6d3f96eaf9feb75f1e74', 'detail_info': {'tag': '生活服务;公共厕所', 'type': 'life', 'detail_url': 'http://api.map.baidu.com/place/detail?uid=ceeb6d3f96eaf9feb75f1e74&output=html&source=placeapi_v2', 'overall_rating': '0.0', 'image_num': '1', 'comment_num': '1', 'children': [], 'lat': 32.013716906118994, 'lng': 118.70215517524254}}"
"{'name': 'a4厅不动产交易中心', 'location': {'lat': 32.00693087177751, 'lng': 118.7258925893886}, 'address': '河西中央商务区江东中路265号南京市政务服务中心a4厅不动产交易中心', 'province': '江苏省', 'city': '南京市', 'area': '建邺区', 'detail': 1, 'uid': '7b5b262c96d95cf50782c2d8', 'detail_info': {'tag': '生活服务;房产中介机构', 'type': 'life', 'detail_url': 'http://api.map.baidu.com/place/detail?uid=7b5b262c96d95cf50782c2d8&output=html&source=placeapi_v2', 'image_num': '1', 'children': [], 'lat': 32.00693087177751, 'lng': 118.7258925893886}}"
"{'name': '公共厕所', 'location': {'lat': 32.028578549473885, 'lng': 118.70908813971344}, 'address': '南京市建邺区扬子江大道与应天大街交叉路口往北约150米(南京中国绿化博览园)', 'province': '江苏省', 'city': '南京市', 'area': '建邺区', 'detail': 1, 'uid': 'f5d4c9ac5761ea62fd0eb09c', 'detail_info': {'tag': '生活服务;公共厕所', 'type': 'life', 'detail_url': 'http://api.map.baidu.com/place/detail?uid=f5d4c9ac5761ea62fd0eb09c&output=html&source=placeapi_v2', 'overall_rating': '0.0', 'image_num': '2', 'comment_num': '2', 'children': [], 'lat': 32.028578549473885, 'lng': 118.70908813971344}}"
"{'name': '怪兽充电(大鹏饭店奥体店)', 'location': {'lat': 32.01436167009363, 'lng': 118.72334735525094}, 'address': '梦都大街132-7号', 'province': '江苏省', 'city': '南京市', 'area': '建邺区', 'detail': 1, 'uid': 'f0a50fd59bea70d4fbdc8558', 'detail_info': {'tag': '生活服务;其他', 'type': 'life', 'detail_url': 'http://api.map.baidu.com/place/detail?uid=f0a50fd59bea70d4fbdc8558&output=html&source=placeapi_v2', 'image_num': '1', 'children': [], 'lat': 32.01436167009363, 'lng': 118.72334735525094}}"
"{'name': '街电(夜上海当季海鲜江岛新天地店)', 'location': {'lat': 32.02867791459416, 'lng': 118.70129173175687}, 'address': '江心洲环岛东路江岛新天地99号', 'province': '江苏省', 'city': '南京市', 'area': '建邺区', 'detail': 1, 'uid': '1c6b570e76a58ca4eb1e9764', 'detail_info': {'tag': '生活服务;其他', 'type': 'life', 'detail_url': 'http://api.map.baidu.com/place/detail?uid=1c6b570e76a58ca4eb1e9764&output=html&source=placeapi_v2', 'image_num': '1', 'children': [], 'lat': 32.02867791459416, 'lng': 118.70129173175687}}"
"{'name': '奥体铭座电信营业厅', 'location': {'lat': 32.01098819910084, 'lng': 118.71723647644099}, 'address': '江苏省南京市建邺区河西中央商务区城区江东中路303号奥体铭座电信营业厅', 'province': '江苏省', 'city': '南京市', 'area': '建邺区', 'detail': 1, 'uid': 'b844b09b19f7e780deee8bf1', 'detail_info': {'tag': '生活服务;通讯营业厅', 'type': 'life', 'detail_url': 'http://api.map.baidu.com/place/detail?uid=b844b09b19f7e780deee8bf1&output=html&source=placeapi_v2', 'image_num': '1', 'children': [], 'lat': 32.01098819910084, 'lng': 118.71723647644099}}"
"{'name': '中通快递(紫鑫商务花园东南)', 'location': {'lat': 32.013684619729716, 'lng': 118.72489790736523}, 'address': '梦都大街132号紫鑫商务花园102室', 'province': '江苏省', 'city': '南京市', 'area': '建邺区', 'street_id': 'c4fdfbd7c6a39f7400ff2d25', 'telephone': '95311', 'detail': 1, 'uid': 'c4fdfbd7c6a39f7400ff2d25', 'detail_info': {'tag': '生活服务;物流公司', 'type': 'life', 'detail_url': 'http://api.map.baidu.com/place/detail?uid=c4fdfbd7c6a39f7400ff2d25&output=html&source=placeapi_v2', 'overall_rating': '1.0', 'image_num': '1', 'comment_num': '1', 'children': [], 'lat': 32.013684619729716, 'lng': 118.72489790736523}}"
"{'name': '街电(春语医疗美容诊所)', 'location': {'lat': 32.01965741351913, 'lng': 118.72333261090489}, 'address': '兴隆大街170-9号', 'province': '江苏省', 'city': '南京市', 'area': '建邺区', 'detail': 1, 'uid': '6f146eb5a24fc3e92902e1c1', 'detail_info': {'tag': '生活服务;其他', 'type': 'life', 'detail_url': 'http://api.map.baidu.com/place/detail?uid=6f146eb5a24fc3e92902e1c1&output=html&source=placeapi_v2', 'image_num': '1', 'children': [], 'lat': 32.01965741351913, 'lng': 118.72333261090489}}"
"{'name': '江苏有线南京分公司(奥体服务站)', 'location': {'lat': 32.00860030252485, 'lng': 118.70813956804844}, 'address': '奥体大街199号金马骊城小区24栋', 'province': '江苏省', 'city': '南京市', 'area': '建邺区', 'street_id': '974683d57b8b3d4c047ce8f1', 'detail': 1, 'uid': '974683d57b8b3d4c047ce8f1', 'detail_info': {'tag': '政府机构;行政单位', 'navi_location': {'lng': 118.71982519038, 'lat': 32.012361458821}, 'type': 'life', 'detail_url': 'http://api.map.baidu.com/place/detail?uid=974683d57b8b3d4c047ce8f1&output=html&source=placeapi_v2', 'image_num': '8', 'children': [], 'lat': 32.00860030252485, 'lng': 118.70813956804844}}"
"{'name': '链家(滨江奥城店)', 'location': {'lat': 32.01980614369358, 'lng': 118.71361031008544}, 'address': '建邺区松花江西街65-1号', 'province': '江苏省', 'city': '南京市', 'area': '建邺区', 'street_id': '718d87dec2e548134f3a59f9', 'detail': 1, 'uid': '718d87dec2e548134f3a59f9', 'detail_info': {'tag': '生活服务;房产中介机构', 'type': 'life', 'detail_url': 'http://api.map.baidu.com/place/detail?uid=718d87dec2e548134f3a59f9&output=html&source=placeapi_v2', 'overall_rating': '4.0', 'image_num': '12', 'comment_num': '1', 'children': [], 'lat': 32.01980614369358, 'lng': 118.71361031008544}}"
"{'name': '怪兽充电(九客原味)', 'location': {'lat': 32.02250033697644, 'lng': 118.72706675914496}, 'address': '月安生活广场二楼', 'province': '江苏省', 'city': '南京市', 'area': '建邺区', 'detail': 1, 'uid': '7503771eba45e8d246572636', 'detail_info': {'tag': '生活服务;其他', 'type': 'life', 'detail_url': 'http://api.map.baidu.com/place/detail?uid=7503771eba45e8d246572636&output=html&source=placeapi_v2', 'image_num': '1', 'children': [], 'lat': 32.02250033697644, 'lng': 118.72706675914496}}"
"{'name': '物业客服中心', 'location': {'lat': 32.01724834573531, 'lng': 118.72388953212236}, 'address': '南京市建邺区兴隆街道兴隆大街169号奥体新城丹枫园4栋103室或7栋物业客服中心', 'province': '江苏省', 'city': '南京市', 'area': '建邺区', 'detail': 1, 'uid': '95847f0dca93ccfc130daafe', 'detail_info': {'tag': '生活服务;其他', 'type': 'life', 'detail_url': 'http://api.map.baidu.com/place/detail?uid=95847f0dca93ccfc130daafe&output=html&source=placeapi_v2', 'image_num': '1', 'children': [], 'lat': 32.01724834573531, 'lng': 118.72388953212236}}"
"{'name': '石城宠物', 'location': {'lat': 32.02875776991833, 'lng': 118.72621558948201}, 'address': '华山路99号积贤雅苑1栋104', 'province': '江苏省', 'city': '南京市', 'area': '建邺区', 'telephone': '(025)86702118', 'detail': 1, 'uid': '5eb1559e88b076d741e1924a', 'detail_info': {'tag': '生活服务;宠物服务', 'type': 'life', 'detail_url': 'http://api.map.baidu.com/place/detail?uid=5eb1559e88b076d741e1924a&output=html&source=placeapi_v2', 'image_num': '2', 'children': [], 'lat': 32.02875776991833, 'lng': 118.72621558948201}}"
"{'name': '王祥房产(兴隆大街店)', 'location': {'lat': 32.01887598570316, 'lng': 118.72393173650356}, 'address': '南京市兴隆大街171-2号', 'province': '江苏省', 'city': '南京市', 'area': '建邺区', 'street_id': 'cad2167380944a85bfa82225', 'detail': 1, 'uid': 'cad2167380944a85bfa82225', 'detail_info': {'tag': '生活服务;房产中介机构', 'type': 'life', 'detail_url': 'http://api.map.baidu.com/place/detail?uid=cad2167380944a85bfa82225&output=html&source=placeapi_v2', 'image_num': '12', 'children': [], 'lat': 32.01887598570316, 'lng': 118.72393173650356}}"
"{'name': '紧急避难场所(红星街店)', 'location': {'lat': 32.02667473386914, 'lng': 118.69153852171708}, 'address': '中新大道与红星街交叉口东南150米', 'province': '江苏省', 'city': '南京市', 'area': '建邺区', 'detail': 1, 'uid': '9534c386e1259ef62cb908ce', 'detail_info': {'tag': '生活服务;其他', 'type': 'life', 'detail_url': 'http://api.map.baidu.com/place/detail?uid=9534c386e1259ef62cb908ce&output=html&source=placeapi_v2', 'image_num': '1', 'children': [], 'lat': 32.02667473386914, 'lng': 118.69153852171708}}"
"{'name': '悦江苑客服中心', 'location': {'lat': 32.02705619227925, 'lng': 118.68992342599792}, 'address': '江心洲红星路90号洲岛家园附近', 'province': '江苏省', 'city': '南京市', 'area': '建邺区', 'detail': 1, 'uid': 'b7ab8e60c21394a533621229', 'detail_info': {'tag': '生活服务;其他', 'type': 'life', 'detail_url': 'http://api.map.baidu.com/place/detail?uid=b7ab8e60c21394a533621229&output=html&source=placeapi_v2', 'image_num': '1', 'children': [], 'lat': 32.02705619227925, 'lng': 118.68992342599792}}"
"{'name': '链家地产(金马郦城店)', 'location': {'lat': 32.00889481491885, 'lng': 118.71052134780228}, 'address': '建邺区奥体大街199号金马郦城5幢110室', 'province': '江苏省', 'city': '南京市', 'area': '建邺区', 'detail': 1, 'uid': '07e178d4186966146cc02c92', 'detail_info': {'tag': '生活服务;房产中介机构', 'navi_location': {'lng': 118.72204417567, 'lat': 32.012823598896}, 'type': 'life', 'detail_url': 'http://api.map.baidu.com/place/detail?uid=07e178d4186966146cc02c92&output=html&source=placeapi_v2', 'overall_rating': '5.0', 'image_num': '7', 'comment_num': '1', 'children': [], 'lat': 32.00889481491885, 'lng': 118.71052134780228}}"
"{'name': '南京康奇宠物有限公司', 'location': {'lat': 32.020842691718165, 'lng': 118.72013743394096}, 'address': '兴隆大街196-2号附近', 'province': '江苏省', 'city': '南京市', 'area': '建邺区', 'detail': 1, 'uid': '76508d6f1175718514b54b2d', 'detail_info': {'tag': '公司企业;公司', 'type': 'enterprise', 'detail_url': 'http://api.map.baidu.com/place/detail?uid=76508d6f1175718514b54b2d&output=html&source=placeapi_v2', 'children': [], 'lat': 32.020842691718165, 'lng': 118.72013743394096}}"
"{'name': '应急掩蔽场所(金马郦城A区西北)', 'location': {'lat': 32.00906789626461, 'lng': 118.70969061480807}, 'address': '乐山路187附近', 'province': '江苏省', 'city': '南京市', 'area': '建邺区', 'detail': 1, 'uid': '936361e94331420e6849f35c', 'detail_info': {'tag': '生活服务;其他', 'type': 'life', 'detail_url': 'http://api.map.baidu.com/place/detail?uid=936361e94331420e6849f35c&output=html&source=placeapi_v2', 'image_num': '1', 'children': [], 'lat': 32.00906789626461, 'lng': 118.70969061480807}}"
"{'name': '浙风影视广告公司专业人像摄影工作室', 'location': {'lat': 32.00918087811813, 'lng': 118.7100433821916}, 'address': '南京市建邺区奥体大街与乐山路交叉路口往西约100米(金马郦城C区)', 'province': '江苏省', 'city': '南京市', 'area': '建邺区', 'street_id': '4867b86487506399f4eafc59', 'detail': 1, 'uid': '4867b86487506399f4eafc59', 'detail_info': {'tag': '生活服务;照相馆', 'type': 'life', 'detail_url': 'http://api.map.baidu.com/place/detail?uid=4867b86487506399f4eafc59&output=html&source=placeapi_v2', 'overall_rating': '5.0', 'image_num': '3', 'comment_num': '1', 'children': [], 'lat': 32.00918087811813, 'lng': 118.7100433821916}}"
"{'name': '丰巢快递柜', 'location': {'lat': 32.01986458579655, 'lng': 118.71013646820074}, 'address': '兴隆街道梦都大街188号御江金城11栋', 'province': '江苏省', 'city': '南京市', 'area': '建邺区', 'detail': 1, 'uid': '5d373e01a9cc3acf0e3dda9a', 'detail_info': {'tag': '生活服务;其他', 'type': 'life', 'detail_url': 'http://api.map.baidu.com/place/detail?uid=5d373e01a9cc3acf0e3dda9a&output=html&source=placeapi_v2', 'children': [], 'lat': 32.01986458579655, 'lng': 118.71013646820074}}"
"{'name': '哺乳室(中央商场河西店)', 'location': {'lat': 32.008568766623746, 'lng': 118.72692376755101}, 'address': '江东中路237号中央商场(河西店)F2层', 'province': '江苏省', 'city': '南京市', 'area': '建邺区', 'detail': 1, 'uid': '46c293785c802a7c0782c2a5', 'detail_info': {'tag': '生活服务;其他', 'type': 'life', 'detail_url': 'http://api.map.baidu.com/place/detail?uid=46c293785c802a7c0782c2a5&output=html&source=placeapi_v2', 'image_num': '1', 'children': [], 'lat': 32.008568766623746, 'lng': 118.72692376755101}}"
"{'name': '公共服务部', 'location': {'lat': 32.01472007566634, 'lng': 118.7119073287201}, 'address': '江苏省南京市建邺区乐山路158金陵图书馆一楼公共服务部', 'province': '江苏省', 'city': '南京市', 'area': '建邺区', 'detail': 1, 'uid': '8fcee50eda5112c0b817e785', 'detail_info': {'tag': '生活服务;其他', 'type': 'life', 'detail_url': 'http://api.map.baidu.com/place/detail?uid=8fcee50eda5112c0b817e785&output=html&source=placeapi_v2', 'image_num': '1', 'children': [], 'lat': 32.01472007566634, 'lng': 118.7119073287201}}"
"{'name': '丰巢', 'location': {'lat': 32.02867205457726, 'lng': 118.69598858382841}, 'address': '南京市建邺区贤坤路(仁恒·绿洲新岛2期)', 'province': '江苏省', 'city': '南京市', 'area': '建邺区', 'detail': 1, 'uid': 'ba7a244080cdab7e52e5c5b6', 'detail_info': {'tag': '生活服务;其他', 'type': 'life', 'detail_url': 'http://api.map.baidu.com/place/detail?uid=ba7a244080cdab7e52e5c5b6&output=html&source=placeapi_v2', 'image_num': '1', 'children': [], 'lat': 32.02867205457726, 'lng': 118.69598858382841}}"
"{'name': '南京中国绿化博览园-公共厕所', 'location': {'lat': 32.020954902319076, 'lng': 118.70126546393486}, 'address': '南京市建邺区扬子江大道228号滨江公园南京中国绿化博览园内', 'province': '江苏省', 'city': '南京市', 'area': '建邺区', 'detail': 1, 'uid': 'ff6d6ab84cbbcc3aeb12e463', 'detail_info': {'tag': '生活服务;公共厕所', 'type': 'life', 'detail_url': 'http://api.map.baidu.com/place/detail?uid=ff6d6ab84cbbcc3aeb12e463&output=html&source=placeapi_v2', 'overall_rating': '0.0', 'image_num': '1', 'comment_num': '0', 'children': [], 'lat': 32.020954902319076, 'lng': 118.70126546393486}}"
"{'name': '中央商场-楼梯', 'location': {'lat': 32.00938363814364, 'lng': 118.72672540114225}, 'address': '南京市建邺区江东中路270号中央商场B2', 'province': '江苏省', 'city': '南京市', 'area': '建邺区', 'street_id': '4569049461a9ea953a04b1a7', 'detail': 1, 'uid': '4569049461a9ea953a04b1a7', 'detail_info': {'tag': '生活服务;其他', 'indoor_floor': 'B2', 'type': 'life', 'detail_url': 'http://api.map.baidu.com/place/detail?uid=4569049461a9ea953a04b1a7&output=html&source=placeapi_v2', 'image_num': '1', 'children': [], 'lat': 32.00938363814364, 'lng': 118.72672540114225}}"
"{'name': '德佑(月安街店)', 'location': {'lat': 32.02230170769367, 'lng': 118.72385723109491}, 'address': '江苏省南京市建邺区月安街33-10号', 'province': '江苏省', 'city': '南京市', 'area': '建邺区', 'street_id': '5764be083aff974641d63e28', 'detail': 1, 'uid': '5764be083aff974641d63e28', 'detail_info': {'tag': '生活服务;房产中介机构', 'type': 'life', 'detail_url': 'http://api.map.baidu.com/place/detail?uid=5764be083aff974641d63e28&output=html&source=placeapi_v2', 'overall_rating': '5.0', 'image_num': '2', 'comment_num': '1', 'children': [], 'lat': 32.02230170769367, 'lng': 118.72385723109491}}"
"{'name': '公厕', 'location': {'lat': 32.02097192186817, 'lng': 118.70566796613441}, 'address': '南京市建邺区扬子江大道228号滨江公园南京中国绿化博览园内', 'province': '江苏省', 'city': '南京市', 'area': '建邺区', 'street_id': '89f710596830d465c056aca1', 'detail': 1, 'uid': '89f710596830d465c056aca1', 'detail_info': {'tag': '生活服务;公共厕所', 'navi_location': {'lng': 118.71648183382, 'lat': 32.023938860126}, 'type': 'life', 'detail_url': 'http://api.map.baidu.com/place/detail?uid=89f710596830d465c056aca1&output=html&source=placeapi_v2', 'image_num': '1', 'children': [], 'lat': 32.02097192186817, 'lng': 118.70566796613441}}"
"{'name': '南京中国绿化博览园-游览车售票处', 'location': {'lat': 32.0245282796511, 'lng': 118.7076287869802}, 'address': '南京市建邺区扬子江大道228号滨江公园南京中国绿化博览园内', 'province': '江苏省', 'city': '南京市', 'area': '建邺区', 'street_id': '044f0361a8618e88a11de9f7', 'telephone': '13382095976', 'detail': 1, 'uid': '044f0361a8618e88a11de9f7', 'detail_info': {'tag': '生活服务;售票处', 'type': 'life', 'detail_url': 'http://api.map.baidu.com/place/detail?uid=044f0361a8618e88a11de9f7&output=html&source=placeapi_v2', 'overall_rating': '0.0', 'image_num': '1', 'children': [], 'lat': 32.0245282796511, 'lng': 118.7076287869802}}"
"{'name': '中国福利彩票(江东中路店)', 'location': {'lat': 32.00644360183481, 'lng': 118.72465057298123}, 'address': '江东中路265-1号附近', 'province': '江苏省', 'city': '南京市', 'area': '建邺区', 'detail': 1, 'uid': '86a52090932070defda778b2', 'detail_info': {'tag': '生活服务;彩票销售点', 'type': 'life', 'detail_url': 'http://api.map.baidu.com/place/detail?uid=86a52090932070defda778b2&output=html&source=placeapi_v2', 'image_num': '1', 'children': [], 'lat': 32.00644360183481, 'lng': 118.72465057298123}}"
"{'name': '男洗手间(中央商场河西店)', 'location': {'lat': 32.00996522920853, 'lng': 118.72771771148578}, 'address': '江苏省南京市建邺区江东中路270号中央商场F2', 'province': '江苏省', 'city': '南京市', 'area': '建邺区', 'detail': 1, 'uid': 'a2b11f8854841aab78f79684', 'detail_info': {'tag': '生活服务;公共厕所', 'type': 'life', 'detail_url': 'http://api.map.baidu.com/place/detail?uid=a2b11f8854841aab78f79684&output=html&source=placeapi_v2', 'image_num': '1', 'children': [], 'lat': 32.00996522920853, 'lng': 118.72771771148578}}"
"{'name': '和佳小儿推拿', 'location': {'lat': 32.00919059724425, 'lng': 118.71050348111864}, 'address': '南京市建邺区奥体大街199号金马郦城4幢129室', 'province': '江苏省', 'city': '南京市', 'area': '建邺区', 'street_id': '4b71ecfb649b0924bb17e701', 'telephone': '13770707612', 'detail': 1, 'uid': '4b71ecfb649b0924bb17e701', 'detail_info': {'tag': '休闲娱乐;洗浴按摩', 'type': 'life', 'detail_url': 'http://api.map.baidu.com/place/detail?uid=4b71ecfb649b0924bb17e701&output=html&source=placeapi_v2', 'price': '67', 'overall_rating': '5.0', 'image_num': '17', 'comment_num': '1', 'children': [], 'lat': 32.00919059724425, 'lng': 118.71050348111864}}"
"{'name': '公厕', 'location': {'lat': 32.021504433312856, 'lng': 118.70327566695914}, 'address': '南京市建邺区扬子江大道228号滨江公园南京中国绿化博览园内', 'province': '江苏省', 'city': '南京市', 'area': '建邺区', 'street_id': '115fd0539b142f23e215f975', 'detail': 1, 'uid': '115fd0539b142f23e215f975', 'detail_info': {'tag': '生活服务;公共厕所', 'navi_location': {'lng': 118.715074446, 'lat': 32.024396364162}, 'type': 'life', 'detail_url': 'http://api.map.baidu.com/place/detail?uid=115fd0539b142f23e215f975&output=html&source=placeapi_v2', 'image_num': '1', 'children': [], 'lat': 32.021504433312856, 'lng': 118.70327566695914}}"
"{'name': '男洗手间(中央商场河西店)', 'location': {'lat': 32.008471082352656, 'lng': 118.72682703156032}, 'address': '南京市建邺区江东中路270号中央商场F3', 'province': '江苏省', 'city': '南京市', 'area': '建邺区', 'detail': 1, 'uid': '686e7fdeefe8850fc91b9591', 'detail_info': {'tag': '生活服务;公共厕所', 'type': 'life', 'detail_url': 'http://api.map.baidu.com/place/detail?uid=686e7fdeefe8850fc91b9591&output=html&source=placeapi_v2', 'image_num': '1', 'children': [], 'lat': 32.008471082352656, 'lng': 118.72682703156032}}"
"{'name': '子墨车业', 'location': {'lat': 32.01002434661902, 'lng': 118.69463076998558}, 'address': '中新南京生态科技岛江心洲街道洲泰路梅子新寓02栋105室', 'province': '江苏省', 'city': '南京市', 'area': '建邺区', 'telephone': '18901591312', 'detail': 1, 'uid': 'dd3e9065f2e413c99ee321fd', 'detail_info': {'tag': '公司企业;公司', 'detail_url': 'http://api.map.baidu.com/place/detail?uid=dd3e9065f2e413c99ee321fd&output=html&source=placeapi_v2', 'children': [], 'lat': 32.01002434661902, 'lng': 118.69463076998558}}"
"{'name': '紫辉时代广场营销中心', 'location': {'lat': 32.013220355652756, 'lng': 118.7252388400287}, 'address': '江苏省南京市建邺区梦都大街130号附近', 'province': '江苏省', 'city': '南京市', 'area': '建邺区', 'detail': 1, 'uid': '1d60a4ceedfddd680b69d99d', 'detail_info': {'tag': '公司企业;公司', 'type': 'enterprise', 'detail_url': 'http://api.map.baidu.com/place/detail?uid=1d60a4ceedfddd680b69d99d&output=html&source=placeapi_v2', 'children': [], 'lat': 32.013220355652756, 'lng': 118.7252388400287}}"
"{'name': '中国体育彩票(应天大街店)', 'location': {'lat': 32.02539804009218, 'lng': 118.72729318994601}, 'address': '南京市建邺区应天大街926号', 'province': '江苏省', 'city': '南京市', 'area': '建邺区', 'street_id': 'f19d31d2f55874792eb90853', 'detail': 1, 'uid': 'f19d31d2f55874792eb90853', 'detail_info': {'tag': '生活服务;彩票销售点', 'navi_location': {'lng': 118.73902066581, 'lat': 32.028748256419}, 'type': 'life', 'detail_url': 'http://api.map.baidu.com/place/detail?uid=f19d31d2f55874792eb90853&output=html&source=placeapi_v2', 'overall_rating': '0.0', 'image_num': '12', 'comment_num': '1', 'children': [], 'lat': 32.02539804009218, 'lng': 118.72729318994601}}"
"{'name': '菜鸟驿站(南京精金花园12栋一单元101店)', 'location': {'lat': 32.031000004531535, 'lng': 118.72416732768629}, 'address': '江苏省南京市建邺区兴隆街道华山路92号精金花园12栋一单元101室', 'province': '江苏省', 'city': '南京市', 'area': '建邺区', 'detail': 1, 'uid': 'd78d6171c11cba7aeb1e97d8', 'detail_info': {'tag': '生活服务;物流公司', 'type': 'life', 'detail_url': 'http://api.map.baidu.com/place/detail?uid=d78d6171c11cba7aeb1e97d8&output=html&source=placeapi_v2', 'children': [], 'lat': 32.031000004531535, 'lng': 118.72416732768629}}"
"{'name': '公厕', 'location': {'lat': 32.02796418850833, 'lng': 118.70720687901374}, 'address': '南京市建邺区扬子江大道228号滨江公园南京中国绿化博览园内', 'province': '江苏省', 'city': '南京市', 'area': '建邺区', 'detail': 1, 'uid': '1a70006116dbbe005fbe865e', 'detail_info': {'tag': '生活服务;公共厕所', 'type': 'life', 'detail_url': 'http://api.map.baidu.com/place/detail?uid=1a70006116dbbe005fbe865e&output=html&source=placeapi_v2', 'image_num': '1', 'children': [], 'lat': 32.02796418850833, 'lng': 118.70720687901374}}"
"{'name': '南京中国绿化博览园-公共厕所', 'location': {'lat': 32.02913566868335, 'lng': 118.70763705030683}, 'address': '江堤路与江滩路交叉口西南150米', 'province': '江苏省', 'city': '南京市', 'area': '建邺区', 'detail': 1, 'uid': '07fa8456344bfac340e192f9', 'detail_info': {'tag': '生活服务;公共厕所', 'type': 'life', 'detail_url': 'http://api.map.baidu.com/place/detail?uid=07fa8456344bfac340e192f9&output=html&source=placeapi_v2', 'image_num': '1', 'children': [], 'lat': 32.02913566868335, 'lng': 118.70763705030683}}"
"{'name': '滨江公园-A区管理部', 'location': {'lat': 32.0058170121267, 'lng': 118.70081297595718}, 'address': '江苏省南京市建邺区棉花堤路滨江公园绿博园高尔夫会所西', 'province': '江苏省', 'city': '南京市', 'area': '建邺区', 'street_id': 'd2be4173663e4916b817e7d4', 'detail': 1, 'uid': 'd2be4173663e4916b817e7d4', 'detail_info': {'tag': '旅游景点;其他', 'type': 'scope', 'detail_url': 'http://api.map.baidu.com/place/detail?uid=d2be4173663e4916b817e7d4&output=html&source=placeapi_v2', 'overall_rating': '0.0', 'comment_num': '0', 'children': [], 'lat': 32.0058170121267, 'lng': 118.70081297595718}}"
"{'name': '菜鸟驿站(南京海棠园4栋103室店)', 'location': {'lat': 32.01977206587074, 'lng': 118.71976868412698}, 'address': '建邺区江宁街道盛江花苑海棠园4栋103室', 'province': '江苏省', 'city': '南京市', 'area': '建邺区', 'detail': 1, 'uid': '195064b2552392f0bbbd63e0', 'detail_info': {'tag': '生活服务;物流公司', 'type': 'life', 'detail_url': 'http://api.map.baidu.com/place/detail?uid=195064b2552392f0bbbd63e0&output=html&source=placeapi_v2', 'children': [], 'lat': 32.01977206587074, 'lng': 118.71976868412698}}"
"{'name': '闻冠工作室', 'location': {'lat': 32.008757805472364, 'lng': 118.70332258104811}, 'address': '京市建邺区扬子江大道228号金鹰当代', 'province': '江苏省', 'city': '南京市', 'area': '建邺区', 'street_id': 'ec118c8f642c462fdc1e521d', 'telephone': '15252456277', 'detail': 1, 'uid': 'ec118c8f642c462fdc1e521d', 'detail_info': {'tag': '生活服务;照相馆', 'type': 'life', 'detail_url': 'http://api.map.baidu.com/place/detail?uid=ec118c8f642c462fdc1e521d&output=html&source=placeapi_v2', 'image_num': '1', 'children': [], 'lat': 32.008757805472364, 'lng': 118.70332258104811}}"
"{'name': '怪兽充电(小南国南京奥体店)', 'location': {'lat': 32.006177835823415, 'lng': 118.7173802506401}, 'address': '奥体大街177号环宇·融侨广场1-2层', 'province': '江苏省', 'city': '南京市', 'area': '建邺区', 'detail': 1, 'uid': '90ee429492ce5c217adbd2db', 'detail_info': {'type': 'life', 'detail_url': 'http://api.map.baidu.com/place/detail?uid=90ee429492ce5c217adbd2db&output=html&source=placeapi_v2', 'children': [], 'lat': 32.006177835823415, 'lng': 118.7173802506401}}"
"{'name': '王祥房产(月安街店)', 'location': {'lat': 32.0237002872205, 'lng': 118.72032984102648}, 'address': '江苏省南京市建邺区月安街38-12号', 'province': '江苏省', 'city': '南京市', 'area': '建邺区', 'street_id': '461989ec3b5b282feaf85323', 'telephone': '(025)87715998', 'detail': 1, 'uid': '461989ec3b5b282feaf85323', 'detail_info': {'tag': '生活服务;房产中介机构', 'type': 'life', 'detail_url': 'http://api.map.baidu.com/place/detail?uid=461989ec3b5b282feaf85323&output=html&source=placeapi_v2', 'image_num': '6', 'children': [], 'lat': 32.0237002872205, 'lng': 118.72032984102648}}"
"{'name': '南京奥林匹克体育中心-售票处', 'location': {'lat': 32.010349956103745, 'lng': 118.71365138109235}, 'address': '南京市建邺区江东中路222号南京奥林匹克体育中心内', 'province': '江苏省', 'city': '南京市', 'area': '建邺区', 'street_id': '436b63d4ef342e7cf942b2af', 'detail': 1, 'uid': '436b63d4ef342e7cf942b2af', 'detail_info': {'tag': '生活服务;售票处', 'type': 'life', 'detail_url': 'http://api.map.baidu.com/place/detail?uid=436b63d4ef342e7cf942b2af&output=html&source=placeapi_v2', 'image_num': '1', 'children': [], 'lat': 32.010349956103745, 'lng': 118.71365138109235}}"
"{'name': '南京利贯燃气设备有限公司', 'location': {'lat': 32.02735752546137, 'lng': 118.72719793438456}, 'address': '江苏省南京市建邺区燕山路118号北100米', 'province': '江苏省', 'city': '南京市', 'area': '建邺区', 'detail': 1, 'uid': 'a3fb55dfb081fe440e3ddaba', 'detail_info': {'tag': '公司企业;公司', 'type': 'enterprise', 'detail_url': 'http://api.map.baidu.com/place/detail?uid=a3fb55dfb081fe440e3ddaba&output=html&source=placeapi_v2', 'children': [], 'lat': 32.02735752546137, 'lng': 118.72719793438456}}"
"{'name': '顺丰速运燕山路集配站', 'location': {'lat': 32.027917500483014, 'lng': 118.72734607171317}, 'address': '江苏省南京市建邺区燕山路118号7号仓库', 'province': '江苏省', 'city': '南京市', 'area': '建邺区', 'detail': 1, 'uid': '654fe29d92e51ab02dfaa72b', 'detail_info': {'tag': '生活服务;物流公司', 'type': 'life', 'detail_url': 'http://api.map.baidu.com/place/detail?uid=654fe29d92e51ab02dfaa72b&output=html&source=placeapi_v2', 'image_num': '1', 'children': [], 'lat': 32.027917500483014, 'lng': 118.72734607171317}}"
"{'name': '卫生间(中央商场河西店)', 'location': {'lat': 32.00889204787656, 'lng': 118.72710229911199}, 'address': '江东中路237号F2层', 'province': '江苏省', 'city': '南京市', 'area': '建邺区', 'street_id': 'f0f9eeb590d702dcd81318a2', 'detail': 1, 'uid': 'f0f9eeb590d702dcd81318a2', 'detail_info': {'tag': '生活服务;公共厕所', 'type': 'life', 'detail_url': 'http://api.map.baidu.com/place/detail?uid=f0f9eeb590d702dcd81318a2&output=html&source=placeapi_v2', 'image_num': '1', 'children': [], 'lat': 32.00889204787656, 'lng': 118.72710229911199}}"
"{'name': '公厕', 'location': {'lat': 32.02527911627622, 'lng': 118.70335365008296}, 'address': '南京市建邺区扬子江大道228号滨江公园南京中国绿化博览园内', 'province': '江苏省', 'city': '南京市', 'area': '建邺区', 'detail': 1, 'uid': '7e8ff2d0235b566b81288add', 'detail_info': {'tag': '生活服务;公共厕所', 'type': 'life', 'detail_url': 'http://api.map.baidu.com/place/detail?uid=7e8ff2d0235b566b81288add&output=html&source=placeapi_v2', 'image_num': '1', 'children': [], 'lat': 32.02527911627622, 'lng': 118.70335365008296}}"
"{'name': '南京涵月楼酒店-洗手间', 'location': {'lat': 32.01008984478749, 'lng': 118.72748732063438}, 'address': '南京建邺区江东中路239号(河西中央商场)', 'province': '江苏省', 'city': '南京市', 'area': '建邺区', 'street_id': '2ccf6d3eae4d4d5f9c09f786', 'detail': 1, 'uid': '2ccf6d3eae4d4d5f9c09f786', 'detail_info': {'tag': '生活服务;公共厕所', 'type': 'life', 'detail_url': 'http://api.map.baidu.com/place/detail?uid=2ccf6d3eae4d4d5f9c09f786&output=html&source=placeapi_v2', 'image_num': '1', 'children': [], 'lat': 32.01008984478749, 'lng': 118.72748732063438}}"
"{'name': '中央商场-残障洗手间', 'location': {'lat': 32.00857186829364, 'lng': 118.7269387256718}, 'address': '南京市建邺区江东中路270号中央商场F2', 'province': '江苏省', 'city': '南京市', 'area': '建邺区', 'street_id': '73ff7d5c8e8f1e4a88db7362', 'detail': 1, 'uid': '73ff7d5c8e8f1e4a88db7362', 'detail_info': {'tag': '生活服务;公共厕所', 'navi_location': {'lng': 118.7380651068, 'lat': 32.013260071968}, 'indoor_floor': 'F2', 'type': 'life', 'detail_url': 'http://api.map.baidu.com/place/detail?uid=73ff7d5c8e8f1e4a88db7362&output=html&source=placeapi_v2', 'image_num': '1', 'children': [], 'lat': 32.00857186829364, 'lng': 118.7269387256718}}"
"{'name': '江苏纸联清河回收站', 'location': {'lat': 32.043468388473414, 'lng': 118.72554250839377}, 'address': '清江路34号', 'province': '江苏省', 'city': '南京市', 'area': '鼓楼区', 'street_id': '6eab2c7485c01ec48c1a8976', 'detail': 1, 'uid': '6eab2c7485c01ec48c1a8976', 'detail_info': {'tag': '生活服务;其他', 'navi_location': {'lng': 118.73719133491, 'lat': 32.047050835252}, 'type': 'life', 'detail_url': 'http://api.map.baidu.com/place/detail?uid=6eab2c7485c01ec48c1a8976&output=html&source=placeapi_v2', 'image_num': '5', 'children': [], 'lat': 32.043468388473414, 'lng': 118.72554250839377}}"
"{'name': '中国移动(营业厅)', 'location': {'lat': 32.033952357109094, 'lng': 118.7244305155126}, 'address': '江苏省南京市鼓楼区集贤路57号', 'province': '江苏省', 'city': '南京市', 'area': '鼓楼区', 'street_id': 'ab113aae844289f7d7b74e1b', 'detail': 1, 'uid': 'ab113aae844289f7d7b74e1b', 'detail_info': {'tag': '生活服务;通讯营业厅', 'type': 'life', 'detail_url': 'http://api.map.baidu.com/place/detail?uid=ab113aae844289f7d7b74e1b&output=html&source=placeapi_v2', 'overall_rating': '1.0', 'image_num': '15', 'comment_num': '4', 'children': [], 'lat': 32.033952357109094, 'lng': 118.7244305155126}}"
"{'name': '鼓楼区江东街道睿城社区综合服务中心', 'location': {'lat': 32.031947724137176, 'lng': 118.72567534393885}, 'address': '集庆门大街268号', 'province': '江苏省', 'city': '南京市', 'area': '鼓楼区', 'street_id': '0a983263e95c4f20047ce84e', 'detail': 1, 'uid': '0a983263e95c4f20047ce84e', 'detail_info': {'tag': '生活服务;其他', 'type': 'life', 'detail_url': 'http://api.map.baidu.com/place/detail?uid=0a983263e95c4f20047ce84e&output=html&source=placeapi_v2', 'image_num': '3', 'children': [], 'lat': 32.031947724137176, 'lng': 118.72567534393885}}"
"{'name': '奇大圣图文', 'location': {'lat': 32.03377581152486, 'lng': 118.71798049776281}, 'address': '集庆门大街268号苏宁慧谷E08-2幢805-806', 'province': '江苏省', 'city': '南京市', 'area': '鼓楼区', 'telephone': '(025)86899563', 'detail': 1, 'uid': 'b02274d7437fe2e871455b79', 'detail_info': {'tag': '生活服务;图文快印店', 'type': 'life', 'detail_url': 'http://api.map.baidu.com/place/detail?uid=b02274d7437fe2e871455b79&output=html&source=placeapi_v2', 'overall_rating': '5.0', 'image_num': '1', 'comment_num': '1', 'children': [], 'lat': 32.03377581152486, 'lng': 118.71798049776281}}"
"{'name': '街电(盈家茶会)', 'location': {'lat': 32.044084668171806, 'lng': 118.72757490359746}, 'address': '锦江路9号', 'province': '江苏省', 'city': '南京市', 'area': '鼓楼区', 'detail': 1, 'uid': 'ef1848dedb9a9213b64f549a', 'detail_info': {'tag': '生活服务;其他', 'type': 'life', 'detail_url': 'http://api.map.baidu.com/place/detail?uid=ef1848dedb9a9213b64f549a&output=html&source=placeapi_v2', 'image_num': '1', 'children': [], 'lat': 32.044084668171806, 'lng': 118.72757490359746}}"
"{'name': '南京苏宁物业管理有限公司馨瑰园物业服务中心', 'location': {'lat': 32.049802224232074, 'lng': 118.72737328778683}, 'address': '清凉门大街296号', 'province': '江苏省', 'city': '南京市', 'area': '鼓楼区', 'street_id': 'bdeb1fe039ade81ea8059d19', 'detail': 1, 'uid': 'bdeb1fe039ade81ea8059d19', 'detail_info': {'tag': '生活服务;其他', 'type': 'life', 'detail_url': 'http://api.map.baidu.com/place/detail?uid=bdeb1fe039ade81ea8059d19&output=html&source=placeapi_v2', 'image_num': '1', 'children': [], 'lat': 32.049802224232074, 'lng': 118.72737328778683}}"
"{'name': '苏宁环球商贸城-撬裤边(苏宁环球商贸城北区)', 'location': {'lat': 32.04656434818387, 'lng': 118.72505769257982}, 'address': '南京市鼓楼区清江路99号苏宁环球商贸城F2', 'province': '江苏省', 'city': '南京市', 'area': '鼓楼区', 'street_id': 'f94e1cab9322ce92047ce8af', 'detail': 1, 'uid': 'f94e1cab9322ce92047ce8af', 'detail_info': {'tag': '生活服务;其他', 'navi_location': {'lng': 118.73723909781, 'lat': 32.050953094596}, 'indoor_floor': 'F2', 'type': 'life', 'detail_url': 'http://api.map.baidu.com/place/detail?uid=f94e1cab9322ce92047ce8af&output=html&source=placeapi_v2', 'image_num': '1', 'children': [], 'lat': 32.04656434818387, 'lng': 118.72505769257982}}"
"{'name': '街电(江记银城小院)', 'location': {'lat': 32.05399040569509, 'lng': 118.72651059093639}, 'address': '南京市鼓楼区闽江路银城花园117-112号', 'province': '江苏省', 'city': '南京市', 'area': '鼓楼区', 'detail': 1, 'uid': 'e3800caecc77f826c036440c', 'detail_info': {'tag': '生活服务;其他', 'type': 'life', 'detail_url': 'http://api.map.baidu.com/place/detail?uid=e3800caecc77f826c036440c&output=html&source=placeapi_v2', 'image_num': '1', 'children': [], 'lat': 32.05399040569509, 'lng': 118.72651059093639}}"
"{'name': '中国电信(苏宁睿城营业厅)', 'location': {'lat': 32.03380470678346, 'lng': 118.72706039753773}, 'address': '江苏省南京市鼓楼区集贤路17号', 'province': '江苏省', 'city': '南京市', 'area': '鼓楼区', 'street_id': 'ffe01c2fdc47415188f15d7a', 'telephone': '(025)58811000', 'detail': 1, 'uid': 'ffe01c2fdc47415188f15d7a', 'detail_info': {'tag': '生活服务;通讯营业厅', 'type': 'life', 'detail_url': 'http://api.map.baidu.com/place/detail?uid=ffe01c2fdc47415188f15d7a&output=html&source=placeapi_v2', 'overall_rating': '3.0', 'image_num': '10', 'comment_num': '4', 'children': [], 'lat': 32.03380470678346, 'lng': 118.72706039753773}}"
"{'name': '国际水务中心', 'location': {'lat': 32.04705564811248, 'lng': 118.71125020174233}, 'address': '江苏省南京市建邺区新加坡南京生态科技岛科技路33号', 'province': '江苏省', 'city': '南京市', 'area': '建邺区', 'street_id': 'ef0cbbd0a07c760926d2bbcd', 'detail': 1, 'uid': 'ef0cbbd0a07c760926d2bbcd', 'detail_info': {'tag': '生活服务;公用事业', 'navi_location': {'lng': 118.72241978236, 'lat': 32.051436195548}, 'type': 'life', 'detail_url': 'http://api.map.baidu.com/place/detail?uid=ef0cbbd0a07c760926d2bbcd&output=html&source=placeapi_v2', 'overall_rating': '5.0', 'image_num': '41', 'comment_num': '12', 'children': [], 'lat': 32.04705564811248, 'lng': 118.71125020174233}}"
"{'name': '金创艺图文快印(汇文店)', 'location': {'lat': 32.042314833468964, 'lng': 118.72485903745955}, 'address': '清江路7号', 'province': '江苏省', 'city': '南京市', 'area': '鼓楼区', 'street_id': 'cd5c8a87094337c23b221c4e', 'telephone': '13912941489', 'detail': 1, 'uid': 'cd5c8a87094337c23b221c4e', 'detail_info': {'tag': '生活服务;图文快印店', 'type': 'life', 'detail_url': 'http://api.map.baidu.com/place/detail?uid=cd5c8a87094337c23b221c4e&output=html&source=placeapi_v2', 'overall_rating': '0.0', 'image_num': '10', 'children': [], 'lat': 32.042314833468964, 'lng': 118.72485903745955}}"
"{'name': '来电(2012茶肆)', 'location': {'lat': 32.04555484536614, 'lng': 118.72487440786587}, 'address': '清江路99号苏宁环球商贸城南区F1层', 'province': '江苏省', 'city': '南京市', 'area': '鼓楼区', 'detail': 1, 'uid': '2095b1ce73ebb0a94354d79e', 'detail_info': {'tag': '生活服务;其他', 'type': 'life', 'detail_url': 'http://api.map.baidu.com/place/detail?uid=2095b1ce73ebb0a94354d79e&output=html&source=placeapi_v2', 'image_num': '1', 'children': [], 'lat': 32.04555484536614, 'lng': 118.72487440786587}}"
"{'name': '来电(浅夏温泉会所)', 'location': {'lat': 32.04619846860388, 'lng': 118.72459964463299}, 'address': '南京市鼓楼区清江路99号苏宁环球商贸城南区F2层', 'province': '江苏省', 'city': '南京市', 'area': '鼓楼区', 'detail': 1, 'uid': 'b5f7e2e1dea7b079990050fe', 'detail_info': {'tag': '生活服务;其他', 'type': 'life', 'detail_url': 'http://api.map.baidu.com/place/detail?uid=b5f7e2e1dea7b079990050fe&output=html&source=placeapi_v2', 'image_num': '1', 'children': [], 'lat': 32.04619846860388, 'lng': 118.72459964463299}}"
"{'name': '饭团宠物生活馆', 'location': {'lat': 32.04904652968242, 'lng': 118.72680863428121}, 'address': '江苏省南京市鼓楼区清凉门大街296号', 'province': '江苏省', 'city': '南京市', 'area': '鼓楼区', 'street_id': '072b24e6f6d193679c09f7a6', 'telephone': '13914706347', 'detail': 1, 'uid': '072b24e6f6d193679c09f7a6', 'detail_info': {'tag': '生活服务;宠物服务', 'type': 'life', 'detail_url': 'http://api.map.baidu.com/place/detail?uid=072b24e6f6d193679c09f7a6&output=html&source=placeapi_v2', 'overall_rating': '4.5', 'image_num': '10', 'comment_num': '20', 'children': [], 'lat': 32.04904652968242, 'lng': 118.72680863428121}}"
"{'name': '木可宠物会所', 'location': {'lat': 32.04857300171524, 'lng': 118.72630559863221}, 'address': '江苏省南京市鼓楼区清凉门大街育才公寓79号101门面房', 'province': '江苏省', 'city': '南京市', 'area': '鼓楼区', 'street_id': 'ecf5d14b6481e27d32870a3a', 'detail': 1, 'uid': 'ecf5d14b6481e27d32870a3a', 'detail_info': {'tag': '生活服务;宠物服务', 'navi_location': {'lng': 118.73813399964, 'lat': 32.052427020137}, 'type': 'life', 'detail_url': 'http://api.map.baidu.com/place/detail?uid=ecf5d14b6481e27d32870a3a&output=html&source=placeapi_v2', 'overall_rating': '5.0', 'image_num': '5', 'comment_num': '31', 'children': [], 'lat': 32.04857300171524, 'lng': 118.72630559863221}}"
"{'name': '公共厕所', 'location': {'lat': 32.053923413584194, 'lng': 118.7259642948405}, 'address': '江苏省南京市鼓楼区银城花园南区(闽江路南)', 'province': '江苏省', 'city': '南京市', 'area': '鼓楼区', 'street_id': '1020060fcb1042a61894c65d', 'detail': 1, 'uid': '1020060fcb1042a61894c65d', 'detail_info': {'tag': '生活服务;公共厕所', 'navi_location': {'lng': 118.7378872971, 'lat': 32.057708203792}, 'type': 'life', 'detail_url': 'http://api.map.baidu.com/place/detail?uid=1020060fcb1042a61894c65d&output=html&source=placeapi_v2', 'overall_rating': '4.0', 'image_num': '5', 'comment_num': '5', 'children': [], 'lat': 32.053923413584194, 'lng': 118.7259642948405}}"
"{'name': '公共厕所', 'location': {'lat': 32.04305114017598, 'lng': 118.7251382861727}, 'address': '南京市鼓楼区清江路25号附近', 'province': '江苏省', 'city': '南京市', 'area': '鼓楼区', 'street_id': '060f5e533b5908d7081cc75d', 'detail': 1, 'uid': '060f5e533b5908d7081cc75d', 'detail_info': {'tag': '生活服务;公共厕所', 'navi_location': {'lng': 118.73706349975, 'lat': 32.046754478865}, 'type': 'life', 'detail_url': 'http://api.map.baidu.com/place/detail?uid=060f5e533b5908d7081cc75d&output=html&source=placeapi_v2', 'overall_rating': '4.0', 'image_num': '9', 'comment_num': '6', 'children': [], 'lat': 32.04305114017598, 'lng': 118.7251382861727}}"
"{'name': 'dq视觉亲子儿童摄影', 'location': {'lat': 32.033883616554284, 'lng': 118.72287136925986}, 'address': '南京市鼓楼区集贤路与清江南路交叉路口往西北约50米(越洋国际)', 'province': '江苏省', 'city': '南京市', 'area': '鼓楼区', 'street_id': '7ca8e354fef0424cf4b91656', 'telephone': '13851507011,(025)86225945', 'detail': 1, 'uid': 'da06010cc4484a3308f5ebdb', 'detail_info': {'tag': '生活服务;照相馆', 'type': 'life', 'detail_url': 'http://api.map.baidu.com/place/detail?uid=da06010cc4484a3308f5ebdb&output=html&source=placeapi_v2', 'price': '1273', 'overall_rating': '4.8', 'image_num': '21', 'comment_num': '47', 'children': [], 'lat': 32.033883616554284, 'lng': 118.72287136925986}}"
"{'name': '街电(江东书房)', 'location': {'lat': 32.03209802606195, 'lng': 118.72571407666113}, 'address': '润江路1号睿城社区服务中心1层', 'province': '江苏省', 'city': '南京市', 'area': '鼓楼区', 'detail': 1, 'uid': '04ef764d0e6705e0b04c49de', 'detail_info': {'tag': '生活服务;其他', 'type': 'life', 'detail_url': 'http://api.map.baidu.com/place/detail?uid=04ef764d0e6705e0b04c49de&output=html&source=placeapi_v2', 'image_num': '1', 'children': [], 'lat': 32.03209802606195, 'lng': 118.72571407666113}}"
"{'name': '老兵照相图文', 'location': {'lat': 32.04868018276507, 'lng': 118.72619382113898}, 'address': '南京市鼓楼区清凉门大街育才公寓81号102室', 'province': '江苏省', 'city': '南京市', 'area': '鼓楼区', 'street_id': '66151551e2f4f4282806ce94', 'telephone': '(025)86278106', 'detail': 1, 'uid': '66151551e2f4f4282806ce94', 'detail_info': {'tag': '生活服务;图文快印店', 'type': 'life', 'detail_url': 'http://api.map.baidu.com/place/detail?uid=66151551e2f4f4282806ce94&output=html&source=placeapi_v2', 'price': '10', 'overall_rating': '3.5', 'image_num': '15', 'comment_num': '3', 'children': [], 'lat': 32.04868018276507, 'lng': 118.72619382113898}}"
"{'name': '美岛宠物会所', 'location': {'lat': 32.04328630202787, 'lng': 118.70641040685756}, 'address': '南京市建邺区星影街与中新大道交叉路口往东南约50米(长岛观澜润园)', 'province': '江苏省', 'city': '南京市', 'area': '建邺区', 'street_id': '3519af28ebf70d49abf7297b', 'detail': 1, 'uid': '3519af28ebf70d49abf7297b', 'detail_info': {'tag': '生活服务;宠物服务', 'type': 'life', 'detail_url': 'http://api.map.baidu.com/place/detail?uid=3519af28ebf70d49abf7297b&output=html&source=placeapi_v2', 'overall_rating': '4.0', 'image_num': '3', 'comment_num': '2', 'children': [], 'lat': 32.04328630202787, 'lng': 118.70641040685756}}"
"{'name': '兴隆街道居民生活物品分拣(贮存)中心', 'location': {'lat': 32.034812266878085, 'lng': 118.71506599979554}, 'address': '清河路87附近', 'province': '江苏省', 'city': '南京市', 'area': '建邺区', 'detail': 1, 'uid': '48f8de4474bcd62fcc06a42a', 'detail_info': {'tag': '生活服务;其他', 'type': 'life', 'detail_url': 'http://api.map.baidu.com/place/detail?uid=48f8de4474bcd62fcc06a42a&output=html&source=placeapi_v2', 'image_num': '1', 'children': [], 'lat': 32.034812266878085, 'lng': 118.71506599979554}}"
"{'name': '南京育才公寓物业服务中心', 'location': {'lat': 32.04743100176751, 'lng': 118.7252620822774}, 'address': '江苏省南京市鼓楼区清江路101号附近', 'province': '江苏省', 'city': '南京市', 'area': '鼓楼区', 'street_id': '6409103b2550208ed23ce38f', 'detail': 1, 'uid': '6409103b2550208ed23ce38f', 'detail_info': {'tag': '生活服务;其他', 'type': 'life', 'detail_url': 'http://api.map.baidu.com/place/detail?uid=6409103b2550208ed23ce38f&output=html&source=placeapi_v2', 'image_num': '3', 'children': [], 'lat': 32.04743100176751, 'lng': 118.7252620822774}}"
"{'name': '公厕', 'location': {'lat': 32.041783256720855, 'lng': 118.71547815527308}, 'address': '南京市建邺区扬子江大道228号滨江公园万景园内', 'province': '江苏省', 'city': '南京市', 'area': '建邺区', 'detail': 1, 'uid': 'db9e7ccb4de524d72a02e15e', 'detail_info': {'tag': '生活服务;公共厕所', 'type': 'life', 'detail_url': 'http://api.map.baidu.com/place/detail?uid=db9e7ccb4de524d72a02e15e&output=html&source=placeapi_v2', 'image_num': '1', 'children': [], 'lat': 32.041783256720855, 'lng': 118.71547815527308}}"
"{'name': '街电(南京宁宝汽车服务有限公司鼓楼分公司)', 'location': {'lat': 32.04127129201562, 'lng': 118.72400020166397}, 'address': '南京市鼓楼区汉中门大街309号', 'province': '江苏省', 'city': '南京市', 'area': '鼓楼区', 'detail': 1, 'uid': 'ac62ce4108331945f2193741', 'detail_info': {'tag': '生活服务;其他', 'type': 'life', 'detail_url': 'http://api.map.baidu.com/place/detail?uid=ac62ce4108331945f2193741&output=html&source=placeapi_v2', 'image_num': '1', 'children': [], 'lat': 32.04127129201562, 'lng': 118.72400020166397}}"
"{'name': '南京双择汽车维修服务有限公司', 'location': {'lat': 32.04620967555019, 'lng': 118.72638888687173}, 'address': '江东街道东宝路18号福林驾校巷内100米', 'province': '江苏省', 'city': '南京市', 'area': '鼓楼区', 'street_id': 'a7565d6a21e55146f4e73bfa', 'telephone': '(025)86290061', 'detail': 1, 'uid': 'a7565d6a21e55146f4e73bfa', 'detail_info': {'tag': '汽车服务;汽车维修', 'navi_location': {'lng': 118.73794607593, 'lat': 32.049791406445}, 'type': 'life', 'detail_url': 'http://api.map.baidu.com/place/detail?uid=a7565d6a21e55146f4e73bfa&output=html&source=placeapi_v2', 'image_num': '3', 'children': [], 'lat': 32.04620967555019, 'lng': 118.72638888687173}}"
"{'name': '顺丰速运(江心洲速运营业点)', 'location': {'lat': 32.04574407751388, 'lng': 118.70265577158038}, 'address': '建邺区星影街10-3号', 'province': '江苏省', 'city': '南京市', 'area': '建邺区', 'street_id': '9e57e66b9a49d776210262df', 'detail': 1, 'uid': '9e57e66b9a49d776210262df', 'detail_info': {'tag': '生活服务;物流公司', 'type': 'life', 'detail_url': 'http://api.map.baidu.com/place/detail?uid=9e57e66b9a49d776210262df&output=html&source=placeapi_v2', 'image_num': '3', 'children': [], 'lat': 32.04574407751388, 'lng': 118.70265577158038}}"
"{'name': '欣城地产(集贤路店)', 'location': {'lat': 32.03386452280023, 'lng': 118.72527474247781}, 'address': '南京市鼓楼区集贤路45号', 'province': '江苏省', 'city': '南京市', 'area': '鼓楼区', 'street_id': 'a2f8fe873e1f888681a12e5e', 'telephone': '(025)86652009', 'detail': 1, 'uid': 'a2f8fe873e1f888681a12e5e', 'detail_info': {'tag': '生活服务;房产中介机构', 'type': 'life', 'detail_url': 'http://api.map.baidu.com/place/detail?uid=a2f8fe873e1f888681a12e5e&output=html&source=placeapi_v2', 'overall_rating': '4.5', 'image_num': '27', 'comment_num': '3', 'children': [], 'lat': 32.03386452280023, 'lng': 118.72527474247781}}"
"{'name': '链家(清江路店)', 'location': {'lat': 32.04469980080672, 'lng': 118.7251045756332}, 'address': '鼓楼区清江路53号', 'province': '江苏省', 'city': '南京市', 'area': '鼓楼区', 'street_id': '014a7d2130214774c27da208', 'telephone': '(025)83552901', 'detail': 1, 'uid': '014a7d2130214774c27da208', 'detail_info': {'tag': '生活服务;房产中介机构', 'type': 'life', 'detail_url': 'http://api.map.baidu.com/place/detail?uid=014a7d2130214774c27da208&output=html&source=placeapi_v2', 'overall_rating': '5.0', 'image_num': '11', 'comment_num': '2', 'children': [], 'lat': 32.04469980080672, 'lng': 118.7251045756332}}"
"{'name': '万景园-公共厕所', 'location': {'lat': 32.03771934013175, 'lng': 118.71281694901745}, 'address': '江苏省南京市建邺区扬子江大道228号滨江公园万景园内', 'province': '江苏省', 'city': '南京市', 'area': '建邺区', 'street_id': '5ffdfec428d71cb0e50738f0', 'detail': 1, 'uid': '5ffdfec428d71cb0e50738f0', 'detail_info': {'tag': '生活服务;公共厕所', 'type': 'life', 'detail_url': 'http://api.map.baidu.com/place/detail?uid=5ffdfec428d71cb0e50738f0&output=html&source=placeapi_v2', 'overall_rating': '4.0', 'image_num': '1', 'comment_num': '3', 'children': [], 'lat': 32.03771934013175, 'lng': 118.71281694901745}}"
"{'name': '畅印图文', 'location': {'lat': 32.03395942946565, 'lng': 118.72255852898978}, 'address': '江苏省南京市鼓楼区集贤路97号越洋国际', 'province': '江苏省', 'city': '南京市', 'area': '鼓楼区', 'street_id': 'f0b4c6f92b153e90a2d23021', 'telephone': '(025)82220125', 'detail': 1, 'uid': 'f0b4c6f92b153e90a2d23021', 'detail_info': {'tag': '生活服务;图文快印店', 'type': 'life', 'detail_url': 'http://api.map.baidu.com/place/detail?uid=f0b4c6f92b153e90a2d23021&output=html&source=placeapi_v2', 'overall_rating': '5.0', 'image_num': '11', 'comment_num': '2', 'children': [], 'lat': 32.03395942946565, 'lng': 118.72255852898978}}"
"{'name': '蓝亦彩彩印照相', 'location': {'lat': 32.044401980982805, 'lng': 118.72562222245934}, 'address': '江苏省南京市鼓楼区清江路35号附近', 'province': '江苏省', 'city': '南京市', 'area': '鼓楼区', 'telephone': '(025)86270115,13002524180', 'detail': 1, 'uid': '426e4e85a028c008d2f49e1a', 'detail_info': {'tag': '生活服务;图文快印店', 'type': 'life', 'detail_url': 'http://api.map.baidu.com/place/detail?uid=426e4e85a028c008d2f49e1a&output=html&source=placeapi_v2', 'overall_rating': '5.0', 'image_num': '7', 'comment_num': '2', 'children': [], 'lat': 32.044401980982805, 'lng': 118.72562222245934}}"
"{'name': '靓岛(苏宁睿城店)', 'location': {'lat': 32.033793526145374, 'lng': 118.72749921824914}, 'address': '南京市鼓楼区集贤路与燕山路交叉路口向西约100米(苏宁睿城银河国际街区-东区)', 'province': '江苏省', 'city': '南京市', 'area': '鼓楼区', 'street_id': '0d46230436cab6bc31f71d84', 'telephone': '(025)86522055', 'detail': 1, 'uid': '0d46230436cab6bc31f71d84', 'detail_info': {'tag': '丽人;美发', 'type': 'beauty', 'detail_url': 'http://api.map.baidu.com/place/detail?uid=0d46230436cab6bc31f71d84&output=html&source=placeapi_v2', 'price': '905.0', 'overall_rating': '1.4', 'comment_num': '19', 'children': [], 'lat': 32.033793526145374, 'lng': 118.72749921824914}}"
"{'name': '手机电脑维修换屏', 'location': {'lat': 32.04504606126001, 'lng': 118.72589465816174}, 'address': '东宝路与清江路交叉口东50米', 'province': '江苏省', 'city': '南京市', 'area': '鼓楼区', 'detail': 1, 'uid': '53f6e49be7a59af6157643e8', 'detail_info': {'tag': '生活服务;维修点', 'type': 'life', 'detail_url': 'http://api.map.baidu.com/place/detail?uid=53f6e49be7a59af6157643e8&output=html&source=placeapi_v2', 'overall_rating': '1.0', 'image_num': '2', 'comment_num': '1', 'children': [], 'lat': 32.04504606126001, 'lng': 118.72589465816174}}"
"{'name': '苏宁睿城营销展示中心', 'location': {'lat': 32.033552416328085, 'lng': 118.71863048319751}, 'address': '江苏省南京市鼓楼区集庆门大街268号苏宁慧谷', 'province': '江苏省', 'city': '南京市', 'area': '鼓楼区', 'street_id': '5b3159302b47da1db05c6ad0', 'detail': 1, 'uid': '5b3159302b47da1db05c6ad0', 'detail_info': {'tag': '文化传媒;展览馆', 'navi_location': {'lng': 118.72954186734, 'lat': 32.037977863028}, 'type': 'enterprise', 'detail_url': 'http://api.map.baidu.com/place/detail?uid=5b3159302b47da1db05c6ad0&output=html&source=placeapi_v2', 'children': [], 'lat': 32.033552416328085, 'lng': 118.71863048319751}}"
"{'name': '我爱我家(清河新寓店)', 'location': {'lat': 32.04406859672246, 'lng': 118.72557175116091}, 'address': '江苏省南京市鼓楼区清江路清河新寓一寸西门旁边', 'province': '江苏省', 'city': '南京市', 'area': '鼓楼区', 'street_id': '6a772a73b8ec474890114c2a', 'telephone': '(025)83121759', 'detail': 1, 'uid': '6a772a73b8ec474890114c2a', 'detail_info': {'tag': '生活服务;房产中介机构', 'type': 'life', 'detail_url': 'http://api.map.baidu.com/place/detail?uid=6a772a73b8ec474890114c2a&output=html&source=placeapi_v2', 'overall_rating': '5.0', 'image_num': '15', 'comment_num': '1', 'children': [], 'lat': 32.04406859672246, 'lng': 118.72557175116091}}"
"{'name': '凤凰家电维修五金', 'location': {'lat': 32.055496420438, 'lng': 118.72694598300409}, 'address': '南京市鼓楼区银城街与沅江路交叉路口西南侧(银城花园北区)', 'province': '江苏省', 'city': '南京市', 'area': '鼓楼区', 'street_id': '0d57d01660dc54f73310af7b', 'detail': 1, 'uid': '0d57d01660dc54f73310af7b', 'detail_info': {'tag': '生活服务;维修点', 'type': 'life', 'detail_url': 'http://api.map.baidu.com/place/detail?uid=0d57d01660dc54f73310af7b&output=html&source=placeapi_v2', 'overall_rating': '5.0', 'image_num': '8', 'comment_num': '1', 'children': [], 'lat': 32.055496420438, 'lng': 118.72694598300409}}"
"{'name': '幼狮汽修', 'location': {'lat': 32.05184800720628, 'lng': 118.72565026488006}, 'address': '江东街道湘江路32号', 'province': '江苏省', 'city': '南京市', 'area': '鼓楼区', 'street_id': '48006c7f5d13551559bbbc6f', 'detail': 1, 'uid': '48006c7f5d13551559bbbc6f', 'detail_info': {'tag': '汽车服务;汽车维修', 'navi_location': {'lng': 118.73742563455, 'lat': 32.055373639758}, 'type': 'life', 'detail_url': 'http://api.map.baidu.com/place/detail?uid=48006c7f5d13551559bbbc6f&output=html&source=placeapi_v2', 'overall_rating': '0.0', 'image_num': '5', 'comment_num': '1', 'children': [], 'lat': 32.05184800720628, 'lng': 118.72565026488006}}"
"{'name': '雅洁洗衣', 'location': {'lat': 32.04906319096456, 'lng': 118.72768822551123}, 'address': '江苏省南京市鼓楼区清凉门大街160号附近', 'province': '江苏省', 'city': '南京市', 'area': '鼓楼区', 'street_id': '3bace62424f870a558f6bea5', 'detail': 1, 'uid': '3bace62424f870a558f6bea5', 'detail_info': {'tag': '生活服务;洗衣店', 'type': 'life', 'detail_url': 'http://api.map.baidu.com/place/detail?uid=3bace62424f870a558f6bea5&output=html&source=placeapi_v2', 'image_num': '4', 'children': [], 'lat': 32.04906319096456, 'lng': 118.72768822551123}}"
"{'name': '江苏君临国际', 'location': {'lat': 32.0399657039742, 'lng': 118.72415010474045}, 'address': '江苏省南京市鼓楼区清江南路19号苏富特科技创新园1号楼7楼', 'province': '江苏省', 'city': '南京市', 'area': '鼓楼区', 'street_id': 'bb537d8653a65af080a00c00', 'telephone': '(025)68033881', 'detail': 1, 'uid': 'bb537d8653a65af080a00c00', 'detail_info': {'tag': '生活服务', 'type': 'life', 'detail_url': 'http://api.map.baidu.com/place/detail?uid=bb537d8653a65af080a00c00&output=html&source=placeapi_v2', 'image_num': '1', 'children': [], 'lat': 32.0399657039742, 'lng': 118.72415010474045}}"
"{'name': '公厕', 'location': {'lat': 32.03770347460332, 'lng': 118.71195714873011}, 'address': '南京市建邺区扬子江大道228号滨江公园万景园内', 'province': '江苏省', 'city': '南京市', 'area': '建邺区', 'detail': 1, 'uid': 'e52e0a593e5c56b582288a75', 'detail_info': {'tag': '生活服务;公共厕所', 'type': 'life', 'detail_url': 'http://api.map.baidu.com/place/detail?uid=e52e0a593e5c56b582288a75&output=html&source=placeapi_v2', 'image_num': '1', 'children': [], 'lat': 32.03770347460332, 'lng': 118.71195714873011}}"
"{'name': '王祥房产', 'location': {'lat': 32.0429237298251, 'lng': 118.70134565687921}, 'address': '江心洲街道江心洲绿水街20号-2商铺', 'province': '江苏省', 'city': '南京市', 'area': '建邺区', 'street_id': '7e23b0b53c0ea0902ce67b63', 'detail': 1, 'uid': '7e23b0b53c0ea0902ce67b63', 'detail_info': {'tag': '生活服务;房产中介机构', 'type': 'life', 'detail_url': 'http://api.map.baidu.com/place/detail?uid=7e23b0b53c0ea0902ce67b63&output=html&source=placeapi_v2', 'image_num': '3', 'children': [], 'lat': 32.0429237298251, 'lng': 118.70134565687921}}"
"{'name': '公用电话', 'location': {'lat': 32.039264658248236, 'lng': 118.71790207308791}, 'address': '下圩村299-1', 'province': '江苏省', 'city': '南京市', 'area': '建邺区', 'street_id': '1d337f6aad94c57ec9291595', 'detail': 1, 'uid': '1d337f6aad94c57ec9291595', 'detail_info': {'tag': '生活服务;其他', 'type': 'life', 'detail_url': 'http://api.map.baidu.com/place/detail?uid=1d337f6aad94c57ec9291595&output=html&source=placeapi_v2', 'image_num': '1', 'children': [], 'lat': 32.039264658248236, 'lng': 118.71790207308791}}"
"{'name': '街电(新加坡·南京生态科技岛科创中心)', 'location': {'lat': 32.032792158560376, 'lng': 118.70229714839921}, 'address': '江心洲街道贤坤路1号', 'province': '江苏省', 'city': '南京市', 'area': '建邺区', 'detail': 1, 'uid': '7cd46736d2e1569e5e17c390', 'detail_info': {'tag': '生活服务;其他', 'type': 'life', 'detail_url': 'http://api.map.baidu.com/place/detail?uid=7cd46736d2e1569e5e17c390&output=html&source=placeapi_v2', 'image_num': '1', 'children': [], 'lat': 32.032792158560376, 'lng': 118.70229714839921}}"
"{'name': '苏宁环球商贸城-男洗手间', 'location': {'lat': 32.04613083757266, 'lng': 118.7245269701312}, 'address': '南京市鼓楼区清江路99号苏宁环球商贸城F3', 'province': '江苏省', 'city': '南京市', 'area': '鼓楼区', 'detail': 1, 'uid': '2d89fa61cbc1096ac61e5127', 'detail_info': {'tag': '生活服务;公共厕所', 'indoor_floor': 'F3', 'type': 'life', 'detail_url': 'http://api.map.baidu.com/place/detail?uid=2d89fa61cbc1096ac61e5127&output=html&source=placeapi_v2', 'image_num': '1', 'children': [], 'lat': 32.04613083757266, 'lng': 118.7245269701312}}"
"{'name': '携才居家养老便民服务中心', 'location': {'lat': 32.03204904169971, 'lng': 118.72584571107569}, 'address': '润江路1号苏宁睿城社区四楼', 'province': '江苏省', 'city': '南京市', 'area': '鼓楼区', 'telephone': '13951914500', 'detail': 1, 'uid': '9d330dca588438c5deee8b4e', 'detail_info': {'tag': '生活服务;其他', 'type': 'life', 'detail_url': 'http://api.map.baidu.com/place/detail?uid=9d330dca588438c5deee8b4e&output=html&source=placeapi_v2', 'image_num': '1', 'children': [], 'lat': 32.03204904169971, 'lng': 118.72584571107569}}"
"{'name': '链家地产(育才公寓店)', 'location': {'lat': 32.04860738730301, 'lng': 118.72595263380465}, 'address': '鼓楼区清凉门大街育才公寓85号楼102室', 'province': '江苏省', 'city': '南京市', 'area': '鼓楼区', 'street_id': '24be0a4eae2c4ed6c7effb54', 'detail': 1, 'uid': '24be0a4eae2c4ed6c7effb54', 'detail_info': {'tag': '生活服务;房产中介机构', 'type': 'life', 'detail_url': 'http://api.map.baidu.com/place/detail?uid=24be0a4eae2c4ed6c7effb54&output=html&source=placeapi_v2', 'overall_rating': '5.0', 'image_num': '3', 'comment_num': '1', 'children': [], 'lat': 32.04860738730301, 'lng': 118.72595263380465}}"
"{'name': '京洲地产紫荆公馆店', 'location': {'lat': 32.04244250234464, 'lng': 118.70337061248601}, 'address': '江苏省南京市建邺区江心洲绿水街29号', 'province': '江苏省', 'city': '南京市', 'area': '建邺区', 'telephone': '18252052636', 'detail': 1, 'uid': '8a7813926d6f7806f8dc852b', 'detail_info': {'tag': '生活服务;房产中介机构', 'type': 'life', 'detail_url': 'http://api.map.baidu.com/place/detail?uid=8a7813926d6f7806f8dc852b&output=html&source=placeapi_v2', 'overall_rating': '5.0', 'image_num': '4', 'comment_num': '2', 'children': [], 'lat': 32.04244250234464, 'lng': 118.70337061248601}}"
"{'name': '南京恒义开锁', 'location': {'lat': 32.032046888810186, 'lng': 118.72582577537148}, 'address': '润江路1号', 'province': '江苏省', 'city': '南京市', 'area': '鼓楼区', 'detail': 1, 'uid': '66cc2dee278b893c06026f51', 'detail_info': {'tag': '生活服务;家政服务', 'type': 'life', 'detail_url': 'http://api.map.baidu.com/place/detail?uid=66cc2dee278b893c06026f51&output=html&source=placeapi_v2', 'overall_rating': '5.0', 'image_num': '2', 'comment_num': '1', 'children': [], 'lat': 32.032046888810186, 'lng': 118.72582577537148}}"
"{'name': '荟文学区房', 'location': {'lat': 32.05211197844267, 'lng': 118.72782876935783}, 'address': '湘江路18号长江之家1号101室', 'province': '江苏省', 'city': '南京市', 'area': '鼓楼区', 'telephone': '(025)57055320', 'detail': 1, 'uid': '1be3a78cfb14b6d6430245d0', 'detail_info': {'tag': '生活服务;房产中介机构', 'type': 'house', 'detail_url': 'http://api.map.baidu.com/place/detail?uid=1be3a78cfb14b6d6430245d0&output=html&source=placeapi_v2', 'children': [], 'lat': 32.05211197844267, 'lng': 118.72782876935783}}"
"{'name': '怪兽充电(百姓人家私房菜东宝路店)', 'location': {'lat': 32.04490776869985, 'lng': 118.72727778932027}, 'address': '东宝路与锦江路交叉口西100米', 'province': '江苏省', 'city': '南京市', 'area': '鼓楼区', 'detail': 1, 'uid': 'ce2064b80b95beb115c9050c', 'detail_info': {'type': 'life', 'detail_url': 'http://api.map.baidu.com/place/detail?uid=ce2064b80b95beb115c9050c&output=html&source=placeapi_v2', 'image_num': '1', 'children': [], 'lat': 32.04490776869985, 'lng': 118.72727778932027}}"
"{'name': '女洗手间', 'location': {'lat': 32.04716677511198, 'lng': 118.72407544450665}, 'address': '南京市鼓楼区清江路99号苏宁环球商贸城F1', 'province': '江苏省', 'city': '南京市', 'area': '鼓楼区', 'detail': 1, 'uid': '954b522ef804d0ed08f5eb88', 'detail_info': {'tag': '生活服务;公共厕所', 'type': 'life', 'detail_url': 'http://api.map.baidu.com/place/detail?uid=954b522ef804d0ed08f5eb88&output=html&source=placeapi_v2', 'image_num': '1', 'children': [], 'lat': 32.04716677511198, 'lng': 118.72407544450665}}"
"{'name': '德佑(河西万达店)', 'location': {'lat': 32.03386917034494, 'lng': 118.72599544895914}, 'address': '南京市鼓楼区集贤路与润江路交叉路口东侧(苏宁睿城银河国际街区)', 'province': '江苏省', 'city': '南京市', 'area': '鼓楼区', 'detail': 1, 'uid': '4a133dfe81056fb3f02d832a', 'detail_info': {'tag': '生活服务;房产中介机构', 'type': 'life', 'detail_url': 'http://api.map.baidu.com/place/detail?uid=4a133dfe81056fb3f02d832a&output=html&source=placeapi_v2', 'overall_rating': '0.0', 'image_num': '8', 'comment_num': '1', 'children': [], 'lat': 32.03386917034494, 'lng': 118.72599544895914}}"
"{'name': '祥生地产', 'location': {'lat': 32.034286910683946, 'lng': 118.71703982153224}, 'address': '集庆门大街苏宁慧谷E7-1号楼6楼', 'province': '江苏省', 'city': '南京市', 'area': '鼓楼区', 'detail': 1, 'uid': '97b26342108ee755ae31e590', 'detail_info': {'tag': '生活服务;房产中介机构', 'type': 'life', 'detail_url': 'http://api.map.baidu.com/place/detail?uid=97b26342108ee755ae31e590&output=html&source=placeapi_v2', 'image_num': '1', 'children': [], 'lat': 32.034286910683946, 'lng': 118.71703982153224}}"
"{'name': '我爱我家(银城花园店)', 'location': {'lat': 32.054028907312684, 'lng': 118.72616458541368}, 'address': '江苏省南京市鼓楼区银城花园125号101', 'province': '江苏省', 'city': '南京市', 'area': '鼓楼区', 'street_id': 'dd90826c3abb8a7c28d7ab98', 'telephone': '(025)83078730', 'detail': 1, 'uid': 'dd90826c3abb8a7c28d7ab98', 'detail_info': {'tag': '生活服务;房产中介机构', 'type': 'life', 'detail_url': 'http://api.map.baidu.com/place/detail?uid=dd90826c3abb8a7c28d7ab98&output=html&source=placeapi_v2', 'image_num': '8', 'children': [], 'lat': 32.054028907312684, 'lng': 118.72616458541368}}"
"{'name': '链家地产(银城花园店)', 'location': {'lat': 32.054229695921926, 'lng': 118.72627207660946}, 'address': '鼓楼区银城花园101号101室', 'province': '江苏省', 'city': '南京市', 'area': '鼓楼区', 'street_id': '7d7b74f00cb75694f942b273', 'telephone': '(025)58522889', 'detail': 1, 'uid': '7d7b74f00cb75694f942b273', 'detail_info': {'tag': '生活服务;房产中介机构', 'type': 'life', 'detail_url': 'http://api.map.baidu.com/place/detail?uid=7d7b74f00cb75694f942b273&output=html&source=placeapi_v2', 'overall_rating': '3.0', 'image_num': '9', 'comment_num': '1', 'children': [], 'lat': 32.054229695921926, 'lng': 118.72627207660946}}"
"{'name': '丰巢', 'location': {'lat': 32.04099238628436, 'lng': 118.72578647952062}, 'address': '江苏省南京市鼓楼区清江南路70号', 'province': '江苏省', 'city': '南京市', 'area': '鼓楼区', 'detail': 1, 'uid': '66e90278da5360c32a02e174', 'detail_info': {'tag': '生活服务;其他', 'type': 'life', 'detail_url': 'http://api.map.baidu.com/place/detail?uid=66e90278da5360c32a02e174&output=html&source=placeapi_v2', 'image_num': '1', 'children': [], 'lat': 32.04099238628436, 'lng': 118.72578647952062}}"
"{'name': '中国福利彩票(苏宁环球商贸城店)', 'location': {'lat': 32.04704818522999, 'lng': 118.7251608272094}, 'address': '南京市鼓楼区清江路99号苏宁环球商贸城F1', 'province': '江苏省', 'city': '南京市', 'area': '鼓楼区', 'street_id': 'f3caa093187ef88aa6da39e3', 'detail': 1, 'uid': 'f3caa093187ef88aa6da39e3', 'detail_info': {'tag': '生活服务;彩票销售点', 'indoor_floor': 'F1', 'type': 'life', 'detail_url': 'http://api.map.baidu.com/place/detail?uid=f3caa093187ef88aa6da39e3&output=html&source=placeapi_v2', 'image_num': '3', 'children': [], 'lat': 32.04704818522999, 'lng': 118.7251608272094}}"
"{'name': '旅游百事通(清凉门大街营业部)', 'location': {'lat': 32.049087042773806, 'lng': 118.72688437726174}, 'address': '清凉门大街292号', 'province': '江苏省', 'city': '南京市', 'area': '鼓楼区', 'street_id': 'ca1ffcb1448774c425d2bbce', 'telephone': '18963617766', 'detail': 1, 'uid': 'ca1ffcb1448774c425d2bbce', 'detail_info': {'tag': '公司企业;公司', 'type': 'enterprise', 'detail_url': 'http://api.map.baidu.com/place/detail?uid=ca1ffcb1448774c425d2bbce&output=html&source=placeapi_v2', 'children': [], 'lat': 32.049087042773806, 'lng': 118.72688437726174}}"
"{'name': '江苏金证通资产评估', 'location': {'lat': 32.033753009459154, 'lng': 118.71814469397727}, 'address': '集庆门大街苏宁慧谷E7-02栋11F1104-1105', 'province': '江苏省', 'city': '南京市', 'area': '鼓楼区', 'detail': 1, 'uid': '82ebc3690a56ff7715a190f2', 'detail_info': {'tag': '公司企业;公司', 'type': 'enterprise', 'detail_url': 'http://api.map.baidu.com/place/detail?uid=82ebc3690a56ff7715a190f2&output=html&source=placeapi_v2', 'children': [], 'lat': 32.033753009459154, 'lng': 118.71814469397727}}"
"{'name': '苏宁环球商贸城-楼梯', 'location': {'lat': 32.046122424563464, 'lng': 118.72506514801863}, 'address': '南京市鼓楼区清江路99号苏宁环球商贸城F2', 'province': '江苏省', 'city': '南京市', 'area': '鼓楼区', 'street_id': '568024d26d17eb8014948e2a', 'detail': 1, 'uid': '568024d26d17eb8014948e2a', 'detail_info': {'tag': '生活服务;其他', 'navi_location': {'lng': 118.73723909781, 'lat': 32.050953094596}, 'indoor_floor': 'F2', 'type': 'life', 'detail_url': 'http://api.map.baidu.com/place/detail?uid=568024d26d17eb8014948e2a&output=html&source=placeapi_v2', 'image_num': '1', 'children': [], 'lat': 32.046122424563464, 'lng': 118.72506514801863}}"
"{'name': '苏宁环球商贸城-直梯(货梯)', 'location': {'lat': 32.04625287215475, 'lng': 118.72464642406776}, 'address': '南京市鼓楼区清江路99号苏宁环球商贸城F2', 'province': '江苏省', 'city': '南京市', 'area': '鼓楼区', 'street_id': 'f80b29f9c7a1497fe6e96578', 'detail': 1, 'uid': 'f80b29f9c7a1497fe6e96578', 'detail_info': {'tag': '生活服务;其他', 'navi_location': {'lng': 118.73723909781, 'lat': 32.050953094596}, 'indoor_floor': 'F2', 'type': 'life', 'detail_url': 'http://api.map.baidu.com/place/detail?uid=f80b29f9c7a1497fe6e96578&output=html&source=placeapi_v2', 'image_num': '1', 'children': [], 'lat': 32.04625287215475, 'lng': 118.72464642406776}}"
"{'name': '苏宁环球商贸城-楼梯', 'location': {'lat': 32.04580159828871, 'lng': 118.72484623341735},