[{"name": "\u62db\u5546\u94f6\u884c(\u5965\u4f53\u652f\u884c)", "location": {"lat": 32.02060683692089, "lng": 118.72074282527379}, "address": "\u5174\u9686\u5927\u8857188-5\u53f72\u697c", "province": "\u6c5f\u82cf\u7701", "city": "\u5357\u4eac\u5e02", "area": "\u5efa\u90ba\u533a", "street_id": "c5ddcc087f4b08b8d81318f0", "telephone": "(025)89617998,(025)89617961", "detail": 1, "uid": "c5ddcc087f4b08b8d81318f0", "detail_info": {"tag": "\u91d1\u878d;\u94f6\u884c", "navi_location": {"lng": 118.73241541641, "lat": 32.024068332969}, "type": "life", "detail_url": "http://api.map.baidu.com/place/detail?uid=c5ddcc087f4b08b8d81318f0&output=html&source=placeapi_v2", "overall_rating": "4.1", "image_num": "15", "comment_num": "18", "children": [], "lat": 32.02060683692089, "lng": 118.72074282527379}}, {"name": "\u4ea4\u901a\u94f6\u884c(\u5357\u4eac\u6c5f\u4e1c\u4e2d\u8def\u652f\u884c)", "location": {"lat": 32.007014894136766, "lng": 118.72576201412735}, "address": "\u5357\u4eac\u5e02\u5efa\u90ba\u533a\u6c5f\u4e1c\u4e2d\u8def\u4e0e\u7261\u4e39\u6c5f\u8857\u4ea4\u53c9\u8def\u53e3\u5f80\u5357\u7ea6100\u7c73(\u5357\u4eac\u5e02\u653f\u670d\u52a1\u5927\u5385)", "province": "\u6c5f\u82cf\u7701", "city": "\u5357\u4eac\u5e02", "area": "\u5efa\u90ba\u533a", "telephone": "(025)85367627,(025)85363795", "detail": 1, "uid": "c560252f359d94eb9122e01d", "detail_info": {"tag": "\u91d1\u878d;\u94f6\u884c", "type": "life", "detail_url": "http://api.map.baidu.com/place/detail?uid=c560252f359d94eb9122e01d&output=html&source=placeapi_v2", "overall_rating": "3.0", "image_num": "1", "comment_num": "2", "children": [], "lat": 32.007014894136766, "lng": 118.72576201412735}}, {"name": "\u4e2d\u56fd\u6c11\u751f\u94f6\u884c(\u5357\u4eac\u5efa\u90ba\u652f\u884c)", "location": {"lat": 32.019623151043454, "lng": 118.72104100062504}, "address": "\u6c5f\u82cf\u7701\u5357\u4eac\u5e02\u5efa\u90ba\u533a\u5174\u9686\u5927\u8857187\u53f7", "province": "\u6c5f\u82cf\u7701", "city": "\u5357\u4eac\u5e02", "area": "\u5efa\u90ba\u533a", "street_id": "15ad4e84edc657025e0d028f", "telephone": "(025)84098818", "detail": 1, "uid": "15ad4e84edc657025e0d028f", "detail_info": {"tag": "\u91d1\u878d;\u94f6\u884c", "navi_location": {"lng": 118.73313242411, "lat": 32.02315842528}, "type": "life", "detail_url": "http://api.map.baidu.com/place/detail?uid=15ad4e84edc657025e0d028f&output=html&source=placeapi_v2", "overall_rating": "4.0", "image_num": "3", "comment_num": "6", "children": [], "lat": 32.019623151043454, "lng": 118.72104100062504}}, {"name": "\u4e0a\u6d77\u94f6\u884c(\u5357\u4eac\u5efa\u90ba\u652f\u884c)", "location": {"lat": 32.014726583029855, "lng": 118.72224561880155}, "address": "\u6c5f\u82cf\u7701\u5357\u4eac\u5e02\u5efa\u90ba\u533a\u68a6\u90fd\u5927\u8857150\u53f7", "province": "\u6c5f\u82cf\u7701", "city": "\u5357\u4eac\u5e02", "area": "\u5efa\u90ba\u533a", "street_id": "a2aa128f5b8b4087a2046487", "telephone": "(025)89611278", "detail": 1, "uid": "a2aa128f5b8b4087a2046487", "detail_info": {"tag": "\u91d1\u878d;\u94f6\u884c", "navi_location": {"lng": 118.73443824052, "lat": 32.018532026463}, "type": "life", "detail_url": "http://api.map.baidu.com/place/detail?uid=a2aa128f5b8b4087a2046487&output=html&source=placeapi_v2", "overall_rating": "5.0", "image_num": "5", "comment_num": "3", "children": [], "lat": 32.014726583029855, "lng": 118.72224561880155}}, {"name": "\u4e2d\u56fd\u5efa\u8bbe\u94f6\u884c(\u5357\u4eac\u5965\u4f53\u652f\u884c)", "location": {"lat": 32.01727418620939, "lng": 118.71608738129515}, "address": "\u6c5f\u82cf\u7701\u5357\u4eac\u5e02\u5efa\u90ba\u533a\u68a6\u90fd\u5927\u8857176\u53f7", "province": "\u6c5f\u82cf\u7701", "city": "\u5357\u4eac\u5e02", "area": "\u5efa\u90ba\u533a", "street_id": "3ad5a4488684f91c3362126c", "detail": 1, "uid": "3ad5a4488684f91c3362126c", "detail_info": {"tag": "\u91d1\u878d;\u94f6\u884c", "navi_location": {"lng": 118.72793539077, "lat": 32.021008805887}, "type": "life", "detail_url": "http://api.map.baidu.com/place/detail?uid=3ad5a4488684f91c3362126c&output=html&source=placeapi_v2", "overall_rating": "1.3", "image_num": "8", "comment_num": "3", "children": [], "lat": 32.01727418620939, "lng": 118.71608738129515}}, {"name": "\u7d2b\u91d1\u519c\u5546\u94f6\u884c(\u6cb3\u897f\u652f\u884c)", "location": {"lat": 32.01392208658033, "lng": 118.72360845616585}, "address": "\u5357\u4eac\u5e02\u5efa\u90ba\u533a\u68a6\u90fd\u5927\u8857136\u53f7", "province": "\u6c5f\u82cf\u7701", "city": "\u5357\u4eac\u5e02", "area": "\u5efa\u90ba\u533a", "street_id": "0d387c1b5c7aa8e16fc02c48", "telephone": "(025)86808666", "detail": 1, "uid": "0d387c1b5c7aa8e16fc02c48", "detail_info": {"tag": "\u91d1\u878d;\u94f6\u884c", "navi_location": {"lng": 118.73504585527, "lat": 32.017224429844}, "type": "life", "detail_url": "http://api.map.baidu.com/place/detail?uid=0d387c1b5c7aa8e16fc02c48&output=html&source=placeapi_v2", "overall_rating": "3.9", "image_num": "2", "comment_num": "9", "children": [], "lat": 32.01392208658033, "lng": 118.72360845616585}}, {"name": "\u5357\u4eac\u94f6\u884c(\u5357\u4eac\u5206\u884c\u4e50\u5c71\u8def\u652f\u884c)", "location": {"lat": 32.01680249639058, "lng": 118.71549977027834}, "address": "\u6c5f\u82cf\u7701\u5357\u4eac\u5e02\u5efa\u90ba\u533a\u68a6\u90fd\u5927\u8857176-121\u53f7", "province": "\u6c5f\u82cf\u7701", "city": "\u5357\u4eac\u5e02", "area": "\u5efa\u90ba\u533a", "street_id": "1c5f85215b269af9c9c3db12", "detail": 1, "uid": "1c5f85215b269af9c9c3db12", "detail_info": {"tag": "\u91d1\u878d;\u94f6\u884c", "navi_location": {"lng": 118.72728845449, "lat": 32.02068670329}, "type": "life", "detail_url": "http://api.map.baidu.com/place/detail?uid=1c5f85215b269af9c9c3db12&output=html&source=placeapi_v2", "overall_rating": "4.0", "image_num": "16", "comment_num": "6", "children": [], "lat": 32.01680249639058, "lng": 118.71549977027834}}, {"name": "\u6052\u4e30\u94f6\u884c(\u5357\u4eac\u6cb3\u897f\u652f\u884c)", "location": {"lat": 32.0235060147385, "lng": 118.7209920152587}, "address": "\u6c5f\u82cf\u7701\u5357\u4eac\u5e02\u5efa\u90ba\u533a\u6708\u5b89\u885736\u53f7", "province": "\u6c5f\u82cf\u7701", "city": "\u5357\u4eac\u5e02", "area": "\u5efa\u90ba\u533a", "street_id": "6cbbb36f88902dba41d63e63", "telephone": "(025)86827610", "detail": 1, "uid": "6cbbb36f88902dba41d63e63", "detail_info": {"tag": "\u91d1\u878d;\u94f6\u884c", "navi_location": {"lng": 118.73266838823, "lat": 32.027039101346}, "type": "life", "detail_url": "http://api.map.baidu.com/place/detail?uid=6cbbb36f88902dba41d63e63&output=html&source=placeapi_v2", "overall_rating": "4.0", "image_num": "5", "comment_num": "4", "children": [], "lat": 32.0235060147385, "lng": 118.7209920152587}}, {"name": "\u5229\u5b89\u4eba\u5bff", "location": {"lat": 32.01002918185854, "lng": 118.72738459396771}, "address": "\u6c5f\u4e1c\u4e2d\u8def235\u53f7\u96e8\u6da6\u56fd\u9645\u5e7f\u573aB1\u697c8-13\u5c42\u300115-16\u5c42", "province": "\u6c5f\u82cf\u7701", "city": "\u5357\u4eac\u5e02", "area": "\u5efa\u90ba\u533a", "street_id": "2afd78121dd2c6505bf6be5f", "telephone": "(025)86785555", "detail": 1, "uid": "2afd78121dd2c6505bf6be5f", "detail_info": {"tag": "\u91d1\u878d;\u6295\u8d44\u7406\u8d22", "navi_location": {"lng": 118.73871783986, "lat": 32.013475319369}, "type": "life", "detail_url": "http://api.map.baidu.com/place/detail?uid=2afd78121dd2c6505bf6be5f&output=html&source=placeapi_v2", "overall_rating": "4.0", "image_num": "4", "comment_num": "1", "children": [], "lat": 32.01002918185854, "lng": 118.72738459396771}}, {"name": "\u4e2d\u56fd\u4eba\u5bff\u4fdd\u9669(\u5357\u4eac\u5e02\u4e2d\u5fc3\u652f\u516c\u53f8)", "location": {"lat": 32.01948168223587, "lng": 118.72399822211456}, "address": "\u6c5f\u82cf\u7701\u5357\u4eac\u5e02\u5efa\u90ba\u533a\u5174\u9686\u5927\u8857170-1\u53f7", "province": "\u6c5f\u82cf\u7701", "city": "\u5357\u4eac\u5e02", "area": "\u5efa\u90ba\u533a", "street_id": "dbf39d75cae23d00210262d7", "telephone": "(025)68165692", "detail": 1, "uid": "dbf39d75cae23d00210262d7", "detail_info": {"tag": "\u91d1\u878d;\u6295\u8d44\u7406\u8d22", "navi_location": {"lng": 118.73578818889, "lat": 32.022833178155}, "type": "life", "detail_url": "http://api.map.baidu.com/place/detail?uid=dbf39d75cae23d00210262d7&output=html&source=placeapi_v2", "overall_rating": "0.0", "image_num": "10", "comment_num": "1", "children": [], "lat": 32.01948168223587, "lng": 118.72399822211456}}, {"name": "\u5174\u4e1a\u94f6\u884c(\u6d77\u68e0\u56ed\u793e\u533a\u652f\u884c)", "location": {"lat": 32.02065162852336, "lng": 118.71885261326068}, "address": "\u6c5f\u82cf\u7701\u5357\u4eac\u5e02\u5efa\u90ba\u533a\u5174\u9686\u5927\u8857203-5\u53f7", "province": "\u6c5f\u82cf\u7701", "city": "\u5357\u4eac\u5e02", "area": "\u5efa\u90ba\u533a", "street_id": "c64f1b0007d002780d3dda5a", "telephone": "(025)87795979", "detail": 1, "uid": "c64f1b0007d002780d3dda5a", "detail_info": {"tag": "\u91d1\u878d;\u94f6\u884c", "navi_location": {"lng": 118.73073952328, "lat": 32.024400958463}, "type": "life", "detail_url": "http://api.map.baidu.com/place/detail?uid=c64f1b0007d002780d3dda5a&output=html&source=placeapi_v2", "overall_rating": "5.0", "image_num": "7", "comment_num": "5", "children": [], "lat": 32.02065162852336, "lng": 118.71885261326068}}, {"name": "\u4e1c\u65b9\u8d22\u5bcc\u8bc1\u5238(\u5357\u4eac\u5174\u9686\u5927\u8857\u8425\u4e1a\u90e8)", "location": {"lat": 32.01962696872183, "lng": 118.72318518834135}, "address": "\u6c5f\u82cf\u7701\u5357\u4eac\u5e02\u5efa\u90ba\u533a\u5174\u9686\u5927\u8857170-10\u53f7", "province": "\u6c5f\u82cf\u7701", "city": "\u5357\u4eac\u5e02", "area": "\u5efa\u90ba\u533a", "street_id": "1c06a4a8643a69ab950319c2", "telephone": "(025)69783965", "detail": 1, "uid": "1c06a4a8643a69ab950319c2", "detail_info": {"tag": "\u91d1\u878d;\u6295\u8d44\u7406\u8d22", "navi_location": {"lng": 118.73483183308, "lat": 32.023387020745}, "type": "life", "detail_url": "http://api.map.baidu.com/place/detail?uid=1c06a4a8643a69ab950319c2&output=html&source=placeapi_v2", "overall_rating": "5.0", "image_num": "11", "comment_num": "6", "children": [], "lat": 32.01962696872183, "lng": 118.72318518834135}}, {"name": "\u9996\u90fd\u94f6\u884c(\u5357\u4eac\u5206\u884c)", "location": {"lat": 32.00828906998985, "lng": 118.70743514067493}, "address": "\u5357\u4eac\u5e02\u5efa\u90ba\u533a\u4e50\u5c71\u8def189\u53f7\u78a7\u7476\u82b1\u56ed32\u5e62", "province": "\u6c5f\u82cf\u7701", "city": "\u5357\u4eac\u5e02", "area": "\u5efa\u90ba\u533a", "street_id": "28f8c66f0250af075d0d023f", "telephone": "(025)89667881", "detail": 1, "uid": "28f8c66f0250af075d0d023f", "detail_info": {"tag": "\u91d1\u878d;\u94f6\u884c", "navi_location": {"lng": 118.71938450955, "lat": 32.012296233873}, "type": "life", "detail_url": "http://api.map.baidu.com/place/detail?uid=28f8c66f0250af075d0d023f&output=html&source=placeapi_v2", "overall_rating": "5.0", "image_num": "13", "comment_num": "4", "children": [], "lat": 32.00828906998985, "lng": 118.70743514067493}}, {"name": "\u6c5f\u82cf\u91d1\u8d22\u6295\u8d44\u6709\u9650\u516c\u53f8", "location": {"lat": 32.01381268303314, "lng": 118.72388744486383}, "address": "\u6c5f\u82cf\u7701\u5357\u4eac\u5e02\u5efa\u90ba\u533a\u68a6\u90fd\u5927\u8857136\u53f7\u91d1\u8d22\u5927\u697c", "province": "\u6c5f\u82cf\u7701", "city": "\u5357\u4eac\u5e02", "area": "\u5efa\u90ba\u533a", "telephone": "(025)86385959", "detail": 1, "uid": "6d2b1de7af8bbb38d8ecedd2", "detail_info": {"tag": "\u91d1\u878d;\u6295\u8d44\u7406\u8d22", "type": "life", "detail_url": "http://api.map.baidu.com/place/detail?uid=6d2b1de7af8bbb38d8ecedd2&output=html&source=placeapi_v2", "overall_rating": "0.0", "image_num": "2", "comment_num": "1", "children": [], "lat": 32.01381268303314, "lng": 118.72388744486383}}, {"name": "\u6e23\u6253\u94f6\u884c(\u4e2d\u56fd\u5357\u4eac\u6cb3\u897f\u652f\u884c)", "location": {"lat": 32.00875438106374, "lng": 118.72700755050836}, "address": "\u6c5f\u4e1c\u4e2d\u8def237\u53f7\u5357\u4eac\u4e2d\u592e\u5546\u573a\u6cb3\u897f\u5e971F-15-1", "province": "\u6c5f\u82cf\u7701", "city": "\u5357\u4eac\u5e02", "area": "\u5efa\u90ba\u533a", "street_id": "c96751c6397cbc00f33cba54", "telephone": "(025)83763788", "detail": 1, "uid": "c96751c6397cbc00f33cba54", "detail_info": {"tag": "\u91d1\u878d;\u94f6\u884c", "type": "life", "detail_url": "http://api.map.baidu.com/place/detail?uid=c96751c6397cbc00f33cba54&output=html&source=placeapi_v2", "image_num": "4", "children": [], "lat": 32.00875438106374, "lng": 118.72700755050836}}, {"name": "\u6c5f\u82cf\u534e\u590f\u6295\u8d44\u5b9e\u4e1a\u6709\u9650\u516c\u53f8", "location": {"lat": 32.0091012835423, "lng": 118.71670722252279}, "address": "\u6c5f\u82cf\u7701\u5357\u4eac\u5e02\u5efa\u90ba\u533a\u6e05\u6c5f\u5357\u8def89\u53f7\u5357\u5927\u82cf\u5bcc\u7279\u79d1\u6280\u521b\u65b0\u56ed5F", "province": "\u6c5f\u82cf\u7701", "city": "\u5357\u4eac\u5e02", "area": "\u5efa\u90ba\u533a", "detail": 1, "uid": "3813bb48ca3eee64afee7a88", "detail_info": {"tag": "\u91d1\u878d;\u6295\u8d44\u7406\u8d22", "type": "life", "detail_url": "http://api.map.baidu.com/place/detail?uid=3813bb48ca3eee64afee7a88&output=html&source=placeapi_v2", "image_num": "1", "children": [], "lat": 32.0091012835423, "lng": 118.71670722252279}}, {"name": "\u91d1\u8475\u82b1\u7406\u8d22\u4e2d\u5fc3", "location": {"lat": 32.020483334639955, "lng": 118.7208733115451}, "address": "\u5174\u9686\u5927\u8857188-5\u53f72\u697c", "province": "\u6c5f\u82cf\u7701", "city": "\u5357\u4eac\u5e02", "area": "\u5efa\u90ba\u533a", "street_id": "b1dd7a0b8ebf24f416c9051a", "detail": 1, "uid": "b1dd7a0b8ebf24f416c9051a", "detail_info": {"tag": "\u91d1\u878d;\u6295\u8d44\u7406\u8d22", "navi_location": {"lng": 118.73253861362, "lat": 32.024025888746}, "type": "life", "detail_url": "http://api.map.baidu.com/place/detail?uid=b1dd7a0b8ebf24f416c9051a&output=html&source=placeapi_v2", "image_num": "4", "children": [], "lat": 32.020483334639955, "lng": 118.7208733115451}}, {"name": "\u7d2b\u91d1\u519c\u5546\u94f6\u884c(\u6c5f\u5fc3\u6d32\u652f\u884c)", "location": {"lat": 32.02754959969731, "lng": 118.70026753494926}, "address": "\u6c5f\u82cf\u7701\u5357\u4eac\u5e02\u5efa\u90ba\u533a\u6c5f\u5c9b\u65b0\u5929\u5730\u73af\u5c9b\u4e1c\u8def99\u53f7", "province": "\u6c5f\u82cf\u7701", "city": "\u5357\u4eac\u5e02", "area": "\u5efa\u90ba\u533a", "street_id": "4b3537de90d145df79f796b6", "detail": 1, "uid": "4b3537de90d145df79f796b6", "detail_info": {"tag": "\u91d1\u878d;\u4fe1\u7528\u793e", "navi_location": {"lng": 118.71173826275, "lat": 32.031695659746}, "detail_url": "http://api.map.baidu.com/place/detail?uid=4b3537de90d145df79f796b6&output=html&source=placeapi_v2", "children": [], "lat": 32.02754959969731, "lng": 118.70026753494926}}, {"name": "\u81fb\u715c\u6295\u8d44(\u81fb\u820d\u8d44\u672c)", "location": {"lat": 32.01153716868995, "lng": 118.70283885301602}, "address": "\u626c\u5b50\u6c5f\u5927\u9053\u4e07\u666f\u56ed\u8def8\u53f7\u91d1\u9675\u6c5f\u6ee8\u9152\u5e972\u53f7\u522b\u5885", "province": "\u6c5f\u82cf\u7701", "city": "\u5357\u4eac\u5e02", "area": "\u5efa\u90ba\u533a", "street_id": "b17e1810ed0271d18bfc06d6", "detail": 1, "uid": "b17e1810ed0271d18bfc06d6", "detail_info": {"tag": "\u91d1\u878d;\u6295\u8d44\u7406\u8d22", "type": "life", "detail_url": "http://api.map.baidu.com/place/detail?uid=b17e1810ed0271d18bfc06d6&output=html&source=placeapi_v2", "image_num": "1", "children": [], "lat": 32.01153716868995, "lng": 118.70283885301602}}, {"name": "\u9633\u5149\u4fdd\u9669", "location": {"lat": 32.010995966301294, "lng": 118.71721956449022}, "address": "\u6c5f\u82cf\u7701\u5357\u4eac\u5e02\u5efa\u90ba\u533a\u6cb3\u897f\u4e2d\u592e\u5546\u52a1\u533a\u4e2d\u6cf0\u56fd\u9645\u5e7f\u573a315\u53f76\u680b", "province": "\u6c5f\u82cf\u7701", "city": "\u5357\u4eac\u5e02", "area": "\u5efa\u90ba\u533a", "detail": 1, "uid": "7ec05a19bfba87743b13fd8d", "detail_info": {"tag": "\u91d1\u878d;\u6295\u8d44\u7406\u8d22", "type": "life", "detail_url": "http://api.map.baidu.com/place/detail?uid=7ec05a19bfba87743b13fd8d&output=html&source=placeapi_v2", "image_num": "1", "children": [], "lat": 32.010995966301294, "lng": 118.71721956449022}}, {"name": "\u4ea4\u901a\u94f6\u884cATM(\u6c5f\u4e1c\u4e2d\u8def\u5e97)", "location": {"lat": 32.00703939843692, "lng": 118.72569722336584}, "address": "\u6c5f\u82cf\u7701\u5357\u4eac\u5e02\u5efa\u90ba\u533a\u6c5f\u4e1c\u4e2d\u8def265\u53f7", "province": "\u6c5f\u82cf\u7701", "city": "\u5357\u4eac\u5e02", "area": "\u5efa\u90ba\u533a", "street_id": "0e8d785220e95e2421f017f2", "detail": 1, "uid": "0e8d785220e95e2421f017f2", "detail_info": {"tag": "\u91d1\u878d;atm", "navi_location": {"lng": 118.73559866439, "lat": 32.010138146973}, "type": "life", "detail_url": "http://api.map.baidu.com/place/detail?uid=0e8d785220e95e2421f017f2&output=html&source=placeapi_v2", "image_num": "1", "children": [], "lat": 32.00703939843692, "lng": 118.72569722336584}}, {"name": "\u6c5f\u82cf\u76db\u5803\u6295\u8d44\u7ba1\u7406\u6709\u9650\u516c\u53f8", "location": {"lat": 32.013807218685265, "lng": 118.72383762832722}, "address": "\u6c5f\u82cf\u7701\u5357\u4eac\u5e02\u5efa\u90ba\u533a\u68a6\u90fd\u5927\u8857136\u53f7301\u5ba4", "province": "\u6c5f\u82cf\u7701", "city": "\u5357\u4eac\u5e02", "area": "\u5efa\u90ba\u533a", "detail": 1, "uid": "123d8aee9a7d1b9f5b109335", "detail_info": {"tag": "\u91d1\u878d;\u6295\u8d44\u7406\u8d22", "type": "life", "detail_url": "http://api.map.baidu.com/place/detail?uid=123d8aee9a7d1b9f5b109335&output=html&source=placeapi_v2", "image_num": "1", "children": [], "lat": 32.013807218685265, "lng": 118.72383762832722}}, {"name": "\u9633\u5149\u667a\u6052\u4fdd\u9669\u516c\u4f30\u6709\u9650\u516c\u53f8", "location": {"lat": 32.02698827741274, "lng": 118.72686216710056}, "address": "\u5357\u82d1\u8857\u9053\u71d5\u5c71\u8def118\u53f7\u957f\u6c5f\u4e4b\u5bb6\u4e8c\u697c", "province": "\u6c5f\u82cf\u7701", "city": "\u5357\u4eac\u5e02", "area": "\u5efa\u90ba\u533a", "telephone": "(025)87781889", "detail": 1, "uid": "69fd8c610094add9d8ecedd4", "detail_info": {"tag": "\u91d1\u878d;\u6295\u8d44\u7406\u8d22", "type": "life", "detail_url": "http://api.map.baidu.com/place/detail?uid=69fd8c610094add9d8ecedd4&output=html&source=placeapi_v2", "image_num": "1", "children": [], "lat": 32.02698827741274, "lng": 118.72686216710056}}, {"name": "\u4e2d\u56fd\u5efa\u8bbe\u94f6\u884c24\u5c0f\u65f6\u81ea\u52a9\u94f6\u884c", "location": {"lat": 32.01907606069161, "lng": 118.72340759408009}, "address": "\u6c5f\u82cf\u7701\u5357\u4eac\u5e02\u5efa\u90ba\u533a\u5174\u9686\u5927\u8857173\u53f7\u9644\u8fd1", "province": "\u6c5f\u82cf\u7701", "city": "\u5357\u4eac\u5e02", "area": "\u5efa\u90ba\u533a", "detail": 1, "uid": "ad4ff9db0792009d7369d314", "detail_info": {"tag": "\u91d1\u878d;atm", "type": "life", "detail_url": "http://api.map.baidu.com/place/detail?uid=ad4ff9db0792009d7369d314&output=html&source=placeapi_v2", "overall_rating": "5.0", "image_num": "3", "comment_num": "1", "children": [], "lat": 32.01907606069161, "lng": 118.72340759408009}}, {"name": "\u4e2d\u56fd\u5efa\u8bbe\u94f6\u884c24\u5c0f\u65f6\u81ea\u52a9\u94f6\u884c(\u5357\u4eac\u5965\u4f53\u652f\u884c)", "location": {"lat": 32.01722834140718, "lng": 118.71602971142454}, "address": "\u4e50\u5c71\u8def170\u9644\u8fd1", "province": "\u6c5f\u82cf\u7701", "city": "\u5357\u4eac\u5e02", "area": "\u5efa\u90ba\u533a", "street_id": "b2819e2eed5c6c5208f5eb48", "detail": 1, "uid": "b2819e2eed5c6c5208f5eb48", "detail_info": {"tag": "\u91d1\u878d;atm", "type": "life", "detail_url": "http://api.map.baidu.com/place/detail?uid=b2819e2eed5c6c5208f5eb48&output=html&source=placeapi_v2", "image_num": "2", "children": [], "lat": 32.01722834140718, "lng": 118.71602971142454}}, {"name": "\u6e24\u6d77\u671f\u8d27", "location": {"lat": 32.010990365232665, "lng": 118.71724841411711}, "address": "\u6c5f\u82cf\u7701\u5357\u4eac\u5e02\u5efa\u90ba\u533a\u6cb3\u897f\u4e2d\u592e\u5546\u52a1\u533a\u8054\u5f3a\u56fd\u9645\u5927\u53a6", "province": "\u6c5f\u82cf\u7701", "city": "\u5357\u4eac\u5e02", "area": "\u5efa\u90ba\u533a", "detail": 1, "uid": "c329b0710f73cb7954bfff0f", "detail_info": {"tag": "\u91d1\u878d;\u6295\u8d44\u7406\u8d22", "type": "life", "detail_url": "http://api.map.baidu.com/place/detail?uid=c329b0710f73cb7954bfff0f&output=html&source=placeapi_v2", "image_num": "1", "children": [], "lat": 32.010990365232665, "lng": 118.71724841411711}}, {"name": "\u5357\u4eac\u4f70\u6613\u8fbe\u6295\u8d44\u7ba1\u7406\u6709\u9650\u516c\u53f8", "location": {"lat": 32.014884017559936, "lng": 118.72200158625176}, "address": "\u68a6\u90fd\u5927\u8857150\u53f7\u5efa\u7b51\u5e08\u5de5\u793e710\u5ba4", "province": "\u6c5f\u82cf\u7701", "city": "\u5357\u4eac\u5e02", "area": "\u5efa\u90ba\u533a", "detail": 1, "uid": "7b18493c7aaf8d77fe0eb09c", "detail_info": {"tag": "\u91d1\u878d;\u6295\u8d44\u7406\u8d22", "detail_url": "http://api.map.baidu.com/place/detail?uid=7b18493c7aaf8d77fe0eb09c&output=html&source=placeapi_v2", "children": [], "lat": 32.014884017559936, "lng": 118.72200158625176}}, {"name": "\u4e2d\u5dde\u671f\u8d27", "location": {"lat": 32.02067665245716, "lng": 118.72038638755318}, "address": "\u6c5f\u82cf\u7701\u5357\u4eac\u5e02\u5efa\u90ba\u533a\u5174\u9686\u5927\u8857188\u53f78\u697c", "province": "\u6c5f\u82cf\u7701", "city": "\u5357\u4eac\u5e02", "area": "\u5efa\u90ba\u533a", "detail": 1, "uid": "7525b34a4e4becd9dfee8b93", "detail_info": {"tag": "\u91d1\u878d;\u6295\u8d44\u7406\u8d22", "type": "life", "detail_url": "http://api.map.baidu.com/place/detail?uid=7525b34a4e4becd9dfee8b93&output=html&source=placeapi_v2", "image_num": "1", "children": [], "lat": 32.02067665245716, "lng": 118.72038638755318}}, {"name": "\u6377\u987a\u6295\u8d44\u62c5\u4fdd\u6709\u9650\u516c\u53f8", "location": {"lat": 32.014884017559936, "lng": 118.72200158625176}, "address": "\u68a6\u90fd\u5927\u8857150\u53f7\u5efa\u7b51\u5e08\u5de5\u793e603\u5ba4", "province": "\u6c5f\u82cf\u7701", "city": "\u5357\u4eac\u5e02", "area": "\u5efa\u90ba\u533a", "detail": 1, "uid": "32dcabb52a8dada8616858b4", "detail_info": {"tag": "\u91d1\u878d;\u6295\u8d44\u7406\u8d22", "type": "life", "detail_url": "http://api.map.baidu.com/place/detail?uid=32dcabb52a8dada8616858b4&output=html&source=placeapi_v2", "image_num": "1", "children": [], "lat": 32.014884017559936, "lng": 118.72200158625176}}, {"name": "\u5357\u4eac\u4e00\u9897\u677e\u6295\u8d44\u7ba1\u7406\u6709\u9650\u516c\u53f8", "location": {"lat": 32.00917248466234, "lng": 118.71664953489865}, "address": "\u6c5f\u4e1c\u4e2d\u8def222\u53f7\u79d1\u6280\u4e2d\u5fc3\u5927\u697c7\u5c427028\u30017030", "province": "\u6c5f\u82cf\u7701", "city": "\u5357\u4eac\u5e02", "area": "\u5efa\u90ba\u533a", "detail": 1, "uid": "1a62520e70e56d8088fc0696", "detail_info": {"tag": "\u91d1\u878d;\u6295\u8d44\u7406\u8d22", "type": "life", "detail_url": "http://api.map.baidu.com/place/detail?uid=1a62520e70e56d8088fc0696&output=html&source=placeapi_v2", "image_num": "1", "children": [], "lat": 32.00917248466234, "lng": 118.71664953489865}}, {"name": "\u62db\u5546\u94f6\u884c24\u5c0f\u65f6\u81ea\u52a9\u670d\u52a1(\u5965\u4f53\u652f\u884c)", "location": {"lat": 32.02061959489493, "lng": 118.7207219115952}, "address": "\u5174\u9686\u5927\u8857188\u53f7", "province": "\u6c5f\u82cf\u7701", "city": "\u5357\u4eac\u5e02", "area": "\u5efa\u90ba\u533a", "street_id": "e9ec1936dfe9e6859e82ea99", "detail": 1, "uid": "e9ec1936dfe9e6859e82ea99", "detail_info": {"tag": "\u91d1\u878d;atm", "navi_location": {"lng": 118.73236628449, "lat": 32.024149959646}, "type": "life", "detail_url": "http://api.map.baidu.com/place/detail?uid=e9ec1936dfe9e6859e82ea99&output=html&source=placeapi_v2", "overall_rating": "0.0", "image_num": "9", "comment_num": "3", "children": [], "lat": 32.02061959489493, "lng": 118.7207219115952}}, {"name": "\u4e2d\u56fd\u519c\u4e1a\u94f6\u884c24\u5c0f\u65f6\u81ea\u52a9\u94f6\u884c\u670d\u52a1(\u5357\u4eac\u5174\u9686\u5927\u8857\u652f\u884c)", "location": {"lat": 32.01943971048484, "lng": 118.7223734760815}, "address": "\u5357\u4eac\u5e02\u5efa\u90ba\u533a\u5174\u9686\u5927\u8857175-9", "province": "\u6c5f\u82cf\u7701", "city": "\u5357\u4eac\u5e02", "area": "\u5efa\u90ba\u533a", "street_id": "100fbf8a1ee805f54354d763", "detail": 1, "uid": "100fbf8a1ee805f54354d763", "detail_info": {"tag": "\u91d1\u878d;atm", "navi_location": {"lng": 118.73411049286, "lat": 32.023137027847}, "type": "life", "detail_url": "http://api.map.baidu.com/place/detail?uid=100fbf8a1ee805f54354d763&output=html&source=placeapi_v2", "overall_rating": "4.0", "image_num": "8", "comment_num": "4", "children": [], "lat": 32.01943971048484, "lng": 118.7223734760815}}, {"name": "\u4e0a\u6d77\u94f6\u884c24\u5c0f\u65f6\u81ea\u52a9\u94f6\u884c(\u5357\u4eac\u5efa\u90ba\u652f\u884c)", "location": {"lat": 32.01471459248917, "lng": 118.72205838975232}, "address": "\u5357\u4eac\u5e02\u5efa\u90ba\u533a\u68a6\u90fd\u5927\u8857150\u53f7\u5efa\u7b51\u5e08\u5de5\u793e\u5185", "province": "\u6c5f\u82cf\u7701", "city": "\u5357\u4eac\u5e02", "area": "\u5efa\u90ba\u533a", "street_id": "03b536b655b3bc5dd1f49e90", "detail": 1, "uid": "03b536b655b3bc5dd1f49e90", "detail_info": {"tag": "\u91d1\u878d;atm", "navi_location": {"lng": 118.73379127011, "lat": 32.018352394861}, "type": "life", "detail_url": "http://api.map.baidu.com/place/detail?uid=03b536b655b3bc5dd1f49e90&output=html&source=placeapi_v2", "overall_rating": "5.0", "image_num": "12", "comment_num": "5", "children": [], "lat": 32.01471459248917, "lng": 118.72205838975232}}, {"name": "\u4e2d\u56fd\u6c11\u751f\u94f6\u884c24\u5c0f\u65f6\u81ea\u52a9\u94f6\u884c(\u5357\u4eac\u5efa\u90ba\u652f\u884c)", "location": {"lat": 32.019636675457534, "lng": 118.72108679420532}, "address": "\u5174\u9686\u5927\u8857196-8\u53f7", "province": "\u6c5f\u82cf\u7701", "city": "\u5357\u4eac\u5e02", "area": "\u5efa\u90ba\u533a", "street_id": "d4b34758b6ecc8b0c91b9573", "detail": 1, "uid": "d4b34758b6ecc8b0c91b9573", "detail_info": {"tag": "\u91d1\u878d;atm", "type": "life", "detail_url": "http://api.map.baidu.com/place/detail?uid=d4b34758b6ecc8b0c91b9573&output=html&source=placeapi_v2", "image_num": "1", "children": [], "lat": 32.019636675457534, "lng": 118.72108679420532}}, {"name": "\u4e2d\u56fd\u5171\u8d62\u6295\u8d44\u96c6\u56e2", "location": {"lat": 32.01121035610521, "lng": 118.71246641041604}, "address": "\u4e50\u5c71\u8def180\u53f7\u5bcc\u58eb\u8fbe\u7535\u68af2\u697c", "province": "\u6c5f\u82cf\u7701", "city": "\u5357\u4eac\u5e02", "area": "\u5efa\u90ba\u533a", "telephone": "(025)83113888", "detail": 1, "uid": "6fc01ab5f331f179d23ce35a", "detail_info": {"tag": "\u516c\u53f8\u4f01\u4e1a;\u516c\u53f8", "type": "enterprise", "detail_url": "http://api.map.baidu.com/place/detail?uid=6fc01ab5f331f179d23ce35a&output=html&source=placeapi_v2", "children": [], "lat": 32.01121035610521, "lng": 118.71246641041604}}, {"name": "\u4e2d\u56fd\u5149\u5927\u94f6\u884c24\u5c0f\u65f6\u81ea\u52a9\u94f6\u884c(\u6708\u5b89\u82b1\u56ed\u793e\u533a\u652f\u884c)", "location": {"lat": 32.02243758059769, "lng": 118.72666194514788}, "address": "\u6c5f\u82cf\u7701\u5357\u4eac\u5e02\u5efa\u90ba\u533a\u71d5\u5c71\u8def136\u53f7\u897f\u531780\u7c73", "province": "\u6c5f\u82cf\u7701", "city": "\u5357\u4eac\u5e02", "area": "\u5efa\u90ba\u533a", "street_id": "d678630de91301f728b97ca5", "detail": 1, "uid": "d678630de91301f728b97ca5", "detail_info": {"tag": "\u91d1\u878d;atm", "type": "life", "detail_url": "http://api.map.baidu.com/place/detail?uid=d678630de91301f728b97ca5&output=html&source=placeapi_v2", "image_num": "4", "children": [], "lat": 32.02243758059769, "lng": 118.72666194514788}}, {"name": "\u5174\u4e1a\u94f6\u884c24\u5c0f\u65f6\u81ea\u52a9\u94f6\u884c(\u5357\u4eac\u6d77\u68e0\u56ed\u793e\u533a\u652f\u884c)", "location": {"lat": 32.02051520166738, "lng": 118.71882083942072}, "address": "\u5174\u9686\u5927\u8857203-5\u53f7", "province": "\u6c5f\u82cf\u7701", "city": "\u5357\u4eac\u5e02", "area": "\u5efa\u90ba\u533a", "street_id": "21ee5a2f3ed3aa5f2bd7ab56", "detail": 1, "uid": "21ee5a2f3ed3aa5f2bd7ab56", "detail_info": {"tag": "\u91d1\u878d;atm", "type": "life", "detail_url": "http://api.map.baidu.com/place/detail?uid=21ee5a2f3ed3aa5f2bd7ab56&output=html&source=placeapi_v2", "image_num": "4", "children": [], "lat": 32.02051520166738, "lng": 118.71882083942072}}, {"name": "\u7d2b\u91d1\u519c\u5546\u94f6\u884c24\u5c0f\u65f6\u81ea\u52a9\u94f6\u884c\u670d\u52a1(\u6cb3\u897f\u652f\u884c)", "location": {"lat": 32.014079056542116, "lng": 118.72339323634665}, "address": "\u68a6\u90fd\u5927\u8857136\u53f7", "province": "\u6c5f\u82cf\u7701", "city": "\u5357\u4eac\u5e02", "area": "\u5efa\u90ba\u533a", "street_id": "7f13579f313a546f54bfff3a", "detail": 1, "uid": "f19ff5e0349b9dbfca1b9575", "detail_info": {"tag": "\u91d1\u878d;atm", "type": "life", "detail_url": "http://api.map.baidu.com/place/detail?uid=f19ff5e0349b9dbfca1b9575&output=html&source=placeapi_v2", "overall_rating": "0.0", "image_num": "4", "comment_num": "1", "children": [], "lat": 32.014079056542116, "lng": 118.72339323634665}}, {"name": "\u6052\u4e30\u94f6\u884c24\u5c0f\u65f6\u81ea\u52a9\u94f6\u884c(\u5357\u4eac\u6cb3\u897f\u652f\u884c)", "location": {"lat": 32.02347458025365, "lng": 118.72086758306244}, "address": "\u6708\u5b89\u885741\u53f7", "province": "\u6c5f\u82cf\u7701", "city": "\u5357\u4eac\u5e02", "area": "\u5efa\u90ba\u533a", "street_id": "b985cc27ccb7d1774afd3f2c", "detail": 1, "uid": "b985cc27ccb7d1774afd3f2c", "detail_info": {"tag": "\u91d1\u878d;atm", "type": "life", "detail_url": "http://api.map.baidu.com/place/detail?uid=b985cc27ccb7d1774afd3f2c&output=html&source=placeapi_v2", "image_num": "2", "children": [], "lat": 32.02347458025365, "lng": 118.72086758306244}}, {"name": "\u7d2b\u91d1\u519c\u5546\u94f6\u884c24\u5c0f\u65f6\u81ea\u52a9\u94f6\u884c(\u7ea2\u661f\u8857)", "location": {"lat": 32.02810891256773, "lng": 118.69082346455158}, "address": "\u5357\u4eac\u5e02\u5efa\u90ba\u533a\u7ea2\u661f\u8857(\u6d32\u5c9b\u5bb6\u56ed-\u7eff\u6d32\u82d1)", "province": "\u6c5f\u82cf\u7701", "city": "\u5357\u4eac\u5e02", "area": "\u5efa\u90ba\u533a", "street_id": "ec796001dc9e51333310af2b", "detail": 1, "uid": "ec796001dc9e51333310af2b", "detail_info": {"tag": "\u91d1\u878d;atm", "type": "life", "detail_url": "http://api.map.baidu.com/place/detail?uid=ec796001dc9e51333310af2b&output=html&source=placeapi_v2", "image_num": "1", "children": [], "lat": 32.02810891256773, "lng": 118.69082346455158}}, {"name": "\u4e2d\u56fd\u5e73\u5b89\u8d22\u4ea7\u4fdd\u9669\u80a1\u4efd\u6709\u9650\u516c\u53f8(\u6c5f\u82cf\u5206\u516c\u53f8)", "location": {"lat": 32.034162093540175, "lng": 118.717124505667}, "address": "\u96c6\u5e86\u95e8\u5927\u8857272\u53f7", "province": "\u6c5f\u82cf\u7701", "city": "\u5357\u4eac\u5e02", "area": "\u9f13\u697c\u533a", "telephone": "13216984450", "detail": 1, "uid": "1d4861656ffbc913b55f1e9b", "detail_info": {"tag": "\u91d1\u878d;\u6295\u8d44\u7406\u8d22", "type": "life", "detail_url": "http://api.map.baidu.com/place/detail?uid=1d4861656ffbc913b55f1e9b&output=html&source=placeapi_v2", "overall_rating": "1.0", "image_num": "3", "comment_num": "2", "children": [], "lat": 32.034162093540175, "lng": 118.717124505667}}, {"name": "\u5357\u4eac\u94f6\u884c(\u5357\u4eac\u5206\u884c\u5357\u4eac\u82cf\u5b81\u777f\u57ce\u5c0f\u5fae\u652f\u884c)", "location": {"lat": 32.03388822341346, "lng": 118.72464383904378}, "address": "\u5357\u4eac\u5e02\u9f13\u697c\u533a\u96c6\u8d24\u8def\u4e0e\u6e05\u6c5f\u5357\u8def\u4ea4\u53c9\u8def\u53e3\u5f80\u4e1c\u5317\u7ea650\u7c73(\u82cf\u5b81\u777f\u57ce\u94f6\u6cb3\u56fd\u9645\u8857\u533a)", "province": "\u6c5f\u82cf\u7701", "city": "\u5357\u4eac\u5e02", "area": "\u9f13\u697c\u533a", "street_id": "79ada69098ce9a6e2b11d1d8", "detail": 1, "uid": "79ada69098ce9a6e2b11d1d8", "detail_info": {"tag": "\u91d1\u878d;\u94f6\u884c", "type": "life", "detail_url": "http://api.map.baidu.com/place/detail?uid=79ada69098ce9a6e2b11d1d8&output=html&source=placeapi_v2", "image_num": "7", "children": [], "lat": 32.03388822341346, "lng": 118.72464383904378}}, {"name": "\u5357\u4eac\u94f6\u884c(\u6c5f\u5fc3\u6d32\u652f\u884c)", "location": {"lat": 32.043245788877385, "lng": 118.70181912873792}, "address": "\u5357\u4eac\u5e02\u5efa\u90ba\u533a\u7eff\u6c34\u885721\u53f7", "province": "\u6c5f\u82cf\u7701", "city": "\u5357\u4eac\u5e02", "area": "\u5efa\u90ba\u533a", "street_id": "ee31b7c5af75fc53ec74f8e2", "telephone": "(025)85203160", "detail": 1, "uid": "ee31b7c5af75fc53ec74f8e2", "detail_info": {"tag": "\u91d1\u878d;\u94f6\u884c", "navi_location": {"lng": 118.71376600024, "lat": 32.047103019141}, "type": "life", "detail_url": "http://api.map.baidu.com/place/detail?uid=ee31b7c5af75fc53ec74f8e2&output=html&source=placeapi_v2", "overall_rating": "5.0", "image_num": "1", "comment_num": "2", "children": [], "lat": 32.043245788877385, "lng": 118.70181912873792}}, {"name": "\u6c11\u751f\u4eba\u5bff\u4fdd\u9669\u80a1\u4efd\u6709\u9650\u516c\u53f8(\u6c5f\u82cf\u5206\u516c\u53f8)", "location": {"lat": 32.03412440870135, "lng": 118.71693255098812}, "address": "\u6c5f\u82cf\u7701\u5357\u4eac\u5e02\u9f13\u697c\u533a\u96c6\u5e86\u95e8\u5927\u8857272\u53f7\u82cf\u5b81\u6167\u8c37E07-1\u5e6218\u697c", "province": "\u6c5f\u82cf\u7701", "city": "\u5357\u4eac\u5e02", "area": "\u9f13\u697c\u533a", "street_id": "769e4a481c252420465726ed", "detail": 1, "uid": "769e4a481c252420465726ed", "detail_info": {"tag": "\u91d1\u878d;\u6295\u8d44\u7406\u8d22", "type": "life", "detail_url": "http://api.map.baidu.com/place/detail?uid=769e4a481c252420465726ed&output=html&source=placeapi_v2", "image_num": "1", "children": [], "lat": 32.03412440870135, "lng": 118.71693255098812}}, {"name": "\u5e73\u5b89\u94f6\u884c(\u5357\u4eac\u4e1c\u5b9d\u82b1\u56ed\u793e\u533a\u652f\u884c)", "location": {"lat": 32.04469118339013, "lng": 118.72766300459428}, "address": "\u9526\u6c5f\u8def29\u53f7", "province": "\u6c5f\u82cf\u7701", "city": "\u5357\u4eac\u5e02", "area": "\u9f13\u697c\u533a", "street_id": "e3d18207cdbc5de8ab175a4d", "telephone": "(025)52629626", "detail": 1, "uid": "e3d18207cdbc5de8ab175a4d", "detail_info": {"tag": "\u91d1\u878d;\u94f6\u884c", "type": "life", "detail_url": "http://api.map.baidu.com/place/detail?uid=e3d18207cdbc5de8ab175a4d&output=html&source=placeapi_v2", "overall_rating": "0.0", "image_num": "12", "comment_num": "3", "children": [], "lat": 32.04469118339013, "lng": 118.72766300459428}}, {"name": "\u4e2d\u56fd\u4eba\u6c11\u4fdd\u9669", "location": {"lat": 32.04906105050896, "lng": 118.72734313952621}, "address": "\u5357\u4eac\u5e02\u9f13\u697c\u533a\u6e05\u51c9\u95e8\u5927\u8857\u4e0e\u9526\u6c5f\u8def\u4ea4\u53c9\u8def\u53e3\u897f\u4fa7(\u82cf\u5b81\u99a8\u7470\u56ed)", "province": "\u6c5f\u82cf\u7701", "city": "\u5357\u4eac\u5e02", "area": "\u9f13\u697c\u533a", "street_id": "dc0713a4492dd185f942b2e7", "detail": 1, "uid": "dc0713a4492dd185f942b2e7", "detail_info": {"tag": "\u91d1\u878d;\u6295\u8d44\u7406\u8d22", "type": "life", "detail_url": "http://api.map.baidu.com/place/detail?uid=dc0713a4492dd185f942b2e7&output=html&source=placeapi_v2", "overall_rating": "0.0", "image_num": "2", "children": [], "lat": 32.04906105050896, "lng": 118.72734313952621}}, {"name": "\u4e2d\u56fd\u5149\u5927\u94f6\u884c(\u6c47\u6587\u793e\u533a\u652f\u884c)", "location": {"lat": 32.04233120354817, "lng": 118.72490287113725}, "address": "\u6c5f\u82cf\u7701\u5357\u4eac\u5e02\u9f13\u697c\u533a\u6e05\u6c5f\u8def1\u53f7", "province": "\u6c5f\u82cf\u7701", "city": "\u5357\u4eac\u5e02", "area": "\u9f13\u697c\u533a", "detail": 1, "uid": "5a8ce05391bbfcf2c27da2e5", "detail_info": {"tag": "\u91d1\u878d;\u94f6\u884c", "type": "life", "detail_url": "http://api.map.baidu.com/place/detail?uid=5a8ce05391bbfcf2c27da2e5&output=html&source=placeapi_v2", "image_num": "1", "children": [], "lat": 32.04233120354817, "lng": 118.72490287113725}}, {"name": "\u4ea4\u901a\u94f6\u884c24\u5c0f\u65f6\u81ea\u52a9\u94f6\u884c(\u5c0f\u5fae\u652f\u884c)", "location": {"lat": 32.03383740743504, "lng": 118.72478141876248}, "address": "\u96c6\u8d24\u8def55", "province": "\u6c5f\u82cf\u7701", "city": "\u5357\u4eac\u5e02", "area": "\u9f13\u697c\u533a", "street_id": "5c48ef3abebe745022026283", "detail": 1, "uid": "5c48ef3abebe745022026283", "detail_info": {"tag": "\u91d1\u878d;atm", "navi_location": {"lng": 118.73638098527, "lat": 32.037810284017}, "type": "life", "detail_url": "http://api.map.baidu.com/place/detail?uid=5c48ef3abebe745022026283&output=html&source=placeapi_v2", "overall_rating": "0.0", "image_num": "13", "comment_num": "2", "children": [], "lat": 32.03383740743504, "lng": 118.72478141876248}}, {"name": "\u805a\u5408\u521b\u610f\u65b0\u5174\u4ea7\u4e1a\u6295\u8d44\u57fa\u91d1", "location": {"lat": 32.04068630724221, "lng": 118.7251478743589}, "address": "\u6e05\u6c5f\u5357\u8def70\u53f7\u6cb3\u6d77\u79d1\u6280\u5927\u53a611\u5c42", "province": "\u6c5f\u82cf\u7701", "city": "\u5357\u4eac\u5e02", "area": "\u9f13\u697c\u533a", "detail": 1, "uid": "c59103c857810d0c2b3a9feb", "detail_info": {"tag": "\u91d1\u878d;\u6295\u8d44\u7406\u8d22", "type": "life", "detail_url": "http://api.map.baidu.com/place/detail?uid=c59103c857810d0c2b3a9feb&output=html&source=placeapi_v2", "image_num": "1", "children": [], "lat": 32.04068630724221, "lng": 118.7251478743589}}, {"name": "\u62db\u5546\u94f6\u884c24\u5c0f\u65f6\u81ea\u52a9\u94f6\u884c(\u82cf\u5b81\u73af\u7403\u5546\u8d38\u57ce)", "location": {"lat": 32.046240741615925, "lng": 118.72510389043056}, "address": "\u5357\u4eac\u5e02\u9f13\u697c\u533a\u6e05\u6c5f\u8def99\u53f7\u82cf\u5b81\u73af\u7403\u5546\u8d38\u57ceF1", "province": "\u6c5f\u82cf\u7701", "city": "\u5357\u4eac\u5e02", "area": "\u9f13\u697c\u533a", "street_id": "157fd2c04d5d9a433517dcb3", "detail": 1, "uid": "157fd2c04d5d9a433517dcb3", "detail_info": {"tag": "\u91d1\u878d;atm", "navi_location": {"lng": 118.73707886616, "lat": 32.049883415207}, "indoor_floor": "F1", "type": "life", "detail_url": "http://api.map.baidu.com/place/detail?uid=157fd2c04d5d9a433517dcb3&output=html&source=placeapi_v2", "overall_rating": "4.0", "image_num": "7", "comment_num": "1", "children": [], "lat": 32.046240741615925, "lng": 118.72510389043056}}, {"name": "\u4e2d\u4fe1\u94f6\u884c24\u5c0f\u65f6\u81ea\u52a9\u94f6\u884c(\u96c6\u5e86\u95e8\u5927\u8857)", "location": {"lat": 32.033243140395825, "lng": 118.71607303648557}, "address": "\u5357\u4eac\u5e02\u5efa\u90ba\u533a\u96c6\u5e86\u95e8\u5927\u8857\u4e0e\u6e05\u6cb3\u8def\u4ea4\u53c9\u8def\u53e3\u5f80\u4e1c\u5357\u7ea650\u7c73(\u6c5f\u82cf\u7701\u8001\u5e74\u516c\u5bd3)", "province": "\u6c5f\u82cf\u7701", "city": "\u5357\u4eac\u5e02", "area": "\u5efa\u90ba\u533a", "detail": 1, "uid": "e2f0af82d8a116f5e5073894", "detail_info": {"tag": "\u91d1\u878d;atm", "type": "life", "detail_url": "http://api.map.baidu.com/place/detail?uid=e2f0af82d8a116f5e5073894&output=html&source=placeapi_v2", "overall_rating": "1.0", "image_num": "1", "comment_num": "1", "children": [], "lat": 32.033243140395825, "lng": 118.71607303648557}}, {"name": "\u5357\u4eac\u94f6\u884c24\u5c0f\u65f6\u81ea\u52a9\u94f6\u884c\u670d\u52a1(\u5357\u4eac\u5206\u884c\u5357\u4eac\u82cf\u5b81\u777f\u57ce\u5c0f\u5fae\u652f\u884c)", "location": {"lat": 32.033924901783195, "lng": 118.72449232723308}, "address": "\u5357\u4eac\u5e02\u9f13\u697c\u533a\u96c6\u8d24\u8def\u4e0e\u6e05\u6c5f\u5357\u8def\u4ea4\u53c9\u8def\u53e3\u5f80\u4e1c\u5317\u7ea6100\u7c73(\u82cf\u5b81\u777f\u57ce\u94f6\u6cb3\u56fd\u9645\u8857\u533a)", "province": "\u6c5f\u82cf\u7701", "city": "\u5357\u4eac\u5e02", "area": "\u9f13\u697c\u533a", "street_id": "5117593dc4a7f6f2631809ff", "detail": 1, "uid": "5117593dc4a7f6f2631809ff", "detail_info": {"tag": "\u91d1\u878d;atm", "navi_location": {"lng": 118.73622499983, "lat": 32.03763701741}, "type": "life", "detail_url": "http://api.map.baidu.com/place/detail?uid=5117593dc4a7f6f2631809ff&output=html&source=placeapi_v2", "overall_rating": "4.0", "image_num": "13", "comment_num": "1", "children": [], "lat": 32.033924901783195, "lng": 118.72449232723308}}, {"name": "\u5357\u4eac\u56fd\u8d44\u7f6e\u4e1a\u516c\u53f8", "location": {"lat": 32.0399657039742, "lng": 118.72415010474045}, "address": "\u6c5f\u82cf\u7701\u5357\u4eac\u5e02\u9f13\u697c\u533a\u6e05\u6c5f\u5357\u8def19\u53f7\u5357\u5927\u82cf\u5bcc\u7279\u79d1\u6280\u521b\u65b0\u56ed1\u53f7\u697c11\u697c\u4e1c", "province": "\u6c5f\u82cf\u7701", "city": "\u5357\u4eac\u5e02", "area": "\u9f13\u697c\u533a", "street_id": "1a3306938f1e989c0c0e6bbe", "detail": 1, "uid": "1a3306938f1e989c0c0e6bbe", "detail_info": {"tag": "\u516c\u53f8\u4f01\u4e1a;\u516c\u53f8", "type": "enterprise", "detail_url": "http://api.map.baidu.com/place/detail?uid=1a3306938f1e989c0c0e6bbe&output=html&source=placeapi_v2", "children": [], "lat": 32.0399657039742, "lng": 118.72415010474045}}, {"name": "\u4e2d\u56fd\u5149\u5927\u94f6\u884c24\u5c0f\u65f6\u81ea\u52a9\u94f6\u884c(\u6c47\u6587\u793e\u533a\u652f\u884c)", "location": {"lat": 32.04206615825456, "lng": 118.7247785865065}, "address": "\u6c5f\u82cf\u7701\u5357\u4eac\u5e02\u9f13\u697c\u533a\u6c49\u4e2d\u95e8\u5927\u8857420\u9644\u8fd1", "province": "\u6c5f\u82cf\u7701", "city": "\u5357\u4eac\u5e02", "area": "\u9f13\u697c\u533a", "detail": 1, "uid": "20414109e0fde07b40afe65b", "detail_info": {"tag": "\u91d1\u878d;atm", "type": "life", "detail_url": "http://api.map.baidu.com/place/detail?uid=20414109e0fde07b40afe65b&output=html&source=placeapi_v2", "image_num": "1", "children": [], "lat": 32.04206615825456, "lng": 118.7247785865065}}, {"name": "\u6c5f\u82cf\u95f3\u79d1\u6295\u8d44\u7ba1\u7406\u6709\u9650\u516c\u53f8", "location": {"lat": 32.0824948617927, "lng": 118.72785156042373}, "address": "\u9f13\u697c\u533a\u5357\u901a\u8def118\u53f7\u8302\u60a6\u6e2f5\u5e62905\u5ba4", "province": "\u6c5f\u82cf\u7701", "city": "\u5357\u4eac\u5e02", "area": "\u9f13\u697c\u533a", "street_id": "cd455c2c4874107b7bf79674", "telephone": "(025)83653899", "detail": 1, "uid": "cd455c2c4874107b7bf79674", "detail_info": {"tag": "\u91d1\u878d;\u6295\u8d44\u7406\u8d22", "type": "life", "detail_url": "http://api.map.baidu.com/place/detail?uid=cd455c2c4874107b7bf79674&output=html&source=placeapi_v2", "image_num": "1", "children": [], "lat": 32.0824948617927, "lng": 118.72785156042373}}, {"name": "\u5357\u4eac\u94f6\u884c24\u5c0f\u65f6\u81ea\u52a9\u94f6\u884c(\u5510\u5c71\u8def)", "location": {"lat": 32.08175921106831, "lng": 118.7277844388069}, "address": "\u6c5f\u82cf\u7701\u5357\u4eac\u5e02\u9f13\u697c\u533a\u5357\u901a\u8def118\u53f76\u53f7\u697c\u8d1f101", "province": "\u6c5f\u82cf\u7701", "city": "\u5357\u4eac\u5e02", "area": "\u9f13\u697c\u533a", "street_id": "423af72f6369e409441a32a0", "detail": 1, "uid": "423af72f6369e409441a32a0", "detail_info": {"tag": "\u91d1\u878d;atm", "type": "life", "detail_url": "http://api.map.baidu.com/place/detail?uid=423af72f6369e409441a32a0&output=html&source=placeapi_v2", "image_num": "4", "children": [], "lat": 32.08175921106831, "lng": 118.7277844388069}}, {"name": "\u5b81\u6ce2\u94f6\u884c(\u5357\u4eac\u5206\u884c)", "location": {"lat": 32.01158557590392, "lng": 118.72878209638532}, "address": "\u6c5f\u82cf\u7701\u5357\u4eac\u5e02\u5efa\u90ba\u533a\u6c5f\u4e1c\u4e2d\u8def233\u53f7", "province": "\u6c5f\u82cf\u7701", "city": "\u5357\u4eac\u5e02", "area": "\u5efa\u90ba\u533a", "street_id": "c368cb7a55bbf1ded6b74e6e", "telephone": "(025)51808088", "detail": 1, "uid": "c368cb7a55bbf1ded6b74e6e", "detail_info": {"tag": "\u91d1\u878d;\u94f6\u884c", "navi_location": {"lng": 118.74005520474, "lat": 32.01472414385}, "type": "life", "detail_url": "http://api.map.baidu.com/place/detail?uid=c368cb7a55bbf1ded6b74e6e&output=html&source=placeapi_v2", "overall_rating": "3.7", "image_num": "3", "comment_num": "3", "children": [], "lat": 32.01158557590392, "lng": 118.72878209638532}}, {"name": "\u5357\u4eac\u4ea4\u901a\u4e8b\u6545\u4fdd\u9669\u7406\u8d54\u670d\u52a1\u4e2d\u5fc3", "location": {"lat": 32.01772948198592, "lng": 118.74239466845958}, "address": "\u6c5f\u82cf\u7701\u5357\u4eac\u5e02\u5efa\u90ba\u533a\u65b0\u57ce\u79d1\u6280\u56ed\u9ec4\u5c71\u8def2\u53f7", "province": "\u6c5f\u82cf\u7701", "city": "\u5357\u4eac\u5e02", "area": "\u5efa\u90ba\u533a", "street_id": "a96d27452bd2dd37c9c3dbf3", "detail": 1, "uid": "a96d27452bd2dd37c9c3dbf3", "detail_info": {"tag": "\u91d1\u878d;\u6295\u8d44\u7406\u8d22", "navi_location": {"lng": 118.7549409984, "lat": 32.021340532891}, "type": "life", "detail_url": "http://api.map.baidu.com/place/detail?uid=a96d27452bd2dd37c9c3dbf3&output=html&source=placeapi_v2", "overall_rating": "4.5", "image_num": "8", "comment_num": "8", "children": [], "lat": 32.01772948198592, "lng": 118.74239466845958}}, {"name": "\u4e2d\u56fd\u519c\u4e1a\u94f6\u884c(\u5357\u4eac\u4e91\u9526\u8def\u652f\u884c)", "location": {"lat": 32.02788728988508, "lng": 118.73739506247311}, "address": "\u6c5f\u82cf\u7701\u5357\u4eac\u5e02\u5efa\u90ba\u533a\u4e91\u9526\u8def139\u53f7", "province": "\u6c5f\u82cf\u7701", "city": "\u5357\u4eac\u5e02", "area": "\u5efa\u90ba\u533a", "street_id": "f8eb8a18559d74f2b04c492c", "telephone": "(025)85635702", "detail": 1, "uid": "f8eb8a18559d74f2b04c492c", "detail_info": {"tag": "\u91d1\u878d;\u94f6\u884c", "navi_location": {"lng": 118.74891732546, "lat": 32.031491932837}, "type": "life", "detail_url": "http://api.map.baidu.com/place/detail?uid=f8eb8a18559d74f2b04c492c&output=html&source=placeapi_v2", "overall_rating": "4.0", "image_num": "11", "comment_num": "12", "children": [], "lat": 32.02788728988508, "lng": 118.73739506247311}}, {"name": "\u4e2d\u56fd\u5e73\u5b89\u8d22\u4ea7\u4fdd\u9669\u80a1\u4efd\u6709\u9650\u516c\u53f8\u5357\u4eac\u5e02\u8425\u4e1a\u4e00\u90e8", "location": {"lat": 32.01959191379534, "lng": 118.73262941197645}, "address": "\u6c5f\u4e1c\u4e2d\u8def201\u53f7", "province": "\u6c5f\u82cf\u7701", "city": "\u5357\u4eac\u5e02", "area": "\u5efa\u90ba\u533a", "street_id": "3e1d3993bb5f14cbeedfca1a", "detail": 1, "uid": "3e1d3993bb5f14cbeedfca1a", "detail_info": {"tag": "\u91d1\u878d;\u6295\u8d44\u7406\u8d22", "navi_location": {"lng": 118.74416906489, "lat": 32.023147053864}, "type": "life", "detail_url": "http://api.map.baidu.com/place/detail?uid=3e1d3993bb5f14cbeedfca1a&output=html&source=placeapi_v2", "overall_rating": "1.7", "image_num": "9", "comment_num": "6", "children": [], "lat": 32.01959191379534, "lng": 118.73262941197645}}, {"name": "\u4e2d\u56fd\u94f6\u884c(\u5357\u4eac\u4e07\u8fbe\u5e7f\u573a\u652f\u884c)", "location": {"lat": 32.031104222862695, "lng": 118.73307963842426}, "address": "\u5357\u4eac\u5e02\u5efa\u90ba\u533a\u6c5f\u4e1c\u4e2d\u8def108\u53f7-7,-8,-9\u53f7", "province": "\u6c5f\u82cf\u7701", "city": "\u5357\u4eac\u5e02", "area": "\u5efa\u90ba\u533a", "street_id": "09cab499af1f2a07be4842e1", "telephone": "(025)58353781", "detail": 1, "uid": "09cab499af1f2a07be4842e1", "detail_info": {"tag": "\u91d1\u878d;\u94f6\u884c", "navi_location": {"lng": 118.74484811918, "lat": 32.034579422925}, "type": "life", "detail_url": "http://api.map.baidu.com/place/detail?uid=09cab499af1f2a07be4842e1&output=html&source=placeapi_v2", "overall_rating": "2.2", "image_num": "9", "comment_num": "10", "children": [], "lat": 32.031104222862695, "lng": 118.73307963842426}}, {"name": "\u4e2d\u56fd\u519c\u4e1a\u94f6\u884c(\u5357\u4eac\u5efa\u90ba\u652f\u884c)", "location": {"lat": 32.01902428044219, "lng": 118.73230305388167}, "address": "\u6c5f\u82cf\u7701\u5357\u4eac\u5e02\u5efa\u90ba\u533a\u6c5f\u4e1c\u4e2d\u8def207\u53f7", "province": "\u6c5f\u82cf\u7701", "city": "\u5357\u4eac\u5e02", "area": "\u5efa\u90ba\u533a", "street_id": "6d8c3b090ab0647b2d473386", "telephone": "(025)85669058", "detail": 1, "uid": "6d8c3b090ab0647b2d473386", "detail_info": {"tag": "\u91d1\u878d;\u94f6\u884c", "navi_location": {"lng": 118.74354246805, "lat": 32.022136436088}, "type": "life", "detail_url": "http://api.map.baidu.com/place/detail?uid=6d8c3b090ab0647b2d473386&output=html&source=placeapi_v2", "overall_rating": "4.3", "image_num": "13", "comment_num": "12", "children": [], "lat": 32.01902428044219, "lng": 118.73230305388167}}, {"name": "\u4e2d\u56fd\u5de5\u5546\u94f6\u884c(\u71d5\u5c71\u8def\u652f\u884c)", "location": {"lat": 32.02415859201938, "lng": 118.72823164857945}, "address": "\u901a\u6c5f\u8def16\u53f7", "province": "\u6c5f\u82cf\u7701", "city": "\u5357\u4eac\u5e02", "area": "\u5efa\u90ba\u533a", "street_id": "606ab0d05bb57f570e3dda55", "telephone": "(025)86422628,95588", "detail": 1, "uid": "606ab0d05bb57f570e3dda55", "detail_info": {"tag": "\u91d1\u878d;\u94f6\u884c", "navi_location": {"lng": 118.7397544808, "lat": 32.027824099155}, "type": "life", "detail_url": "http://api.map.baidu.com/place/detail?uid=606ab0d05bb57f570e3dda55&output=html&source=placeapi_v2", "overall_rating": "3.9", "image_num": "15", "comment_num": "13", "children": [], "lat": 32.02415859201938, "lng": 118.72823164857945}}, {"name": "\u4e2d\u56fd\u5de5\u5546\u94f6\u884c(\u5357\u4eac\u5e94\u5929\u5927\u8857\u652f\u884c)", "location": {"lat": 32.020995848665976, "lng": 118.7448885477598}, "address": "\u6c5f\u82cf\u7701\u5357\u4eac\u5e02\u5efa\u90ba\u533a\u5357\u6e56\u8def58\u53f7", "province": "\u6c5f\u82cf\u7701", "city": "\u5357\u4eac\u5e02", "area": "\u5efa\u90ba\u533a", "street_id": "060f5e533b2f08d7091cc7af", "telephone": "(025)86441620,(025)86566076", "detail": 1, "uid": "060f5e533b2f08d7091cc7af", "detail_info": {"tag": "\u91d1\u878d;\u94f6\u884c", "navi_location": {"lng": 118.75703843217, "lat": 32.024174705032}, "type": "life", "detail_url": "http://api.map.baidu.com/place/detail?uid=060f5e533b2f08d7091cc7af&output=html&source=placeapi_v2", "overall_rating": "3.1", "image_num": "13", "comment_num": "13", "children": [], "lat": 32.020995848665976, "lng": 118.7448885477598}}, {"name": "\u4e2d\u56fd\u94f6\u884c(\u5357\u4eac\u5357\u6e56\u652f\u884c)", "location": {"lat": 32.03019827029989, "lng": 118.75036726784056}, "address": "\u5357\u4eac\u5e02\u5efa\u90ba\u533a\u5357\u6e56\u4e1c\u8def80\u53f7", "province": "\u6c5f\u82cf\u7701", "city": "\u5357\u4eac\u5e02", "area": "\u5efa\u90ba\u533a", "street_id": "87248d960f69b8b32906ceaf", "telephone": "(025)86528909,(025)86605197", "detail": 1, "uid": "87248d960f69b8b32906ceaf", "detail_info": {"tag": "\u91d1\u878d;\u94f6\u884c", "navi_location": {"lng": 118.76209766095, "lat": 32.033787307939}, "type": "life", "detail_url": "http://api.map.baidu.com/place/detail?uid=87248d960f69b8b32906ceaf&output=html&source=placeapi_v2", "overall_rating": "2.5", "image_num": "12", "comment_num": "7", "children": [], "lat": 32.03019827029989, "lng": 118.75036726784056}}, {"name": "\u5fbd\u5546\u94f6\u884c(\u5357\u4eac\u6cb3\u897f\u652f\u884c)", "location": {"lat": 32.018678886795215, "lng": 118.73212542561281}, "address": "\u6c5f\u4e1c\u4e2d\u8def209\u53f7", "province": "\u6c5f\u82cf\u7701", "city": "\u5357\u4eac\u5e02", "area": "\u5efa\u90ba\u533a", "street_id": "6b746c2b912b52a53c9a5ea2", "telephone": "(025)83119762", "detail": 1, "uid": "6b746c2b912b52a53c9a5ea2", "detail_info": {"tag": "\u91d1\u878d;\u94f6\u884c", "navi_location": {"lng": 118.74348058648, "lat": 32.02246749962}, "type": "life", "detail_url": "http://api.map.baidu.com/place/detail?uid=6b746c2b912b52a53c9a5ea2&output=html&source=placeapi_v2", "overall_rating": "4.0", "image_num": "10", "comment_num": "8", "children": [], "lat": 32.018678886795215, "lng": 118.73212542561281}}, {"name": "\u4e2d\u56fd\u5de5\u5546\u94f6\u884c(\u5357\u6e56\u652f\u884c)", "location": {"lat": 32.02952975977509, "lng": 118.75156863782816}, "address": "\u6c5f\u82cf\u7701\u5357\u4eac\u5e02\u5efa\u90ba\u533a\u5357\u6e56\u8857\u9053\u5357\u6e56\u4e1c\u8def77\u53f7", "province": "\u6c5f\u82cf\u7701", "city": "\u5357\u4eac\u5e02", "area": "\u5efa\u90ba\u533a", "street_id": "af1ae56b67d651124307c1af", "telephone": "(025)86424296", "detail": 1, "uid": "af1ae56b67d651124307c1af", "detail_info": {"tag": "\u91d1\u878d;\u94f6\u884c", "navi_location": {"lng": 118.76339448353, "lat": 32.03347844345}, "type": "life", "detail_url": "http://api.map.baidu.com/place/detail?uid=af1ae56b67d651124307c1af&output=html&source=placeapi_v2", "overall_rating": "3.5", "image_num": "9", "comment_num": "16", "children": [], "lat": 32.02952975977509, "lng": 118.75156863782816}}, {"name": "\u4e2d\u56fd\u5efa\u8bbe\u94f6\u884c(\u5357\u4eac\u5e94\u5929\u8def\u652f\u884c)", "location": {"lat": 32.02340095991958, "lng": 118.74703508412274}, "address": "\u6c5f\u82cf\u7701\u5357\u4eac\u5e02\u5efa\u90ba\u533a\u5357\u6e56\u8def30-1", "province": "\u6c5f\u82cf\u7701", "city": "\u5357\u4eac\u5e02", "area": "\u5efa\u90ba\u533a", "detail": 1, "uid": "8f1981502d02cb46ec74f8a5", "detail_info": {"tag": "\u91d1\u878d;\u94f6\u884c", "type": "life", "detail_url": "http://api.map.baidu.com/place/detail?uid=8f1981502d02cb46ec74f8a5&output=html&source=placeapi_v2", "overall_rating": "5.0", "image_num": "1", "comment_num": "2", "children": [], "lat": 32.02340095991958, "lng": 118.74703508412274}}, {"name": "\u4e2d\u56fd\u90ae\u653f\u50a8\u84c4\u94f6\u884c(\u6cb3\u897f\u65b0\u57ce\u8425\u4e1a\u6240)", "location": {"lat": 32.01696348205925, "lng": 118.7281874541288}, "address": "\u6c5f\u82cf\u7701\u5357\u4eac\u5e02\u5efa\u90ba\u533a\u5174\u9686\u5927\u8857151\u53f7", "province": "\u6c5f\u82cf\u7701", "city": "\u5357\u4eac\u5e02", "area": "\u5efa\u90ba\u533a", "street_id": "1ad12b2c6cd0336482a12e43", "telephone": "(025)87771500", "detail": 1, "uid": "1ad12b2c6cd0336482a12e43", "detail_info": {"tag": "\u91d1\u878d;\u94f6\u884c", "navi_location": {"lng": 118.74011703511, "lat": 32.020940956524}, "type": "life", "detail_url": "http://api.map.baidu.com/place/detail?uid=1ad12b2c6cd0336482a12e43&output=html&source=placeapi_v2", "overall_rating": "4.2", "image_num": "7", "comment_num": "5", "children": [], "lat": 32.01696348205925, "lng": 118.7281874541288}}, {"name": "\u4e2d\u56fd\u5de5\u5546\u94f6\u884c(\u4e07\u8fbe\u5e7f\u573a\u652f\u884c)", "location": {"lat": 32.03149461511557, "lng": 118.72982309473653}, "address": "\u96c6\u5e86\u95e8\u5927\u8857222\u4e4b6-9", "province": "\u6c5f\u82cf\u7701", "city": "\u5357\u4eac\u5e02", "area": "\u5efa\u90ba\u533a", "detail": 1, "uid": "4e320d5ecfe9cc179fec2b5e", "detail_info": {"tag": "\u91d1\u878d;\u94f6\u884c", "navi_location": {"lng": 118.74153417763, "lat": 32.034939812465}, "type": "life", "detail_url": "http://api.map.baidu.com/place/detail?uid=4e320d5ecfe9cc179fec2b5e&output=html&source=placeapi_v2", "overall_rating": "2.0", "image_num": "1", "comment_num": "1", "children": [], "lat": 32.03149461511557, "lng": 118.72982309473653}}, {"name": "\u4e2d\u56fd\u5efa\u8bbe\u94f6\u884c(\u5357\u4eac\u6c5f\u4e1c\u5357\u8def\u652f\u884c)", "location": {"lat": 32.0307694382524, "lng": 118.73526252182145}, "address": "\u5357\u4eac\u5e02\u5efa\u90ba\u533a\u6c5f\u4e1c\u4e2d\u8def\u4e0e\u96c6\u5e86\u95e8\u5927\u8857\u4ea4\u53c9\u8def\u53e3\u5317\u4fa7(\u6052\u76c8\u540d\u5c45)", "province": "\u6c5f\u82cf\u7701", "city": "\u5357\u4eac\u5e02", "area": "\u5efa\u90ba\u533a", "street_id": "59eeb2a50c6be245d4851fed", "telephone": "(025)86413190", "detail": 1, "uid": "59eeb2a50c6be245d4851fed", "detail_info": {"tag": "\u91d1\u878d;\u94f6\u884c", "navi_location": {"lng": 118.74707621957, "lat": 32.034145563813}, "type": "life", "detail_url": "http://api.map.baidu.com/place/detail?uid=59eeb2a50c6be245d4851fed&output=html&source=placeapi_v2", "overall_rating": "3.1", "image_num": "14", "comment_num": "15", "children": [], "lat": 32.0307694382524, "lng": 118.73526252182145}}, {"name": "\u4e2d\u56fd\u5efa\u8bbe\u94f6\u884c(\u6da6\u82b1\u56ed\u5206\u7406\u5904)", "location": {"lat": 32.02181341601041, "lng": 118.75907118249462}, "address": "\u6c5f\u82cf\u7701\u5357\u4eac\u5e02\u96c6\u5e86\u95e8\u5927\u885722\u53f7", "province": "\u6c5f\u82cf\u7701", "city": "\u5357\u4eac\u5e02", "area": "\u5efa\u90ba\u533a", "street_id": "3c0ea7c5f6d5fd9cfaf0cbaf", "telephone": "(025)52209711", "detail": 1, "uid": "3c0ea7c5f6d5fd9cfaf0cbaf", "detail_info": {"tag": "\u91d1\u878d;\u94f6\u884c", "navi_location": {"lng": 118.77073290294, "lat": 32.025491284521}, "type": "life", "detail_url": "http://api.map.baidu.com/place/detail?uid=3c0ea7c5f6d5fd9cfaf0cbaf&output=html&source=placeapi_v2", "overall_rating": "3.5", "image_num": "15", "comment_num": "11", "children": [], "lat": 32.02181341601041, "lng": 118.75907118249462}}, {"name": "\u4e2d\u56fd\u5efa\u8bbe\u94f6\u884c(\u5357\u4eac\u5174\u9686\u5927\u8857\u652f\u884c)", "location": {"lat": 32.01761840837804, "lng": 118.73197304427184}, "address": "\u6c5f\u82cf\u7701\u5357\u4eac\u5e02\u5efa\u90ba\u533a\u6c5f\u4e1c\u4e2d\u8def211\u53f7", "province": "\u6c5f\u82cf\u7701", "city": "\u5357\u4eac\u5e02", "area": "\u5efa\u90ba\u533a", "street_id": "0ba23b1ba7130407734b876f", "telephone": "(025)88867360", "detail": 1, "uid": "0ba23b1ba7130407734b876f", "detail_info": {"tag": "\u91d1\u878d;\u94f6\u884c", "navi_location": {"lng": 118.74309302065, "lat": 32.021422741551}, "type": "life", "detail_url": "http://api.map.baidu.com/place/detail?uid=0ba23b1ba7130407734b876f&output=html&source=placeapi_v2", "overall_rating": "4.7", "image_num": "10", "comment_num": "3", "children": [], "lat": 32.01761840837804, "lng": 118.73197304427184}}, {"name": "\u6e24\u6d77\u94f6\u884c(\u5357\u4eac\u5206\u884c)", "location": {"lat": 32.01708707125754, "lng": 118.73145396324392}, "address": "\u6c5f\u82cf\u7701\u5357\u4eac\u5e02\u5efa\u90ba\u533a\u6c5f\u4e1c\u4e2d\u8def213\u53f7", "province": "\u6c5f\u82cf\u7701", "city": "\u5357\u4eac\u5e02", "area": "\u5efa\u90ba\u533a", "street_id": "9de86b5d8736f262a8175a73", "telephone": "(025)83659888", "detail": 1, "uid": "9de86b5d8736f262a8175a73", "detail_info": {"tag": "\u91d1\u878d;\u94f6\u884c", "navi_location": {"lng": 118.7426263177, "lat": 32.020538356653}, "type": "life", "detail_url": "http://api.map.baidu.com/place/detail?uid=9de86b5d8736f262a8175a73&output=html&source=placeapi_v2", "overall_rating": "3.3", "image_num": "6", "comment_num": "6", "children": [], "lat": 32.01708707125754, "lng": 118.73145396324392}}, {"name": "\u6c5f\u82cf\u4fdd\u9669\u7efc\u5408\u5927\u53a6", "location": {"lat": 32.028715223606035, "lng": 118.73774749921607}, "address": "\u5357\u4eac\u5e02\u5efa\u90ba\u533a\u4e91\u9526\u8def129\u53f7", "province": "\u6c5f\u82cf\u7701", "city": "\u5357\u4eac\u5e02", "area": "\u5efa\u90ba\u533a", "street_id": "4bc35311a69864f98d77277d", "detail": 1, "uid": "4bc35311a69864f98d77277d", "detail_info": {"tag": "\u623f\u5730\u4ea7;\u5199\u5b57\u697c", "navi_location": {"lng": 118.74914290165, "lat": 32.032433662124}, "type": "house", "detail_url": "http://api.map.baidu.com/place/detail?uid=4bc35311a69864f98d77277d&output=html&source=placeapi_v2", "overall_rating": "4", "children": [], "lat": 32.028715223606035, "lng": 118.73774749921607}}, {"name": "\u62db\u5546\u94f6\u884c(\u5357\u6e56\u8def\u652f\u884c)", "location": {"lat": 32.02396630345694, "lng": 118.74745200595275}, "address": "\u5357\u4eac\u5e02\u5efa\u90ba\u533a\u5357\u6e56\u8def26\u53f7", "province": "\u6c5f\u82cf\u7701", "city": "\u5357\u4eac\u5e02", "area": "\u5efa\u90ba\u533a", "street_id": "061c6c13fd6e089fb34c4998", "telephone": "(025)86305517,(025)86305505", "detail": 1, "uid": "061c6c13fd6e089fb34c4998", "detail_info": {"tag": "\u91d1\u878d;\u94f6\u884c", "navi_location": {"lng": 118.75941936397, "lat": 32.027529271993}, "type": "life", "detail_url": "http://api.map.baidu.com/place/detail?uid=061c6c13fd6e089fb34c4998&output=html&source=placeapi_v2", "overall_rating": "4.7", "image_num": "11", "comment_num": "5", "children": [], "lat": 32.02396630345694, "lng": 118.74745200595275}}, {"name": "\u4e2d\u56fd\u94f6\u884c(\u5357\u4eac\u4e91\u9526\u8def\u652f\u884c)", "location": {"lat": 32.02554482034359, "lng": 118.7367767533534}, "address": "\u6c5f\u82cf\u7701\u5357\u4eac\u5e02\u5efa\u90ba\u533a\u6240\u8857169\u53f7", "province": "\u6c5f\u82cf\u7701", "city": "\u5357\u4eac\u5e02", "area": "\u5efa\u90ba\u533a", "street_id": "8a650fbe7a3d082ee6e9650a", "telephone": "(025)83436989", "detail": 1, "uid": "8a650fbe7a3d082ee6e9650a", "detail_info": {"tag": "\u91d1\u878d;\u94f6\u884c", "navi_location": {"lng": 118.74833183957, "lat": 32.029344924415}, "type": "life", "detail_url": "http://api.map.baidu.com/place/detail?uid=8a650fbe7a3d082ee6e9650a&output=html&source=placeapi_v2", "overall_rating": "5.0", "image_num": "10", "comment_num": "2", "children": [], "lat": 32.02554482034359, "lng": 118.7367767533534}}, {"name": "\u5357\u4eac\u94f6\u884c(\u5357\u4eac\u5206\u884c\u9ec4\u5c71\u8def\u652f\u884c)", "location": {"lat": 32.016984136555834, "lng": 118.7422897459007}, "address": "\u9ec4\u5c71\u8def10-1\u53f7", "province": "\u6c5f\u82cf\u7701", "city": "\u5357\u4eac\u5e02", "area": "\u5efa\u90ba\u533a", "street_id": "0ef9344dda7d10f5cf06a4d8", "telephone": "(025)58829557", "detail": 1, "uid": "0ef9344dda7d10f5cf06a4d8", "detail_info": {"tag": "\u91d1\u878d;\u94f6\u884c", "navi_location": {"lng": 118.75443728077, "lat": 32.020372526622}, "type": "life", "detail_url": "http://api.map.baidu.com/place/detail?uid=0ef9344dda7d10f5cf06a4d8&output=html&source=placeapi_v2", "overall_rating": "3.9", "image_num": "15", "comment_num": "11", "children": [], "lat": 32.016984136555834, "lng": 118.7422897459007}}, {"name": "\u5357\u4eac\u5e02\u4ea4\u901a\u4e8b\u6545\u4fdd\u9669\u7406\u8d54\u670d\u52a1\u4e2d\u5fc3(\u5e94\u5929\u5927\u8857\u5e97)", "location": {"lat": 32.02425386827305, "lng": 118.7290486860293}, "address": "\u6c5f\u82cf\u7701\u5357\u4eac\u5e02\u5efa\u90ba\u533a\u5e94\u5929\u5927\u8857927\u53f7", "province": "\u6c5f\u82cf\u7701", "city": "\u5357\u4eac\u5e02", "area": "\u5efa\u90ba\u533a", "street_id": "8af9e568e483f6e1b4265515", "detail": 1, "uid": "8af9e568e483f6e1b4265515", "detail_info": {"tag": "\u91d1\u878d;\u6295\u8d44\u7406\u8d22", "navi_location": {"lng": 118.74091153243, "lat": 32.028123230876}, "type": "life", "detail_url": "http://api.map.baidu.com/place/detail?uid=8af9e568e483f6e1b4265515&output=html&source=placeapi_v2", "image_num": "7", "children": [], "lat": 32.02425386827305, "lng": 118.7290486860293}}, {"name": "\u4e2d\u56fd\u519c\u4e1a\u94f6\u884c(\u5357\u4eac\u6765\u51e4\u8857\u5206\u7406\u5904)", "location": {"lat": 32.02764190952291, "lng": 118.76635417764888}, "address": "\u6c5f\u82cf\u7701\u5357\u4eac\u5e02\u79e6\u6dee\u533a\u83f1\u89d2\u5e0266\u53f7", "province": "\u6c5f\u82cf\u7701", "city": "\u5357\u4eac\u5e02", "area": "\u79e6\u6dee\u533a", "street_id": "4c850768f62577c59de3216c", "detail": 1, "uid": "4c850768f62577c59de3216c", "detail_info": {"tag": "\u91d1\u878d;\u94f6\u884c", "navi_location": {"lng": 118.77823295176, "lat": 32.031499956738}, "type": "life", "detail_url": "http://api.map.baidu.com/place/detail?uid=4c850768f62577c59de3216c&output=html&source=placeapi_v2", "overall_rating": "3.0", "image_num": "8", "comment_num": "1", "children": [], "lat": 32.02764190952291, "lng": 118.76635417764888}}, {"name": "\u4e8b\u6545\u7406\u8d54\u4e2d\u5317\u70b9", "location": {"lat": 32.02440425404669, "lng": 118.7291264122049}, "address": "\u6c5f\u82cf\u7701\u5357\u4eac\u5e02\u5efa\u90ba\u533a\u5e94\u5929\u5927\u8857927-1", "province": "\u6c5f\u82cf\u7701", "city": "\u5357\u4eac\u5e02", "area": "\u5efa\u90ba\u533a", "street_id": "e9cacc7001c7a4146e20b9e6", "detail": 1, "uid": "e9cacc7001c7a4146e20b9e6", "detail_info": {"tag": "\u91d1\u878d;\u6295\u8d44\u7406\u8d22", "navi_location": {"lng": 118.74088149759, "lat": 32.028138397416}, "type": "life", "detail_url": "http://api.map.baidu.com/place/detail?uid=e9cacc7001c7a4146e20b9e6&output=html&source=placeapi_v2", "image_num": "5", "children": [], "lat": 32.02440425404669, "lng": 118.7291264122049}}, {"name": "\u4e2d\u56fd\u90ae\u653f\u50a8\u84c4\u94f6\u884c(\u94f6\u6865\u90ae\u5c40\u8425\u4e1a\u90e8)", "location": {"lat": 32.01627849500806, "lng": 118.75309932093505}, "address": "\u6c5f\u82cf\u7701\u5357\u4eac\u5e02\u5efa\u90ba\u533a\u5e94\u5929\u5927\u8857770-7-8\u53f7", "province": "\u6c5f\u82cf\u7701", "city": "\u5357\u4eac\u5e02", "area": "\u5efa\u90ba\u533a", "street_id": "b3aa435d6af7ae0b14764387", "telephone": "(025)83601382", "detail": 1, "uid": "b3aa435d6af7ae0b14764387", "detail_info": {"tag": "\u91d1\u878d;\u94f6\u884c", "navi_location": {"lng": 118.76477359238, "lat": 32.019778101284}, "type": "life", "detail_url": "http://api.map.baidu.com/place/detail?uid=b3aa435d6af7ae0b14764387&output=html&source=placeapi_v2", "overall_rating": "2.0", "image_num": "7", "comment_num": "6", "children": [], "lat": 32.01627849500806, "lng": 118.75309932093505}}, {"name": "\u4e2d\u56fd\u5de5\u5546\u94f6\u884c\u5357\u82d1\u5206\u7406\u5904", "location": {"lat": 32.02446437581302, "lng": 118.75485821127349}, "address": "\u96c6\u5e86\u95e8\u5927\u885740\u53f7", "province": "\u6c5f\u82cf\u7701", "city": "\u5357\u4eac\u5e02", "area": "\u5efa\u90ba\u533a", "street_id": "5e53af1a765e185f4051c0af", "telephone": "(025)86425235", "detail": 1, "uid": "5e53af1a765e185f4051c0af", "detail_info": {"tag": "\u91d1\u878d;\u94f6\u884c", "navi_location": {"lng": 118.7666039288, "lat": 32.028200983082}, "type": "life", "detail_url": "http://api.map.baidu.com/place/detail?uid=5e53af1a765e185f4051c0af&output=html&source=placeapi_v2", "overall_rating": "4.0", "image_num": "20", "comment_num": "8", "children": [], "lat": 32.02446437581302, "lng": 118.75485821127349}}, {"name": "\u6e24\u6d77\u94f6\u884c(\u5357\u4eac\u57ce\u5357\u652f\u884c)", "location": {"lat": 32.00885891841451, "lng": 118.75585399615545}, "address": "\u6c5f\u82cf\u7701\u5357\u4eac\u5e02\u96e8\u82b1\u53f0\u533a\u51e4\u53f0\u5357\u8def19\u53f7", "province": "\u6c5f\u82cf\u7701", "city": "\u5357\u4eac\u5e02", "area": "\u96e8\u82b1\u53f0\u533a", "street_id": "5de27e98075ea1785f17c3b9", "telephone": "(025)86733205", "detail": 1, "uid": "5de27e98075ea1785f17c3b9", "detail_info": {"tag": "\u91d1\u878d;\u94f6\u884c", "navi_location": {"lng": 118.76752453744, "lat": 32.012722128064}, "type": "life", "detail_url": "http://api.map.baidu.com/place/detail?uid=5de27e98075ea1785f17c3b9&output=html&source=placeapi_v2", "overall_rating": "5.0", "image_num": "9", "comment_num": "3", "children": [], "lat": 32.00885891841451, "lng": 118.75585399615545}}, {"name": "\u4e2d\u56fd\u5de5\u5546\u94f6\u884c(\u51e4\u53f0\u5357\u8def\u652f\u884c)", "location": {"lat": 32.01106430301367, "lng": 118.75827333592555}, "address": "\u5fb7\u76c8\u56fd\u96458\u680b1\u697c", "province": "\u6c5f\u82cf\u7701", "city": "\u5357\u4eac\u5e02", "area": "\u96e8\u82b1\u53f0\u533a", "street_id": "673b1ec0068c45492f473354", "telephone": "(025)83715907", "detail": 1, "uid": "673b1ec0068c45492f473354", "detail_info": {"tag": "\u91d1\u878d;\u94f6\u884c", "navi_location": {"lng": 118.76985969339, "lat": 32.014958581614}, "type": "life", "detail_url": "http://api.map.baidu.com/place/detail?uid=673b1ec0068c45492f473354&output=html&source=placeapi_v2", "overall_rating": "2.3", "image_num": "7", "comment_num": "4", "children": [], "lat": 32.01106430301367, "lng": 118.75827333592555}}, {"name": "\u4e2d\u91d1\u5178\u5f53", "location": {"lat": 32.024668397142214, "lng": 118.74054705752631}, "address": "\u6c5f\u82cf\u7701\u5357\u4eac\u5e02\u5efa\u90ba\u533a\u6240\u8857\u4e50\u57fa\u5e7f\u573a\u4e1c\u533a1\u697c\u95e8\u9762\u623f", "province": "\u6c5f\u82cf\u7701", "city": "\u5357\u4eac\u5e02", "area": "\u5efa\u90ba\u533a", "street_id": "", "telephone": "18112900777", "detail": 1, "uid": "58504d2060c5a9efc9291570", "detail_info": {"tag": "\u91d1\u878d;\u5178\u5f53\u884c", "navi_location": {"lng": 118.75237226505, "lat": 32.028168127278}, "type": "life", "detail_url": "http://api.map.baidu.com/place/detail?uid=58504d2060c5a9efc9291570&output=html&source=placeapi_v2", "overall_rating": "5.0", "image_num": "9", "comment_num": "3", "children": [], "lat": 32.024668397142214, "lng": 118.74054705752631}}, {"name": "\u6c5f\u82cf\u94f6\u884c(\u6cb3\u897f\u652f\u884c)", "location": {"lat": 32.02263953203391, "lng": 118.73420436620978}, "address": "\u5efa\u90ba\u533a\u5e94\u5929\u5927\u8857901\u53f7\u6cb3\u897f\u6307\u6325\u90e81\u697c", "province": "\u6c5f\u82cf\u7701", "city": "\u5357\u4eac\u5e02", "area": "\u5efa\u90ba\u533a", "street_id": "16b6b583cc18c7b0250bd068", "telephone": "95319,(025)58588482,(025)58588477", "detail": 1, "uid": "16b6b583cc18c7b0250bd068", "detail_info": {"tag": "\u91d1\u878d;\u94f6\u884c", "navi_location": {"lng": 118.74584577728, "lat": 32.026604687968}, "type": "life", "detail_url": "http://api.map.baidu.com/place/detail?uid=16b6b583cc18c7b0250bd068&output=html&source=placeapi_v2", "overall_rating": "0.0", "image_num": "13", "children": [], "lat": 32.02263953203391, "lng": 118.73420436620978}}, {"name": "\u4e2d\u56fd\u6c11\u751f\u94f6\u884c", "location": {"lat": 32.00684186171779, "lng": 118.76156793656214}, "address": "\u957f\u8679\u8def\u4e9a\u4e1c\u56fd\u9645\u516c\u5bd32\u671f9\u5e62", "province": "\u6c5f\u82cf\u7701", "city": "\u5357\u4eac\u5e02", "area": "\u96e8\u82b1\u53f0\u533a", "street_id": "5f463642f7986f4681288a4c", "telephone": "95568", "detail": 1, "uid": "5f463642f7986f4681288a4c", "detail_info": {"tag": "\u91d1\u878d;\u94f6\u884c", "navi_location": {"lng": 118.77340656736, "lat": 32.010716548885}, "type": "life", "detail_url": "http://api.map.baidu.com/place/detail?uid=5f463642f7986f4681288a4c&output=html&source=placeapi_v2", "overall_rating": "5.0", "image_num": "12", "comment_num": "3", "children": [], "lat": 32.00684186171779, "lng": 118.76156793656214}}, {"name": "\u4e2d\u56fd\u519c\u4e1a\u94f6\u884c(\u5357\u4eac\u5357\u6e56\u6625\u6653\u652f\u884c)", "location": {"lat": 32.02417654604834, "lng": 118.74845214428315}, "address": "\u5357\u4eac\u5e02\u5efa\u90ba\u533a\u5357\u6e56\u8def27\u53f7", "province": "\u6c5f\u82cf\u7701", "city": "\u5357\u4eac\u5e02", "area": "\u5efa\u90ba\u533a", "street_id": "3835eb45bcfbb738fb2d6170", "telephone": "(025)86458302", "detail": 1, "uid": "3835eb45bcfbb738fb2d6170", "detail_info": {"tag": "\u91d1\u878d;\u94f6\u884c", "navi_location": {"lng": 118.76003364415, "lat": 32.027955647163}, "type": "life", "detail_url": "http://api.map.baidu.com/place/detail?uid=3835eb45bcfbb738fb2d6170&output=html&source=placeapi_v2", "overall_rating": "4.0", "image_num": "8", "comment_num": "9", "children": [], "lat": 32.02417654604834, "lng": 118.74845214428315}}, {"name": "\u6d59\u5546\u94f6\u884c(\u5357\u4eac\u6cb3\u897f\u652f\u884c)", "location": {"lat": 32.02709852718078, "lng": 118.7373036754909}, "address": "\u5357\u4eac\u5e02\u5efa\u90ba\u533a\u4e91\u9526\u8def157\u53f7", "province": "\u6c5f\u82cf\u7701", "city": "\u5357\u4eac\u5e02", "area": "\u5efa\u90ba\u533a", "street_id": "3b3cd719657c198c931fc992", "telephone": "(025)85608602,(025)85608637", "detail": 1, "uid": "3b3cd719657c198c931fc992", "detail_info": {"tag": "\u91d1\u878d;\u94f6\u884c", "navi_location": {"lng": 118.74875392908, "lat": 32.030822442932}, "type": "life", "detail_url": "http://api.map.baidu.com/place/detail?uid=3b3cd719657c198c931fc992&output=html&source=placeapi_v2", "image_num": "6", "children": [], "lat": 32.02709852718078, "lng": 118.7373036754909}}, {"name": "\u5e7f\u5dde\u94f6\u884c(\u5357\u4eac\u65b0\u57ce\u652f\u884c)", "location": {"lat": 32.01952167301798, "lng": 118.73248660885261}, "address": "\u6c5f\u4e1c\u4e2d\u8def203", "province": "\u6c5f\u82cf\u7701", "city": "\u5357\u4eac\u5e02", "area": "\u5efa\u90ba\u533a", "street_id": "f65256d0c6a5d8d66e20b9b5", "telephone": "96699,4008396699", "detail": 1, "uid": "f65256d0c6a5d8d66e20b9b5", "detail_info": {"tag": "\u91d1\u878d;\u94f6\u884c", "navi_location": {"lng": 118.74415423027, "lat": 32.023117352053}, "type": "life", "detail_url": "http://api.map.baidu.com/place/detail?uid=f65256d0c6a5d8d66e20b9b5&output=html&source=placeapi_v2", "overall_rating": "4.0", "image_num": "4", "comment_num": "1", "children": [], "lat": 32.01952167301798, "lng": 118.73248660885261}}, {"name": "\u56fd\u6cf0\u541b\u5b89\u8bc1\u5238(\u6cb3\u897f\u5e90\u5c71\u8def\u8425\u4e1a\u90e8)", "location": {"lat": 32.012013916279834, "lng": 118.73179853216367}, "address": "\u5e90\u5c71\u8def94\u53f7\u94c2\u91d1\u65f6\u4ee3\u516c\u5bd32\u53f7\u697c", "province": "\u6c5f\u82cf\u7701", "city": "\u5357\u4eac\u5e02", "area": "\u5efa\u90ba\u533a", "street_id": "253b1447af220ef5c6f025af", "telephone": "(025)83606855", "detail": 1, "uid": "253b1447af220ef5c6f025af", "detail_info": {"tag": "\u91d1\u878d;\u6295\u8d44\u7406\u8d22", "type": "life", "detail_url": "http://api.map.baidu.com/place/detail?uid=253b1447af220ef5c6f025af&output=html&source=placeapi_v2", "overall_rating": "0.0", "image_num": "3", "comment_num": "0", "children": [], "lat": 32.012013916279834, "lng": 118.73179853216367}}, {"name": "\u4e2d\u56fd\u4eba\u6c11\u4fdd\u9669", "location": {"lat": 32.017680717267424, "lng": 118.74288861302968}, "address": "\u6c5f\u82cf\u7701\u5357\u4eac\u5e02\u5efa\u90ba\u533a\u9ec4\u5c71\u8def8\u53f7\u897f\u531780\u7c73", "province": "\u6c5f\u82cf\u7701", "city": "\u5357\u4eac\u5e02", "area": "\u5efa\u90ba\u533a", "street_id": "6fa0bd44635d1015b72655fd", "detail": 1, "uid": "6fa0bd44635d1015b72655fd", "detail_info": {"tag": "\u91d1\u878d;\u6295\u8d44\u7406\u8d22", "navi_location": {"lng": 118.75482975045, "lat": 32.021393604623}, "type": "life", "detail_url": "http://api.map.baidu.com/place/detail?uid=6fa0bd44635d1015b72655fd&output=html&source=placeapi_v2", "image_num": "10", "children": [], "lat": 32.017680717267424, "lng": 118.74288861302968}}, {"name": "\u4e2d\u56fd\u6c11\u751f\u94f6\u884c(\u96c6\u5e86\u95e8\u5927\u8857\u793e\u533a\u652f\u884c)", "location": {"lat": 32.02529413242324, "lng": 118.75209726619246}, "address": "\u6c5f\u82cf\u7701\u5357\u4eac\u5e02\u5efa\u90ba\u533a\u96c6\u5e86\u95e8\u5927\u885789\u53f7-\u300191\u53f7\u9644\u8fd1", "province": "\u6c5f\u82cf\u7701", "city": "\u5357\u4eac\u5e02", "area": "\u5efa\u90ba\u533a", "street_id": "2963d56b9a06df09e7e9650c", "telephone": "(025)68165019", "detail": 1, "uid": "2963d56b9a06df09e7e9650c", "detail_info": {"tag": "\u91d1\u878d;\u94f6\u884c", "navi_location": {"lng": 118.76404564376, "lat": 32.029052160972}, "type": "life", "detail_url": "http://api.map.baidu.com/place/detail?uid=2963d56b9a06df09e7e9650c&output=html&source=placeapi_v2", "overall_rating": "0.0", "image_num": "13", "comment_num": "2", "children": [], "lat": 32.02529413242324, "lng": 118.75209726619246}}, {"name": "\u56fd\u91d1\u8bc1\u5238(\u5357\u4eac\u8425\u4e1a\u90e8)", "location": {"lat": 32.031281463955, "lng": 118.73331724610743}, "address": "\u6c5f\u82cf\u7701\u5357\u4eac\u5e02\u5efa\u90ba\u533a\u6c5f\u4e1c\u4e2d\u8def108\u53f7203,204\u5ba4", "province": "\u6c5f\u82cf\u7701", "city": "\u5357\u4eac\u5e02", "area": "\u5efa\u90ba\u533a", "street_id": "819af50c7f1b44cfa2d23097", "telephone": "(025)82223306,(025)82223309", "detail": 1, "uid": "819af50c7f1b44cfa2d23097", "detail_info": {"tag": "\u91d1\u878d;\u6295\u8d44\u7406\u8d22", "navi_location": {"lng": 118.74527591382, "lat": 32.035937938283}, "type": "life", "detail_url": "http://api.map.baidu.com/place/detail?uid=819af50c7f1b44cfa2d23097&output=html&source=placeapi_v2", "overall_rating": "4.7", "image_num": "1", "comment_num": "3", "children": [], "lat": 32.031281463955, "lng": 118.73331724610743}}, {"name": "\u4e2d\u56fd\u90ae\u653f\u50a8\u84c4\u94f6\u884c(\u5357\u6e56\u8425\u4e1a\u6240)", "location": {"lat": 32.030473617164475, "lng": 118.74804270554746}, "address": "\u6c5f\u82cf\u7701\u5357\u4eac\u5e02\u5efa\u90ba\u533a\u5357\u6e56\u4e1c\u8def932-3", "province": "\u6c5f\u82cf\u7701", "city": "\u5357\u4eac\u5e02", "area": "\u5efa\u90ba\u533a", "street_id": "967bc7bc46198e09e812e4e3", "telephone": "(025)83601595", "detail": 1, "uid": "967bc7bc46198e09e812e4e3", "detail_info": {"tag": "\u91d1\u878d;\u94f6\u884c", "navi_location": {"lng": 118.75998209938, "lat": 32.034319738442}, "type": "life", "detail_url": "http://api.map.baidu.com/place/detail?uid=967bc7bc46198e09e812e4e3&output=html&source=placeapi_v2", "overall_rating": "4.7", "image_num": "8", "comment_num": "6", "children": [], "lat": 32.030473617164475, "lng": 118.74804270554746}}, {"name": "\u5317\u4eac\u94f6\u884c(\u6d9f\u57ce\u793e\u533a\u652f\u884c)", "location": {"lat": 32.01236588755987, "lng": 118.75107057345447}, "address": "\u6c5f\u82cf\u7701\u5357\u4eac\u5e02\u5efa\u90ba\u533a\u6021\u5eb7\u88578\u53f7127\u5ba4", "province": "\u6c5f\u82cf\u7701", "city": "\u5357\u4eac\u5e02", "area": "\u5efa\u90ba\u533a", "street_id": "f86163f460454afa1d5800d8", "telephone": "(025)66779390", "detail": 1, "uid": "f86163f460454afa1d5800d8", "detail_info": {"tag": "\u91d1\u878d;\u94f6\u884c", "navi_location": {"lng": 118.76265055449, "lat": 32.016195892607}, "type": "life", "detail_url": "http://api.map.baidu.com/place/detail?uid=f86163f460454afa1d5800d8&output=html&source=placeapi_v2", "overall_rating": "3.8", "image_num": "9", "comment_num": "4", "children": [], "lat": 32.01236588755987, "lng": 118.75107057345447}}, {"name": "\u5efa\u4fe1\u4eba\u5bff\u4fdd\u9669(\u6c5f\u82cf\u5206\u516c\u53f8)", "location": {"lat": 32.02027753016541, "lng": 118.73110015911134}, "address": "\u5357\u4eac\u5e02\u5efa\u90ba\u533a\u6c5f\u4e1c\u4e2d\u8def156\u53f7", "province": "\u6c5f\u82cf\u7701", "city": "\u5357\u4eac\u5e02", "area": "\u5efa\u90ba\u533a", "street_id": "98a2ff85d62fa8132102620b", "telephone": "(025)58866088", "detail": 1, "uid": "98a2ff85d62fa8132102620b", "detail_info": {"tag": "\u91d1\u878d;\u6295\u8d44\u7406\u8d22", "navi_location": {"lng": 118.74296580532, "lat": 32.023894424585}, "type": "life", "detail_url": "http://api.map.baidu.com/place/detail?uid=98a2ff85d62fa8132102620b&output=html&source=placeapi_v2", "overall_rating": "0.0", "image_num": "7", "children": [], "lat": 32.02027753016541, "lng": 118.73110015911134}}, {"name": "\u4e2d\u56fd\u4eba\u5bff\u4fdd\u9669(\u5357\u4eac\u5e02\u4e2d\u5fc3\u652f\u516c\u53f8)", "location": {"lat": 32.024386227085294, "lng": 118.72834322174134}, "address": "\u6c5f\u82cf\u7701\u5357\u4eac\u5e02\u5efa\u90ba\u533a\u5174\u9686\u8857\u9053\u5e94\u5929\u5927\u8857927\u53f7\u4e2d\u5317\u5927\u53a62\u697c", "province": "\u6c5f\u82cf\u7701", "city": "\u5357\u4eac\u5e02", "area": "\u5efa\u90ba\u533a", "street_id": "bb19f8793aee36e0ebe582c5", "detail": 1, "uid": "bb19f8793aee36e0ebe582c5", "detail_info": {"tag": "\u91d1\u878d;\u6295\u8d44\u7406\u8d22", "navi_location": {"lng": 118.7407012463, "lat": 32.028170404435}, "type": "life", "detail_url": "http://api.map.baidu.com/place/detail?uid=bb19f8793aee36e0ebe582c5&output=html&source=placeapi_v2", "image_num": "1", "children": [], "lat": 32.024386227085294, "lng": 118.72834322174134}}, {"name": "\u7d2b\u91d1\u519c\u6751\u5546\u4e1a\u94f6\u884c(\u57ce\u5357\u652f\u884c)", "location": {"lat": 32.0062918216541, "lng": 118.76639560323477}, "address": "\u6c5f\u82cf\u7701\u5357\u4eac\u5e02\u96e8\u82b1\u53f0\u533a\u96e8\u82b1\u897f\u8def110-1\u53f7", "province": "\u6c5f\u82cf\u7701", "city": "\u5357\u4eac\u5e02", "area": "\u96e8\u82b1\u53f0\u533a", "street_id": "befdb292a1b7aee186154187", "telephone": "(025)52405459,(025)52406986", "detail": 1, "uid": "befdb292a1b7aee186154187", "detail_info": {"tag": "\u91d1\u878d;\u4fe1\u7528\u793e", "navi_location": {"lng": 118.7781362357, "lat": 32.010183036965}, "type": "life", "detail_url": "http://api.map.baidu.com/place/detail?uid=befdb292a1b7aee186154187&output=html&source=placeapi_v2", "overall_rating": "4.0", "image_num": "16", "comment_num": "7", "children": [], "lat": 32.0062918216541, "lng": 118.76639560323477}}, {"name": "\u7d2b\u91d1\u519c\u5546\u94f6\u884c(\u5174\u9686\u652f\u884c)", "location": {"lat": 32.02269273082705, "lng": 118.73232109175083}, "address": "\u5357\u4eac\u5e02\u5efa\u90ba\u533a\u6c5f\u4e1c\u4e2d\u8def140\u53f7", "province": "\u6c5f\u82cf\u7701", "city": "\u5357\u4eac\u5e02", "area": "\u5efa\u90ba\u533a", "street_id": "283047d4f3371c828e772777", "telephone": "(025)86801617", "detail": 1, "uid": "283047d4f3371c828e772777", "detail_info": {"tag": "\u91d1\u878d;\u4fe1\u7528\u793e", "type": "life", "detail_url": "http://api.map.baidu.com/place/detail?uid=283047d4f3371c828e772777&output=html&source=placeapi_v2", "overall_rating": "4.5", "image_num": "9", "comment_num": "3", "children": [], "lat": 32.02269273082705, "lng": 118.73232109175083}}, {"name": "\u6c5f\u82cf\u7701\u519c\u6751\u4fe1\u7528\u5408\u4f5c\u793e(\u8054\u5408\u793e\u4fe1\u606f\u7ed3\u7b97\u4e2d\u5fc3)", "location": {"lat": 32.006280100466036, "lng": 118.76632317714657}, "address": "\u6c5f\u82cf\u7701\u5357\u4eac\u5e02\u96e8\u82b1\u53f0\u533a\u96e8\u82b1\u897f\u8def110-1", "province": "\u6c5f\u82cf\u7701", "city": "\u5357\u4eac\u5e02", "area": "\u96e8\u82b1\u53f0\u533a", "street_id": "cb0ca3f28dbb143d07026fc4", "telephone": "(025)52406986", "detail": 1, "uid": "cb0ca3f28dbb143d07026fc4", "detail_info": {"tag": "\u91d1\u878d;\u4fe1\u7528\u793e", "type": "life", "detail_url": "http://api.map.baidu.com/place/detail?uid=cb0ca3f28dbb143d07026fc4&output=html&source=placeapi_v2", "overall_rating": "0.0", "image_num": "2", "comment_num": "1", "children": [], "lat": 32.006280100466036, "lng": 118.76632317714657}}, {"name": "\u4e2d\u56fd\u94f6\u6cb3\u8bc1\u5238(\u5357\u4eac\u6c5f\u4e1c\u4e2d\u8def\u8425\u4e1a\u90e8)", "location": {"lat": 32.01637093203699, "lng": 118.73144720496894}, "address": "\u6c5f\u82cf\u7701\u5357\u4eac\u5e02\u5efa\u90ba\u533a\u6c5f\u4e1c\u4e2d\u8def213\u53f7\u51e4\u51f0\u6587\u5316\u5e7f\u573aB\u5ea73\u697c", "province": "\u6c5f\u82cf\u7701", "city": "\u5357\u4eac\u5e02", "area": "\u5efa\u90ba\u533a", "street_id": "10da427ededbc5eb1ce99970", "telephone": "025-84205558", "detail": 1, "uid": "10da427ededbc5eb1ce99970", "detail_info": {"tag": "\u91d1\u878d;\u6295\u8d44\u7406\u8d22", "navi_location": {"lng": 118.74333573831, "lat": 32.019471814979}, "type": "life", "detail_url": "http://api.map.baidu.com/place/detail?uid=10da427ededbc5eb1ce99970&output=html&source=placeapi_v2", "overall_rating": "3.7", "image_num": "10", "comment_num": "3", "children": [], "lat": 32.01637093203699, "lng": 118.73144720496894}}, {"name": "\u6e24\u6d77\u94f6\u884c\u540c\u4e1a\u4e1a\u52a1\u8425\u9500\u4e2d\u5fc3", "location": {"lat": 32.01562577689134, "lng": 118.73108597487338}, "address": "\u6c5f\u82cf\u7701\u5357\u4eac\u5e02\u5efa\u90ba\u533a\u6cb3\u897f\u4e2d\u592e\u5546\u52a1\u533a\u6c5f\u4e1c\u4e2d\u8def213\u53f7\u6e24\u6d77\u94f6\u884c\u540c\u4e1a\u4e1a\u52a1\u8425\u9500\u4e2d\u5fc3", "province": "\u6c5f\u82cf\u7701", "city": "\u5357\u4eac\u5e02", "area": "\u5efa\u90ba\u533a", "detail": 1, "uid": "da7fe50d09391a4c76e5b67a", "detail_info": {"tag": "\u91d1\u878d;\u5176\u4ed6", "type": "life", "detail_url": "http://api.map.baidu.com/place/detail?uid=da7fe50d09391a4c76e5b67a&output=html&source=placeapi_v2", "image_num": "1", "children": [], "lat": 32.01562577689134, "lng": 118.73108597487338}}, {"name": "\u7b2c\u4e00\u521b\u4e1a\u8bc1\u5238", "location": {"lat": 32.03125638006193, "lng": 118.73322835224718}, "address": "\u5357\u4eac\u5e02\u5efa\u90ba\u533a\u6c5f\u4e1c\u4e2d\u8def108\u53f7\u6cb3\u897f\u4e07\u8fbe\u5e7f\u573aC\u5ea7802-803\u5ba4", "province": "\u6c5f\u82cf\u7701", "city": "\u5357\u4eac\u5e02", "area": "\u5efa\u90ba\u533a", "telephone": "(025)85670005,(025)85670007", "detail": 1, "uid": "9c1f44aba3f53e983b221c89", "detail_info": {"tag": "\u91d1\u878d;\u6295\u8d44\u7406\u8d22", "type": "life", "detail_url": "http://api.map.baidu.com/place/detail?uid=9c1f44aba3f53e983b221c89&output=html&source=placeapi_v2", "image_num": "1", "children": [], "lat": 32.03125638006193, "lng": 118.73322835224718}}, {"name": "\u6c5f\u82cf\u534e\u4e30\u5178\u5f53\u884c", "location": {"lat": 32.02528520578488, "lng": 118.76554530676087}, "address": "\u6765\u51e4\u885751\u53f7", "province": "\u6c5f\u82cf\u7701", "city": "\u5357\u4eac\u5e02", "area": "\u79e6\u6dee\u533a", "street_id": "73ff979d550ef727a80dd87c", "telephone": "(025)84400392", "detail": 1, "uid": "73ff979d550ef727a80dd87c", "detail_info": {"tag": "\u91d1\u878d;\u5178\u5f53\u884c", "navi_location": {"lng": 118.77730213119, "lat": 32.029280927879}, "type": "life", "detail_url": "http://api.map.baidu.com/place/detail?uid=73ff979d550ef727a80dd87c&output=html&source=placeapi_v2", "overall_rating": "0.0", "image_num": "7", "comment_num": "1", "children": [], "lat": 32.02528520578488, "lng": 118.76554530676087}}, {"name": "\u9633\u5149\u4fdd\u9669(\u6c5f\u82cf\u5206\u516c\u53f8)", "location": {"lat": 32.01168442853994, "lng": 118.73033490028826}, "address": "\u5357\u4eac\u5e02\u5efa\u90ba\u533a\u6c5f\u4e1c\u4e2d\u8def229\u53f71\u5e62\u7b2c11\u5c421101-1108\u5ba4\u300112\u5c421201-1208\u5ba4", "province": "\u6c5f\u82cf\u7701", "city": "\u5357\u4eac\u5e02", "area": "\u5efa\u90ba\u533a", "telephone": "(025)83566000", "detail": 1, "uid": "e70892688e31d66a724b878e", "detail_info": {"tag": "\u91d1\u878d;\u6295\u8d44\u7406\u8d22", "type": "life", "detail_url": "http://api.map.baidu.com/place/detail?uid=e70892688e31d66a724b878e&output=html&source=placeapi_v2", "image_num": "1", "children": [], "lat": 32.01168442853994, "lng": 118.73033490028826}}, {"name": "\u534e\u590f\u94f6\u884c", "location": {"lat": 32.0167552899162, "lng": 118.73530761333812}, "address": "\u5357\u4eac\u5e02\u5efa\u90ba\u533a\u5e90\u5c71\u8def\u4e0e\u6021\u5eb7\u8857\u4ea4\u53c9\u8def\u53e3\u5f80\u897f\u5357\u7ea6200\u7c73(\u5b8f\u56fe\u4e0a\u6c34\u4e91\u9526)", "province": "\u6c5f\u82cf\u7701", "city": "\u5357\u4eac\u5e02", "area": "\u5efa\u90ba\u533a", "street_id": "81181fbf2bcbdee9f8221345", "detail": 1, "uid": "81181fbf2bcbdee9f8221345", "detail_info": {"tag": "\u91d1\u878d;\u94f6\u884c", "navi_location": {"lng": 118.74694426209, "lat": 32.020196699872}, "type": "life", "detail_url": "http://api.map.baidu.com/place/detail?uid=81181fbf2bcbdee9f8221345&output=html&source=placeapi_v2", "image_num": "5", "children": [], "lat": 32.0167552899162, "lng": 118.73530761333812}}, {"name": "\u5357\u4eac\u5b89\u5bcc\u6295\u8d44\u62c5\u4fdd\u6709\u9650\u516c\u53f8(\u5f69\u8679\u8def\u5e97)", "location": {"lat": 32.024519032285404, "lng": 118.75715847132054}, "address": "\u96c6\u5e86\u95e8\u5927\u8857\u4e91\u6cb3\u8def26\u53f7", "province": "\u6c5f\u82cf\u7701", "city": "\u5357\u4eac\u5e02", "area": "\u5efa\u90ba\u533a", "street_id": "a1418eb48083e002eae582be", "telephone": "(025)52365800", "detail": 1, "uid": "a1418eb48083e002eae582be", "detail_info": {"tag": "\u91d1\u878d;\u6295\u8d44\u7406\u8d22", "type": "life", "detail_url": "http://api.map.baidu.com/place/detail?uid=a1418eb48083e002eae582be&output=html&source=placeapi_v2", "overall_rating": "0.0", "image_num": "9", "children": [], "lat": 32.024519032285404, "lng": 118.75715847132054}}, {"name": "\u4e2d\u56fd\u592a\u5e73\u4fdd\u9669", "location": {"lat": 32.012036551456255, "lng": 118.73008234644149}, "address": "\u6cb3\u897f\u4e2d\u592e\u5546\u52a1\u533a\u6c5f\u4e1c\u4e2d\u8def229\u53f7\u51ef\u65cb\u57ceB\u5ea710\u697c", "province": "\u6c5f\u82cf\u7701", "city": "\u5357\u4eac\u5e02", "area": "\u5efa\u90ba\u533a", "detail": 1, "uid": "3b05640858086978b13c815b", "detail_info": {"tag": "\u91d1\u878d;\u6295\u8d44\u7406\u8d22", "type": "life", "detail_url": "http://api.map.baidu.com/place/detail?uid=3b05640858086978b13c815b&output=html&source=placeapi_v2", "image_num": "1", "children": [], "lat": 32.012036551456255, "lng": 118.73008234644149}}, {"name": "\u5c71\u897f\u8bc1\u5238(\u5357\u4eac\u957f\u8679\u8def\u8425\u4e1a\u90e8)", "location": {"lat": 32.01005538034989, "lng": 118.7598809379357}, "address": "\u6c5f\u82cf\u7701\u5357\u4eac\u5e02\u96e8\u82b1\u53f0\u533a\u957f\u8679\u8def222\u53f73\u5e621601\u5ba4", "province": "\u6c5f\u82cf\u7701", "city": "\u5357\u4eac\u5e02", "area": "\u96e8\u82b1\u53f0\u533a", "street_id": "8f8d4d9af2330b4b882fb5f8", "telephone": "(025)82223328", "detail": 1, "uid": "8f8d4d9af2330b4b882fb5f8", "detail_info": {"tag": "\u91d1\u878d;\u6295\u8d44\u7406\u8d22", "type": "life", "detail_url": "http://api.map.baidu.com/place/detail?uid=8f8d4d9af2330b4b882fb5f8&output=html&source=placeapi_v2", "children": [], "lat": 32.01005538034989, "lng": 118.7598809379357}}, {"name": "\u9f50\u5929\u7406\u8d54", "location": {"lat": 32.01853708501411, "lng": 118.74347847147978}, "address": "\u65b0\u57ce\u79d1\u6280\u56ed\u9ec4\u5c71\u8def2\u53f7", "province": "\u6c5f\u82cf\u7701", "city": "\u5357\u4eac\u5e02", "area": "\u5efa\u90ba\u533a", "detail": 1, "uid": "4edef7414395fffce115f9b7", "detail_info": {"tag": "\u91d1\u878d;\u6295\u8d44\u7406\u8d22", "type": "life", "detail_url": "http://api.map.baidu.com/place/detail?uid=4edef7414395fffce115f9b7&output=html&source=placeapi_v2", "image_num": "1", "children": [], "lat": 32.01853708501411, "lng": 118.74347847147978}}, {"name": "\u4e2d\u94f6\u56fd\u9645\u8bc1\u5238", "location": {"lat": 32.012594700929604, "lng": 118.72916516192338}, "address": "\u6c5f\u4e1c\u4e2d\u8def231\u53f7\u4e00\u697c", "province": "\u6c5f\u82cf\u7701", "city": "\u5357\u4eac\u5e02", "area": "\u5efa\u90ba\u533a", "street_id": "d3fbc14beb20600149fc8d52", "telephone": "(025)52339810", "detail": 1, "uid": "d3fbc14beb20600149fc8d52", "detail_info": {"tag": "\u91d1\u878d;\u6295\u8d44\u7406\u8d22", "type": "life", "detail_url": "http://api.map.baidu.com/place/detail?uid=d3fbc14beb20600149fc8d52&output=html&source=placeapi_v2", "image_num": "4", "children": [], "lat": 32.012594700929604, "lng": 118.72916516192338}}, {"name": "\u4e2d\u56fd\u5de5\u5546\u94f6\u884c24h(\u4e07\u8fbe\u5e7f\u573a\u652f\u884c)", "location": {"lat": 32.031471221937, "lng": 118.7297293030503}, "address": "\u96c6\u5e86\u95e8\u5927\u8857222-9", "province": "\u6c5f\u82cf\u7701", "city": "\u5357\u4eac\u5e02", "area": "\u5efa\u90ba\u533a", "street_id": "659b2f5ab1b43629e812e4e3", "detail": 1, "uid": "659b2f5ab1b43629e812e4e3", "detail_info": {"tag": "\u91d1\u878d;atm", "navi_location": {"lng": 118.74150596095, "lat": 32.034964655997}, "type": "life", "detail_url": "http://api.map.baidu.com/place/detail?uid=659b2f5ab1b43629e812e4e3&output=html&source=placeapi_v2", "overall_rating": "4.5", "image_num": "10", "comment_num": "5", "children": [], "lat": 32.031471221937, "lng": 118.7297293030503}}, {"name": "\u62db\u5546\u94f6\u884c24\u5c0f\u65f6\u81ea\u52a9\u94f6\u884c\u670d\u52a1(\u4e07\u8fbe\u5e7f\u573a\u4e07\u8fbe\u4e2d\u5fc3C\u5ea7\u897f\u5357)", "location": {"lat": 32.031068410872656, "lng": 118.73326049826153}, "address": "\u6c5f\u4e1c\u4e2d\u8def108-11\u53f7", "province": "\u6c5f\u82cf\u7701", "city": "\u5357\u4eac\u5e02", "area": "\u5efa\u90ba\u533a", "street_id": "cc67f04fe3e433c2eddfca7e", "detail": 1, "uid": "cc67f04fe3e433c2eddfca7e", "detail_info": {"tag": "\u91d1\u878d;atm", "type": "life", "detail_url": "http://api.map.baidu.com/place/detail?uid=cc67f04fe3e433c2eddfca7e&output=html&source=placeapi_v2", "overall_rating": "4.5", "image_num": "9", "comment_num": "4", "children": [], "lat": 32.031068410872656, "lng": 118.73326049826153}}, {"name": "\u5b9a\u5f8b\u5b89\u4faf\u4fdd\u9669\u4ee3\u7406\u6709\u9650\u516c\u53f8", "location": {"lat": 32.016960586376854, "lng": 118.73166370124746}, "address": "\u5efa\u90ba\u533a\u6c5f\u4e1c\u4e2d\u8def215\u53f7\u51e4\u51f0\u6587\u5316\u5e7f\u573ab\u5ea719\u697c", "province": "\u6c5f\u82cf\u7701", "city": "\u5357\u4eac\u5e02", "area": "\u5efa\u90ba\u533a", "telephone": "(025)83759553", "detail": 1, "uid": "a7d91306332d02578c55ecec", "detail_info": {"tag": "\u91d1\u878d;\u6295\u8d44\u7406\u8d22", "type": "life", "detail_url": "http://api.map.baidu.com/place/detail?uid=a7d91306332d02578c55ecec&output=html&source=placeapi_v2", "overall_rating": "3.0", "image_num": "1", "children": [], "lat": 32.016960586376854, "lng": 118.73166370124746}}, {"name": "\u4e1c\u5434\u4eba\u5bff\u4fdd\u9669\u80a1\u4efd\u6709\u9650\u516c\u53f8(\u6c5f\u82cf\u5206\u516c\u53f8)", "location": {"lat": 32.028675693056876, "lng": 118.73759947190837}, "address": "\u6c5f\u82cf\u7701\u5357\u4eac\u5e02\u5efa\u90ba\u533a\u4e91\u9526\u8def129\u53f7\u6c5f\u82cf\u4fdd\u9669\u7efc\u5408\u5927\u53a63\u697c", "province": "\u6c5f\u82cf\u7701", "city": "\u5357\u4eac\u5e02", "area": "\u5efa\u90ba\u533a", "street_id": "f27128fabdc61f3aed74f8be", "telephone": "(025)87780005", "detail": 1, "uid": "f27128fabdc61f3aed74f8be", "detail_info": {"tag": "\u91d1\u878d;\u6295\u8d44\u7406\u8d22", "type": "life", "detail_url": "http://api.map.baidu.com/place/detail?uid=f27128fabdc61f3aed74f8be&output=html&source=placeapi_v2", "image_num": "2", "children": [], "lat": 32.028675693056876, "lng": 118.73759947190837}}, {"name": "\u4e2d\u56fd\u5de5\u5546\u94f6\u884cATM(\u71d5\u5c71\u8def\u652f\u884c)", "location": {"lat": 32.024154764220114, "lng": 118.72826257580886}, "address": "\u901a\u6c5f\u8def16\u53f7", "province": "\u6c5f\u82cf\u7701", "city": "\u5357\u4eac\u5e02", "area": "\u5efa\u90ba\u533a", "street_id": "bb51406af925811a7f29bdff", "detail": 1, "uid": "bb51406af925811a7f29bdff", "detail_info": {"tag": "\u91d1\u878d;atm", "navi_location": {"lng": 118.7398368662, "lat": 32.02748298119}, "type": "life", "detail_url": "http://api.map.baidu.com/place/detail?uid=bb51406af925811a7f29bdff&output=html&source=placeapi_v2", "overall_rating": "3.0", "image_num": "5", "comment_num": "4", "children": [], "lat": 32.024154764220114, "lng": 118.72826257580886}}, {"name": "\u5b81\u4f9b\u7d2b\u91d1(\u5357\u4eac\u8425\u9500\u90e8)", "location": {"lat": 32.02395927185041, "lng": 118.75592569722986}, "address": "\u96c6\u5e86\u95e8\u5927\u885736\u53f7", "province": "\u6c5f\u82cf\u7701", "city": "\u5357\u4eac\u5e02", "area": "\u5efa\u90ba\u533a", "street_id": "32031ef64f6a0a6e6c3e1b86", "detail": 1, "uid": "32031ef64f6a0a6e6c3e1b86", "detail_info": {"tag": "\u91d1\u878d;\u6295\u8d44\u7406\u8d22", "navi_location": {"lng": 118.76782215773, "lat": 32.027735804842}, "type": "life", "detail_url": "http://api.map.baidu.com/place/detail?uid=32031ef64f6a0a6e6c3e1b86&output=html&source=placeapi_v2", "image_num": "9", "children": [], "lat": 32.02395927185041, "lng": 118.75592569722986}}, {"name": "\u4ea4\u901a\u94f6\u884c24\u5c0f\u65f6\u81ea\u52a9\u94f6\u884c\u670d\u52a1(\u96c6\u5e86\u95e8\u5927\u8857\u5e97)", "location": {"lat": 32.02373864329241, "lng": 118.75496521176078}, "address": "\u5efa\u90ba\u533a\u96c6\u5e86\u95e8\u5927\u8857\u5357\u82d1\u65b0\u6751\u53f0\u56ed16\u5e6258-1\u53f7", "province": "\u6c5f\u82cf\u7701", "city": "\u5357\u4eac\u5e02", "area": "\u5efa\u90ba\u533a", "street_id": "707f0846240433982bb97cc6", "detail": 1, "uid": "707f0846240433982bb97cc6", "detail_info": {"tag": "\u91d1\u878d;atm", "navi_location": {"lng": 118.76677919449, "lat": 32.027599648984}, "type": "life", "detail_url": "http://api.map.baidu.com/place/detail?uid=707f0846240433982bb97cc6&output=html&source=placeapi_v2", "overall_rating": "4.0", "image_num": "20", "comment_num": "6", "children": [], "lat": 32.02373864329241, "lng": 118.75496521176078}}, {"name": "\u62db\u5546\u94f6\u884c24\u5c0f\u65f6\u81ea\u52a9\u94f6\u884c\u670d\u52a1(\u5357\u6e56\u8def\u652f\u884c)", "location": {"lat": 32.023964902180616, "lng": 118.74748711791263}, "address": "\u5357\u6e56\u8def26\u53f71-1s\u9644\u8fd1", "province": "\u6c5f\u82cf\u7701", "city": "\u5357\u4eac\u5e02", "area": "\u5efa\u90ba\u533a", "street_id": "1b60783512949ca9d1ff2365", "detail": 1, "uid": "1b60783512949ca9d1ff2365", "detail_info": {"tag": "\u91d1\u878d;atm", "navi_location": {"lng": 118.75937586982, "lat": 32.027476257345}, "type": "life", "detail_url": "http://api.map.baidu.com/place/detail?uid=1b60783512949ca9d1ff2365&output=html&source=placeapi_v2", "overall_rating": "0.0", "image_num": "8", "comment_num": "2", "children": [], "lat": 32.023964902180616, "lng": 118.74748711791263}}, {"name": "\u4e2d\u56fd\u5efa\u8bbe\u94f6\u884cATM(\u8679\u60a6\u57ce)", "location": {"lat": 32.01120251107944, "lng": 118.7606340455833}, "address": "\u5357\u4eac\u5e02\u96e8\u82b1\u53f0\u533a\u5e94\u5929\u5927\u8857619\u53f7\u8679\u60a6\u57ceF1", "province": "\u6c5f\u82cf\u7701", "city": "\u5357\u4eac\u5e02", "area": "\u96e8\u82b1\u53f0\u533a", "detail": 1, "uid": "d8804350e9ff47a6e856fa20", "detail_info": {"tag": "\u91d1\u878d;atm", "indoor_floor": "F1", "type": "life", "detail_url": "http://api.map.baidu.com/place/detail?uid=d8804350e9ff47a6e856fa20&output=html&source=placeapi_v2", "overall_rating": "1.0", "image_num": "3", "comment_num": "2", "children": [], "lat": 32.01120251107944, "lng": 118.7606340455833}}, {"name": "\u4e2d\u56fd\u5de5\u5546\u94f6\u884c24\u5c0f\u65f6\u81ea\u52a9\u94f6\u884c(\u5e94\u5929\u897f\u8def\u5206\u7406\u5904)", "location": {"lat": 32.0208481759174, "lng": 118.74495779987477}, "address": "\u5357\u6e56\u8def58\u5357\u82d1\u5927\u53a6", "province": "\u6c5f\u82cf\u7701", "city": "\u5357\u4eac\u5e02", "area": "\u5efa\u90ba\u533a", "street_id": "d146b388f2e07ca075026982", "detail": 1, "uid": "d146b388f2e07ca075026982", "detail_info": {"tag": "\u91d1\u878d;atm", "navi_location": {"lng": 118.7572011117, "lat": 32.024567110071}, "type": "life", "detail_url": "http://api.map.baidu.com/place/detail?uid=d146b388f2e07ca075026982&output=html&source=placeapi_v2", "overall_rating": "0.0", "image_num": "7", "comment_num": "3", "children": [], "lat": 32.0208481759174, "lng": 118.74495779987477}}, {"name": "\u4e2d\u56fd\u519c\u4e1a\u94f6\u884c24\u5c0f\u65f6\u81ea\u52a9\u94f6\u884c(\u5357\u4eac\u4e91\u9526\u8def\u652f\u884c)", "location": {"lat": 32.02780442059993, "lng": 118.73734911619259}, "address": "\u4e91\u9526\u8def149\u53f7", "province": "\u6c5f\u82cf\u7701", "city": "\u5357\u4eac\u5e02", "area": "\u5efa\u90ba\u533a", "street_id": "6cd0c4eb442997e330870aa0", "detail": 1, "uid": "6cd0c4eb442997e330870aa0", "detail_info": {"tag": "\u91d1\u878d;atm", "type": "life", "detail_url": "http://api.map.baidu.com/place/detail?uid=6cd0c4eb442997e330870aa0&output=html&source=placeapi_v2", "image_num": "4", "children": [], "lat": 32.02780442059993, "lng": 118.73734911619259}}, {"name": "\u4e2d\u56fd\u90ae\u653f\u50a8\u84c4\u94f6\u884c24\u5c0f\u65f6\u81ea\u52a9\u94f6\u884c(\u96c6\u5e86\u95e8\u90ae\u5c40\u8425\u4e1a\u90e8)", "location": {"lat": 32.030631720782544, "lng": 118.73818901619444}, "address": "\u96c6\u5e86\u95e8\u5927\u8857190\u4e4b1-3", "province": "\u6c5f\u82cf\u7701", "city": "\u5357\u4eac\u5e02", "area": "\u5efa\u90ba\u533a", "street_id": "b9e5d0b8737174c181a12e4d", "detail": 1, "uid": "b9e5d0b8737174c181a12e4d", "detail_info": {"tag": "\u91d1\u878d;atm", "type": "life", "detail_url": "http://api.map.baidu.com/place/detail?uid=b9e5d0b8737174c181a12e4d&output=html&source=placeapi_v2", "overall_rating": "2.8", "image_num": "7", "comment_num": "5", "children": [], "lat": 32.030631720782544, "lng": 118.73818901619444}}, {"name": "\u7533\u6c47\u91d1\u878d\u5357\u4eac\u516c\u53f8", "location": {"lat": 32.016719961191725, "lng": 118.75183877777694}, "address": "\u5e94\u5929\u5927\u8857772\u53f71\u53f7\u697c301\u5ba4", "province": "\u6c5f\u82cf\u7701", "city": "\u5357\u4eac\u5e02", "area": "\u5efa\u90ba\u533a", "detail": 1, "uid": "394fae9ee2ac4e3490114cec", "detail_info": {"tag": "\u516c\u53f8\u4f01\u4e1a;\u516c\u53f8", "detail_url": "http://api.map.baidu.com/place/detail?uid=394fae9ee2ac4e3490114cec&output=html&source=placeapi_v2", "children": [], "lat": 32.016719961191725, "lng": 118.75183877777694}}, {"name": "\u4e2d\u534e\u8054\u5408\u8d22\u4ea7\u4fdd\u9669\u80a1\u4efd\u6709\u9650\u516c\u53f8\u6c5f\u82cf\u5206\u516c\u53f8\u57ce\u4e2d\u8425\u9500\u670d\u52a1\u90e8", "location": {"lat": 32.017619417194645, "lng": 118.7319770385988}, "address": "\u6c5f\u4e1c\u4e2d\u8def211\u53f71001\u5ba4\u30011002\u5ba4", "province": "\u6c5f\u82cf\u7701", "city": "\u5357\u4eac\u5e02", "area": "\u5efa\u90ba\u533a", "detail": 1, "uid": "e88842d445086357cf06a460", "detail_info": {"tag": "\u91d1\u878d;\u6295\u8d44\u7406\u8d22", "type": "life", "detail_url": "http://api.map.baidu.com/place/detail?uid=e88842d445086357cf06a460&output=html&source=placeapi_v2", "image_num": "1", "children": [], "lat": 32.017619417194645, "lng": 118.7319770385988}}, {"name": "\u5357\u4eac\u94f6\u884c24\u5c0f\u65f6\u81ea\u52a9\u94f6\u884c(\u5357\u4eac\u5206\u884c\u9ec4\u5c71\u8def\u652f\u884c)", "location": {"lat": 32.01687786230238, "lng": 118.74232484391247},