[{"name": "\u5357\u4eac\u4e2d\u56fd\u7eff\u5316\u535a\u89c8\u56ed", "location": {"lat": 32.021700052805095, "lng": 118.70440597609462}, "address": "\u6c5f\u82cf\u7701\u5357\u4eac\u5efa\u90ba\u533a\u626c\u5b50\u6c5f\u5927\u9053228\u53f7", "province": "\u6c5f\u82cf\u7701", "city": "\u5357\u4eac\u5e02", "area": "\u5efa\u90ba\u533a", "street_id": "eef2d52832b1cfdb3be4a655", "telephone": "(025)86467521", "detail": 1, "uid": "eef2d52832b1cfdb3be4a655", "detail_info": {"tag": "\u65c5\u6e38\u666f\u70b9;\u690d\u7269\u56ed", "navi_location": {"lng": 118.72034535239, "lat": 32.029186869949}, "type": "scope", "detail_url": "http://api.map.baidu.com/place/detail?uid=eef2d52832b1cfdb3be4a655&output=html&source=placeapi_v2", "overall_rating": "4.5", "comment_num": "73", "children": [], "lat": 32.021700052805095, "lng": 118.70440597609462}}, {"name": "\u8377\u5170\u56ed", "location": {"lat": 32.0201370216764, "lng": 118.7020993073366}, "address": "\u5357\u4eac\u5e02\u5efa\u90ba\u533a\u626c\u5b50\u6c5f\u5927\u9053228\u53f7\u6ee8\u6c5f\u516c\u56ed\u5357\u4eac\u4e2d\u56fd\u7eff\u5316\u535a\u89c8\u56ed\u5185", "province": "\u6c5f\u82cf\u7701", "city": "\u5357\u4eac\u5e02", "area": "\u5efa\u90ba\u533a", "street_id": "847ec173519543ada1d230d0", "detail": 1, "uid": "847ec173519543ada1d230d0", "detail_info": {"tag": "\u65c5\u6e38\u666f\u70b9;\u666f\u70b9", "navi_location": {"lng": 118.71463504166, "lat": 32.023812452817}, "type": "scope", "detail_url": "http://api.map.baidu.com/place/detail?uid=847ec173519543ada1d230d0&output=html&source=placeapi_v2", "overall_rating": "4.5", "comment_num": "2", "children": [], "lat": 32.0201370216764, "lng": 118.7020993073366}}, {"name": "\u5de6\u5cb8\u82b1\u6d77", "location": {"lat": 32.01559118886778, "lng": 118.70127067443062}, "address": "\u5357\u4eac\u5e02\u5efa\u90ba\u533a\u626c\u5b50\u6c5f\u5927\u9053228\u53f7\u6ee8\u6c5f\u516c\u56ed\u5185", "province": "\u6c5f\u82cf\u7701", "city": "\u5357\u4eac\u5e02", "area": "\u5efa\u90ba\u533a", "street_id": "1d756ce51a07808a2bd7ab58", "detail": 1, "uid": "1d756ce51a07808a2bd7ab58", "detail_info": {"tag": "\u65c5\u6e38\u666f\u70b9;\u5176\u4ed6", "type": "scope", "detail_url": "http://api.map.baidu.com/place/detail?uid=1d756ce51a07808a2bd7ab58&output=html&source=placeapi_v2", "overall_rating": "4.4", "comment_num": "5", "children": [], "lat": 32.01559118886778, "lng": 118.70127067443062}}, {"name": "\u7eff\u8272\u4eba\u5c45", "location": {"lat": 32.02358170173434, "lng": 118.70304790062865}, "address": "\u5357\u4eac\u5e02\u5efa\u90ba\u533a\u626c\u5b50\u6c5f\u5927\u9053228\u53f7\u6ee8\u6c5f\u516c\u56ed\u5357\u4eac\u4e2d\u56fd\u7eff\u5316\u535a\u89c8\u56ed\u5185", "province": "\u6c5f\u82cf\u7701", "city": "\u5357\u4eac\u5e02", "area": "\u5efa\u90ba\u533a", "street_id": "6bba8e8d32b1f15eb64f54e9", "detail": 1, "uid": "6bba8e8d32b1f15eb64f54e9", "detail_info": {"tag": "\u65c5\u6e38\u666f\u70b9;\u666f\u70b9", "type": "scope", "detail_url": "http://api.map.baidu.com/place/detail?uid=6bba8e8d32b1f15eb64f54e9&output=html&source=placeapi_v2", "overall_rating": "5.0", "comment_num": "1", "children": [], "lat": 32.02358170173434, "lng": 118.70304790062865}}, {"name": "\u6ee8\u6c5f\u516c\u56ed(\u626c\u5b50\u6c5f\u5927\u9053)", "location": {"lat": 32.012634120895186, "lng": 118.71343552079539}, "address": "\u5357\u4eac\u5e02\u5efa\u90ba\u533a\u626c\u5b50\u6c5f\u5927\u9053122\u53f7", "province": "\u6c5f\u82cf\u7701", "city": "\u5357\u4eac\u5e02", "area": "\u5efa\u90ba\u533a", "street_id": "efd9d6d8cf721727ad31e57e", "telephone": "(025)86467521", "detail": 1, "uid": "efd9d6d8cf721727ad31e57e", "detail_info": {"tag": "\u65c5\u6e38\u666f\u70b9;\u516c\u56ed", "navi_location": {"lng": 118.72579351602, "lat": 32.016923686158}, "type": "scope", "detail_url": "http://api.map.baidu.com/place/detail?uid=efd9d6d8cf721727ad31e57e&output=html&source=placeapi_v2", "overall_rating": "4.4", "comment_num": "26", "children": [], "lat": 32.012634120895186, "lng": 118.71343552079539}}, {"name": "\u5357\u4eac\u5e02\u65b9\u5fd7\u9986", "location": {"lat": 32.016512677043735, "lng": 118.71718677880364}, "address": "\u5357\u4eac\u5e02\u68a6\u90fd\u5927\u8857168\u53f7", "province": "\u6c5f\u82cf\u7701", "city": "\u5357\u4eac\u5e02", "area": "\u5efa\u90ba\u533a", "street_id": "589007c0a0a7f4f4b35c6a7b", "detail": 1, "uid": "589007c0a0a7f4f4b35c6a7b", "detail_info": {"tag": "\u65c5\u6e38\u666f\u70b9;\u666f\u70b9", "navi_location": {"lng": 118.7290877254, "lat": 32.020547441327}, "type": "scope", "detail_url": "http://api.map.baidu.com/place/detail?uid=589007c0a0a7f4f4b35c6a7b&output=html&source=placeapi_v2", "overall_rating": "3.3", "comment_num": "3", "children": [], "lat": 32.016512677043735, "lng": 118.71718677880364}}, {"name": "\u4eb2\u5b50\u6c99\u8da3\u56ed", "location": {"lat": 32.02774759019534, "lng": 118.70665370121033}, "address": "\u5357\u4eac\u5e02\u5efa\u90ba\u533a\u626c\u5b50\u6c5f\u5927\u9053228\u53f7\u6ee8\u6c5f\u516c\u56ed\u5357\u4eac\u4e2d\u56fd\u7eff\u5316\u535a\u89c8\u56ed\u5185", "province": "\u6c5f\u82cf\u7701", "city": "\u5357\u4eac\u5e02", "area": "\u5efa\u90ba\u533a", "street_id": "dc7c2121b9a5e8568d772732", "detail": 1, "uid": "dc7c2121b9a5e8568d772732", "detail_info": {"tag": "\u65c5\u6e38\u666f\u70b9;\u666f\u70b9", "navi_location": {"lng": 118.71972008145, "lat": 32.028893218196}, "type": "scope", "detail_url": "http://api.map.baidu.com/place/detail?uid=dc7c2121b9a5e8568d772732&output=html&source=placeapi_v2", "overall_rating": "4.0", "comment_num": "2", "children": [], "lat": 32.02774759019534, "lng": 118.70665370121033}}, {"name": "\u7eff\u535a\u56ed\u513f\u7ae5\u6e38\u4e50\u573a", "location": {"lat": 32.02692955459654, "lng": 118.7052735271802}, "address": "\u6c5f\u82cf\u7701\u5357\u4eac\u5e02\u5efa\u90ba\u533a\u626c\u5b50\u6c5f\u5927\u9053228\u53f7\u6ee8\u6c5f\u516c\u56ed\u5357\u4eac\u4e2d\u56fd\u7eff\u5316\u535a\u89c8\u56ed\u5185", "province": "\u6c5f\u82cf\u7701", "city": "\u5357\u4eac\u5e02", "area": "\u5efa\u90ba\u533a", "street_id": "5b8d92abed96a3544bcc4a9d", "detail": 1, "uid": "5b8d92abed96a3544bcc4a9d", "detail_info": {"tag": "\u65c5\u6e38\u666f\u70b9;\u6e38\u4e50\u56ed", "navi_location": {"lng": 118.71758964753, "lat": 32.023339651527}, "type": "scope", "detail_url": "http://api.map.baidu.com/place/detail?uid=5b8d92abed96a3544bcc4a9d&output=html&source=placeapi_v2", "overall_rating": "4.7", "comment_num": "23", "children": [], "lat": 32.02692955459654, "lng": 118.7052735271802}}, {"name": "\u8377\u5170\u98ce\u8f66", "location": {"lat": 32.020129422158, "lng": 118.7012430526581}, "address": "\u5357\u4eac\u5e02\u5efa\u90ba\u533a\u626c\u5b50\u6c5f\u5927\u9053228\u53f7\u6ee8\u6c5f\u516c\u56ed\u5357\u4eac\u4e2d\u56fd\u7eff\u5316\u535a\u89c8\u56ed\u8377\u5170\u56ed\u5185", "province": "\u6c5f\u82cf\u7701", "city": "\u5357\u4eac\u5e02", "area": "\u5efa\u90ba\u533a", "street_id": "ca5f2cdae2bddf4cb05c6acd", "detail": 1, "uid": "ca5f2cdae2bddf4cb05c6acd", "detail_info": {"tag": "\u65c5\u6e38\u666f\u70b9;\u666f\u70b9", "type": "scope", "detail_url": "http://api.map.baidu.com/place/detail?uid=ca5f2cdae2bddf4cb05c6acd&output=html&source=placeapi_v2", "overall_rating": "3.5", "comment_num": "2", "children": [], "lat": 32.020129422158, "lng": 118.7012430526581}}, {"name": "\u6cc9\u6797\u7ade\u79c0", "location": {"lat": 32.01524711025613, "lng": 118.70434910640793}, "address": "\u5357\u4eac\u5e02\u5efa\u90ba\u533a\u626c\u5b50\u6c5f\u5927\u9053228\u53f7\u6ee8\u6c5f\u516c\u56ed\u5185", "province": "\u6c5f\u82cf\u7701", "city": "\u5357\u4eac\u5e02", "area": "\u5efa\u90ba\u533a", "street_id": "f12ad763c9c956519d82ea24", "detail": 1, "uid": "f12ad763c9c956519d82ea24", "detail_info": {"tag": "\u65c5\u6e38\u666f\u70b9;\u666f\u70b9", "type": "scope", "detail_url": "http://api.map.baidu.com/place/detail?uid=f12ad763c9c956519d82ea24&output=html&source=placeapi_v2", "overall_rating": "5.0", "comment_num": "1", "children": [], "lat": 32.01524711025613, "lng": 118.70434910640793}}, {"name": "\u6050\u6016\u57ce", "location": {"lat": 32.02740051439535, "lng": 118.70515493392666}, "address": "\u5357\u4eac\u5e02\u5efa\u90ba\u533a\u626c\u5b50\u6c5f\u5927\u9053228\u53f7\u6ee8\u6c5f\u516c\u56ed\u5357\u4eac\u4e2d\u56fd\u7eff\u5316\u535a\u89c8\u56ed\u7eff\u535a\u56ed\u513f\u7ae5\u6e38\u4e50\u573a\u5185", "province": "\u6c5f\u82cf\u7701", "city": "\u5357\u4eac\u5e02", "area": "\u5efa\u90ba\u533a", "street_id": "44e6bdfe94ccc1d4931fc999", "detail": 1, "uid": "44e6bdfe94ccc1d4931fc999", "detail_info": {"tag": "\u65c5\u6e38\u666f\u70b9;\u666f\u70b9", "type": "scope", "detail_url": "http://api.map.baidu.com/place/detail?uid=44e6bdfe94ccc1d4931fc999&output=html&source=placeapi_v2", "overall_rating": "0.0", "comment_num": "4", "children": [], "lat": 32.02740051439535, "lng": 118.70515493392666}}, {"name": "\u91d1\u9e70\u5f53\u4ee3", "location": {"lat": 32.0088562505969, "lng": 118.7030573712357}, "address": "\u5357\u4eac\u5e02\u5efa\u90ba\u533a\u626c\u5b50\u6c5f\u5927\u9053228\u53f7\u6ee8\u6c5f\u516c\u56ed\u5185", "province": "\u6c5f\u82cf\u7701", "city": "\u5357\u4eac\u5e02", "area": "\u5efa\u90ba\u533a", "street_id": "ba451c08c3f8beb846e274f4", "detail": 1, "uid": "ba451c08c3f8beb846e274f4", "detail_info": {"tag": "\u65c5\u6e38\u666f\u70b9;\u6587\u7269\u53e4\u8ff9", "navi_location": {"lng": 118.71436092193, "lat": 32.012703676082}, "type": "scope", "detail_url": "http://api.map.baidu.com/place/detail?uid=ba451c08c3f8beb846e274f4&output=html&source=placeapi_v2", "overall_rating": "4.5", "comment_num": "2", "children": [], "lat": 32.0088562505969, "lng": 118.7030573712357}}, {"name": "\u59d1\u82cf\u56ed", "location": {"lat": 32.022906393500925, "lng": 118.70597080479739}, "address": "\u5357\u4eac\u5e02\u5efa\u90ba\u533a\u626c\u5b50\u6c5f\u5927\u9053228\u53f7\u6ee8\u6c5f\u516c\u56ed\u5357\u4eac\u4e2d\u56fd\u7eff\u5316\u535a\u89c8\u56ed\u5185", "province": "\u6c5f\u82cf\u7701", "city": "\u5357\u4eac\u5e02", "area": "\u5efa\u90ba\u533a", "street_id": "e7b1efc1c42883b6e8e58239", "detail": 1, "uid": "e7b1efc1c42883b6e8e58239", "detail_info": {"tag": "\u65c5\u6e38\u666f\u70b9;\u666f\u70b9", "type": "scope", "detail_url": "http://api.map.baidu.com/place/detail?uid=e7b1efc1c42883b6e8e58239&output=html&source=placeapi_v2", "overall_rating": "3.0", "comment_num": "1", "children": [], "lat": 32.022906393500925, "lng": 118.70597080479739}}, {"name": "\u6c5f\u82cf\u56ed", "location": {"lat": 32.02317251037144, "lng": 118.70574612546562}, "address": "\u5357\u4eac\u5e02\u5efa\u90ba\u533a\u626c\u5b50\u6c5f\u5927\u9053228\u53f7\u6ee8\u6c5f\u516c\u56ed\u5357\u4eac\u4e2d\u56fd\u7eff\u5316\u535a\u89c8\u56ed\u5185", "province": "\u6c5f\u82cf\u7701", "city": "\u5357\u4eac\u5e02", "area": "\u5efa\u90ba\u533a", "street_id": "6b21018f16671959081cc7e6", "detail": 1, "uid": "6b21018f16671959081cc7e6", "detail_info": {"tag": "\u65c5\u6e38\u666f\u70b9;\u666f\u70b9", "type": "scope", "detail_url": "http://api.map.baidu.com/place/detail?uid=6b21018f16671959081cc7e6&output=html&source=placeapi_v2", "overall_rating": "4.5", "comment_num": "4", "children": [], "lat": 32.02317251037144, "lng": 118.70574612546562}}, {"name": "\u57fa\u7763\u6559\u5723\u8bad\u5802", "location": {"lat": 32.016057345688914, "lng": 118.71209284626883}, "address": "\u4e50\u5c71\u8def150\u53f7", "province": "\u6c5f\u82cf\u7701", "city": "\u5357\u4eac\u5e02", "area": "\u5efa\u90ba\u533a", "street_id": "1fff8b558cc1158cd8d89136", "detail": 1, "uid": "1fff8b558cc1158cd8d89136", "detail_info": {"tag": "\u65c5\u6e38\u666f\u70b9;\u6559\u5802", "navi_location": {"lng": 118.72609540417, "lat": 32.01848749329}, "type": "scope", "detail_url": "http://api.map.baidu.com/place/detail?uid=1fff8b558cc1158cd8d89136&output=html&source=placeapi_v2", "overall_rating": "3.9", "comment_num": "8", "children": [], "lat": 32.016057345688914, "lng": 118.71209284626883}}, {"name": "\u6ee8\u6c5f\u6808\u9053", "location": {"lat": 32.02346350571949, "lng": 118.70199007878648}, "address": "\u5357\u4eac\u5e02\u5efa\u90ba\u533a\u626c\u5b50\u6c5f\u5927\u9053228\u53f7\u6ee8\u6c5f\u516c\u56ed\u5357\u4eac\u4e2d\u56fd\u7eff\u5316\u535a\u89c8\u56ed\u5185", "province": "\u6c5f\u82cf\u7701", "city": "\u5357\u4eac\u5e02", "area": "\u5efa\u90ba\u533a", "detail": 1, "uid": "b237acae2a4f7eac03ff2d5c", "detail_info": {"tag": "\u65c5\u6e38\u666f\u70b9;\u666f\u70b9", "type": "scope", "detail_url": "http://api.map.baidu.com/place/detail?uid=b237acae2a4f7eac03ff2d5c&output=html&source=placeapi_v2", "overall_rating": "0.0", "children": [], "lat": 32.02346350571949, "lng": 118.70199007878648}}, {"name": "\u9633\u5149\u8349\u576a", "location": {"lat": 32.022256266630144, "lng": 118.70510497258249}, "address": "\u5357\u4eac\u5e02\u5efa\u90ba\u533a\u626c\u5b50\u6c5f\u5927\u9053228\u53f7\u6ee8\u6c5f\u516c\u56ed\u5357\u4eac\u4e2d\u56fd\u7eff\u5316\u535a\u89c8\u56ed\u5185", "province": "\u6c5f\u82cf\u7701", "city": "\u5357\u4eac\u5e02", "area": "\u5efa\u90ba\u533a", "street_id": "0201fec912600d53abf0cdbe", "detail": 1, "uid": "0201fec912600d53abf0cdbe", "detail_info": {"tag": "\u65c5\u6e38\u666f\u70b9;\u666f\u70b9", "type": "scope", "detail_url": "http://api.map.baidu.com/place/detail?uid=0201fec912600d53abf0cdbe&output=html&source=placeapi_v2", "overall_rating": "5.0", "comment_num": "1", "children": [], "lat": 32.022256266630144, "lng": 118.70510497258249}}, {"name": "\u7eff\u535a\u56ed\u6c99\u6ee9", "location": {"lat": 32.00872396267573, "lng": 118.70298484825705}, "address": "\u626c\u5b50\u6c5f\u5927\u9053226\u53f7", "province": "\u6c5f\u82cf\u7701", "city": "\u5357\u4eac\u5e02", "area": "\u5efa\u90ba\u533a", "detail": 1, "uid": "27bbfdda88093a282fb17ec3", "detail_info": {"tag": "\u65c5\u6e38\u666f\u70b9", "type": "scope", "detail_url": "http://api.map.baidu.com/place/detail?uid=27bbfdda88093a282fb17ec3&output=html&source=placeapi_v2", "overall_rating": "4.5", "comment_num": "8", "children": [], "lat": 32.00872396267573, "lng": 118.70298484825705}}, {"name": "\u4fb5\u534e\u65e5\u519b\u5357\u4eac\u5927\u5c60\u6740\u4e0a\u65b0\u6cb3\u5730\u533a\u9047\u96be\u540c\u80de\u7eaa\u5ff5\u7891", "location": {"lat": 32.010328403738384, "lng": 118.70058203774852}, "address": "\u5357\u4eac\u5e02\u5efa\u90ba\u533a\u592a\u9633\u5bab\u8def(\u7eff\u535a\u56ed\u9ad8\u5c14\u592b\u4f1a\u6240\u5317\u4fa7\u7ea6150\u7c73)", "province": "\u6c5f\u82cf\u7701", "city": "\u5357\u4eac\u5e02", "area": "\u5efa\u90ba\u533a", "street_id": "7423ee2e9100ce174302458a", "detail": 1, "uid": "7423ee2e9100ce174302458a", "detail_info": {"tag": "\u65c5\u6e38\u666f\u70b9;\u6587\u7269\u53e4\u8ff9", "type": "scope", "detail_url": "http://api.map.baidu.com/place/detail?uid=7423ee2e9100ce174302458a&output=html&source=placeapi_v2", "children": [], "lat": 32.010328403738384, "lng": 118.70058203774852}}, {"name": "\u97e9\u56fd\u56ed", "location": {"lat": 32.02114593338898, "lng": 118.70463277518513}, "address": "\u5357\u4eac\u5e02\u5efa\u90ba\u533a\u626c\u5b50\u6c5f\u5927\u9053228\u53f7\u6ee8\u6c5f\u516c\u56ed\u5357\u4eac\u4e2d\u56fd\u7eff\u5316\u535a\u89c8\u56ed\u5185", "province": "\u6c5f\u82cf\u7701", "city": "\u5357\u4eac\u5e02", "area": "\u5efa\u90ba\u533a", "street_id": "f1047429a7c712d3c9c3db4f", "detail": 1, "uid": "f1047429a7c712d3c9c3db4f", "detail_info": {"tag": "\u65c5\u6e38\u666f\u70b9;\u666f\u70b9", "type": "scope", "detail_url": "http://api.map.baidu.com/place/detail?uid=f1047429a7c712d3c9c3db4f&output=html&source=placeapi_v2", "overall_rating": "3.5", "comment_num": "2", "children": [], "lat": 32.02114593338898, "lng": 118.70463277518513}}, {"name": "\u6c5f\u5824\u821e\u53f0", "location": {"lat": 32.02517154802993, "lng": 118.70504937839493}, "address": "\u5357\u4eac\u5e02\u5efa\u90ba\u533a\u626c\u5b50\u6c5f\u5927\u9053228\u53f7\u6ee8\u6c5f\u516c\u56ed\u5357\u4eac\u4e2d\u56fd\u7eff\u5316\u535a\u89c8\u56ed\u5185", "province": "\u6c5f\u82cf\u7701", "city": "\u5357\u4eac\u5e02", "area": "\u5efa\u90ba\u533a", "street_id": "d18b9c85f9a6df800f0e6b80", "detail": 1, "uid": "d18b9c85f9a6df800f0e6b80", "detail_info": {"tag": "\u65c5\u6e38\u666f\u70b9;\u666f\u70b9", "type": "scope", "detail_url": "http://api.map.baidu.com/place/detail?uid=d18b9c85f9a6df800f0e6b80&output=html&source=placeapi_v2", "overall_rating": "0.0", "children": [], "lat": 32.02517154802993, "lng": 118.70504937839493}}, {"name": "\u519c\u820d", "location": {"lat": 32.02057040044874, "lng": 118.70188452235978}, "address": "\u5357\u4eac\u5e02\u5efa\u90ba\u533a\u626c\u5b50\u6c5f\u5927\u9053228\u53f7\u6ee8\u6c5f\u516c\u56ed\u5357\u4eac\u4e2d\u56fd\u7eff\u5316\u535a\u89c8\u56ed\u8377\u5170\u56ed\u5185", "province": "\u6c5f\u82cf\u7701", "city": "\u5357\u4eac\u5e02", "area": "\u5efa\u90ba\u533a", "street_id": "6d894d1ada40f7f9f90cad10", "detail": 1, "uid": "6d894d1ada40f7f9f90cad10", "detail_info": {"tag": "\u65c5\u6e38\u666f\u70b9;\u666f\u70b9", "type": "scope", "detail_url": "http://api.map.baidu.com/place/detail?uid=6d894d1ada40f7f9f90cad10&output=html&source=placeapi_v2", "overall_rating": "3.0", "comment_num": "2", "children": [], "lat": 32.02057040044874, "lng": 118.70188452235978}}, {"name": "\u8d63\u4e4b\u97f5", "location": {"lat": 32.02035698203522, "lng": 118.70504345644736}, "address": "\u5357\u4eac\u5e02\u5efa\u90ba\u533a\u626c\u5b50\u6c5f\u5927\u9053228\u53f7\u6ee8\u6c5f\u516c\u56ed\u5357\u4eac\u4e2d\u56fd\u7eff\u5316\u535a\u89c8\u56ed\u5185", "province": "\u6c5f\u82cf\u7701", "city": "\u5357\u4eac\u5e02", "area": "\u5efa\u90ba\u533a", "street_id": "2029cc05adf267b7f603b8d5", "detail": 1, "uid": "2029cc05adf267b7f603b8d5", "detail_info": {"tag": "\u65c5\u6e38\u666f\u70b9;\u666f\u70b9", "navi_location": {"lng": 118.71649338782, "lat": 32.023929944702}, "type": "scope", "detail_url": "http://api.map.baidu.com/place/detail?uid=2029cc05adf267b7f603b8d5&output=html&source=placeapi_v2", "overall_rating": "3.0", "comment_num": "1", "children": [], "lat": 32.02035698203522, "lng": 118.70504345644736}}, {"name": "\u91ce\u751f\u52a8\u7269\u89c2\u5bdf\u7ad9", "location": {"lat": 32.02063557795687, "lng": 118.70089412302251}, "address": "\u5357\u4eac\u5e02\u5efa\u90ba\u533a\u626c\u5b50\u6c5f\u5927\u9053228\u53f7\u6ee8\u6c5f\u516c\u56ed\u5357\u4eac\u4e2d\u56fd\u7eff\u5316\u535a\u89c8\u56ed\u5185", "province": "\u6c5f\u82cf\u7701", "city": "\u5357\u4eac\u5e02", "area": "\u5efa\u90ba\u533a", "detail": 1, "uid": "9294a63e709a48419de3215d", "detail_info": {"tag": "\u65c5\u6e38\u666f\u70b9;\u666f\u70b9", "type": "scope", "detail_url": "http://api.map.baidu.com/place/detail?uid=9294a63e709a48419de3215d&output=html&source=placeapi_v2", "overall_rating": "3.0", "comment_num": "1", "children": [], "lat": 32.02063557795687, "lng": 118.70089412302251}}, {"name": "\u56db\u5b63\u82b1\u6d77", "location": {"lat": 32.026247358468254, "lng": 118.7057816869219}, "address": "\u626c\u5b50\u6c5f\u5927\u9053228", "province": "\u6c5f\u82cf\u7701", "city": "\u5357\u4eac\u5e02", "area": "\u5efa\u90ba\u533a", "street_id": "7ded99ec135174110482c222", "detail": 1, "uid": "7ded99ec135174110482c222", "detail_info": {"tag": "\u65c5\u6e38\u666f\u70b9;\u5176\u4ed6", "navi_location": {"lng": 118.71974679436, "lat": 32.02993532652}, "type": "scope", "detail_url": "http://api.map.baidu.com/place/detail?uid=7ded99ec135174110482c222&output=html&source=placeapi_v2", "overall_rating": "0.0", "children": [], "lat": 32.026247358468254, "lng": 118.7057816869219}}, {"name": "\u6c5f\u82cf\u7701\u6c11\u9632\u6559\u80b2\u4f53\u9a8c\u9986", "location": {"lat": 32.02422295974414, "lng": 118.71735397965313}, "address": "\u6c5f\u82cf\u7701\u5357\u4eac\u5e02\u5efa\u90ba\u533a\u6708\u5b89\u885751\u53f7", "province": "\u6c5f\u82cf\u7701", "city": "\u5357\u4eac\u5e02", "area": "\u5efa\u90ba\u533a", "street_id": "8055d71456cef2af3310af56", "telephone": "(025)86339797", "detail": 1, "uid": "8055d71456cef2af3310af56", "detail_info": {"tag": "\u6587\u5316\u4f20\u5a92;\u5c55\u89c8\u9986", "navi_location": {"lng": 118.729080194, "lat": 32.028089484307}, "type": "enterprise", "detail_url": "http://api.map.baidu.com/place/detail?uid=8055d71456cef2af3310af56&output=html&source=placeapi_v2", "overall_rating": "4.9", "comment_num": "7", "children": [], "lat": 32.02422295974414, "lng": 118.71735397965313}}, {"name": "\u4e03\u5f69\u8dd1\u9177", "location": {"lat": 32.029406068560924, "lng": 118.70742817632052}, "address": "\u626c\u5b50\u6c5f\u5927\u9053228", "province": "\u6c5f\u82cf\u7701", "city": "\u5357\u4eac\u5e02", "area": "\u5efa\u90ba\u533a", "street_id": "90366fa2f98834c025d2bbd8", "detail": 1, "uid": "90366fa2f98834c025d2bbd8", "detail_info": {"tag": "\u65c5\u6e38\u666f\u70b9;\u666f\u70b9", "navi_location": {"lng": 118.72079844871, "lat": 32.033209525173}, "type": "scope", "detail_url": "http://api.map.baidu.com/place/detail?uid=90366fa2f98834c025d2bbd8&output=html&source=placeapi_v2", "overall_rating": "0.0", "children": [], "lat": 32.029406068560924, "lng": 118.70742817632052}}, {"name": "\u6c34\u8f66\u623f", "location": {"lat": 32.02078386261594, "lng": 118.70173441446116}, "address": "\u5357\u4eac\u5e02\u5efa\u90ba\u533a\u626c\u5b50\u6c5f\u5927\u9053228\u53f7\u6ee8\u6c5f\u516c\u56ed\u5357\u4eac\u4e2d\u56fd\u7eff\u5316\u535a\u89c8\u56ed\u8377\u5170\u56ed\u5185", "province": "\u6c5f\u82cf\u7701", "city": "\u5357\u4eac\u5e02", "area": "\u5efa\u90ba\u533a", "street_id": "af52f2c1d99e523f364aae08", "detail": 1, "uid": "af52f2c1d99e523f364aae08", "detail_info": {"tag": "\u65c5\u6e38\u666f\u70b9;\u666f\u70b9", "navi_location": {"lng": 118.71413677584, "lat": 32.023599916733}, "type": "scope", "detail_url": "http://api.map.baidu.com/place/detail?uid=af52f2c1d99e523f364aae08&output=html&source=placeapi_v2", "overall_rating": "3.0", "comment_num": "1", "children": [], "lat": 32.02078386261594, "lng": 118.70173441446116}}, {"name": "\u5357\u4eac\u78a7\u7476\u611f\u6069\u5723\u6bcd\u5802", "location": {"lat": 32.00806941204451, "lng": 118.70832927796238}, "address": "\u5357\u4eac\u5e02\u5efa\u90ba\u533a\u6960\u6eaa\u6c5f\u897f\u8857(\u78a7\u7476\u82b1\u56ed)", "province": "\u6c5f\u82cf\u7701", "city": "\u5357\u4eac\u5e02", "area": "\u5efa\u90ba\u533a", "street_id": "9eb3fb9720a1d41c9cf779e9", "telephone": "(025)83738393", "detail": 1, "uid": "9eb3fb9720a1d41c9cf779e9", "detail_info": {"tag": "\u65c5\u6e38\u666f\u70b9;\u6559\u5802", "navi_location": {"lng": 118.71984700843, "lat": 32.012205370874}, "type": "scope", "detail_url": "http://api.map.baidu.com/place/detail?uid=9eb3fb9720a1d41c9cf779e9&output=html&source=placeapi_v2", "overall_rating": "5.0", "comment_num": "2", "children": [], "lat": 32.00806941204451, "lng": 118.70832927796238}}, {"name": "\u4e50\u5c71\u8def\u4eba\u53e3\u6587\u5316\u56ed", "location": {"lat": 32.00871605167373, "lng": 118.71150421780635}, "address": "\u5965\u4f53\u5927\u8857199\u9644\u8fd1", "province": "\u6c5f\u82cf\u7701", "city": "\u5357\u4eac\u5e02", "area": "\u5efa\u90ba\u533a", "street_id": "c3d79ff6ecbd0b194d776e9b", "detail": 1, "uid": "c3d79ff6ecbd0b194d776e9b", "detail_info": {"tag": "\u65c5\u6e38\u666f\u70b9;\u5176\u4ed6", "navi_location": {"lng": 118.72342696339, "lat": 32.012632781509}, "type": "scope", "detail_url": "http://api.map.baidu.com/place/detail?uid=c3d79ff6ecbd0b194d776e9b&output=html&source=placeapi_v2", "overall_rating": "0.0", "comment_num": "1", "children": [], "lat": 32.00871605167373, "lng": 118.71150421780635}}, {"name": "\u57c3\u53ca\u56ed", "location": {"lat": 32.01985005559997, "lng": 118.70493642853029}, "address": "\u5357\u4eac\u5e02\u5efa\u90ba\u533a\u626c\u5b50\u6c5f\u5927\u9053228\u53f7\u6ee8\u6c5f\u516c\u56ed\u5357\u4eac\u4e2d\u56fd\u7eff\u5316\u535a\u89c8\u56ed\u5185", "province": "\u6c5f\u82cf\u7701", "city": "\u5357\u4eac\u5e02", "area": "\u5efa\u90ba\u533a", "street_id": "4b36b596d89420c89d9d68c1", "detail": 1, "uid": "4b36b596d89420c89d9d68c1", "detail_info": {"tag": "\u65c5\u6e38\u666f\u70b9;\u666f\u70b9", "type": "scope", "detail_url": "http://api.map.baidu.com/place/detail?uid=4b36b596d89420c89d9d68c1&output=html&source=placeapi_v2", "overall_rating": "3.0", "comment_num": "1", "children": [], "lat": 32.01985005559997, "lng": 118.70493642853029}}, {"name": "\u4f11\u95f2\u6728\u5c4b\u533a", "location": {"lat": 32.02096776744968, "lng": 118.70416401159082}, "address": "\u626c\u5b50\u6c5f\u5927\u9053228", "province": "\u6c5f\u82cf\u7701", "city": "\u5357\u4eac\u5e02", "area": "\u5efa\u90ba\u533a", "street_id": "11d82ad95f4b53d3d03ce3b6", "detail": 1, "uid": "11d82ad95f4b53d3d03ce3b6", "detail_info": {"tag": "\u65c5\u6e38\u666f\u70b9;\u666f\u70b9", "navi_location": {"lng": 118.71527440881, "lat": 32.024264650043}, "type": "scope", "detail_url": "http://api.map.baidu.com/place/detail?uid=11d82ad95f4b53d3d03ce3b6&output=html&source=placeapi_v2", "overall_rating": "3.0", "comment_num": "1", "children": [], "lat": 32.02096776744968, "lng": 118.70416401159082}}, {"name": "\u6c88\u9633\u56ed", "location": {"lat": 32.02218102261947, "lng": 118.70606860710355}, "address": "\u5357\u4eac\u5e02\u5efa\u90ba\u533a\u626c\u5b50\u6c5f\u5927\u9053228\u53f7\u6ee8\u6c5f\u516c\u56ed\u5357\u4eac\u4e2d\u56fd\u7eff\u5316\u535a\u89c8\u56ed\u5185", "province": "\u6c5f\u82cf\u7701", "city": "\u5357\u4eac\u5e02", "area": "\u5efa\u90ba\u533a", "street_id": "37d9746f0da835c5018972b1", "detail": 1, "uid": "37d9746f0da835c5018972b1", "detail_info": {"tag": "\u65c5\u6e38\u666f\u70b9;\u666f\u70b9", "type": "scope", "detail_url": "http://api.map.baidu.com/place/detail?uid=37d9746f0da835c5018972b1&output=html&source=placeapi_v2", "overall_rating": "3.0", "comment_num": "1", "children": [], "lat": 32.02218102261947, "lng": 118.70606860710355}}, {"name": "\u949f\u6625\u56ed", "location": {"lat": 32.02228093132647, "lng": 118.70485562226912}, "address": "\u5357\u4eac\u5e02\u5efa\u90ba\u533a\u626c\u5b50\u6c5f\u5927\u9053228\u53f7\u6ee8\u6c5f\u516c\u56ed\u5357\u4eac\u4e2d\u56fd\u7eff\u5316\u535a\u89c8\u56ed\u5185", "province": "\u6c5f\u82cf\u7701", "city": "\u5357\u4eac\u5e02", "area": "\u5efa\u90ba\u533a", "street_id": "89a150cbab6c565cad0457ed", "detail": 1, "uid": "89a150cbab6c565cad0457ed", "detail_info": {"tag": "\u65c5\u6e38\u666f\u70b9;\u666f\u70b9", "type": "scope", "detail_url": "http://api.map.baidu.com/place/detail?uid=89a150cbab6c565cad0457ed&output=html&source=placeapi_v2", "children": [], "lat": 32.02228093132647, "lng": 118.70485562226912}}, {"name": "\u8d35\u5dde\u5c6f\u5821", "location": {"lat": 32.022598052698065, "lng": 118.70503324030538}, "address": "\u5357\u4eac\u5e02\u5efa\u90ba\u533a\u626c\u5b50\u6c5f\u5927\u9053228\u53f7\u6ee8\u6c5f\u516c\u56ed\u5357\u4eac\u4e2d\u56fd\u7eff\u5316\u535a\u89c8\u56ed\u5185", "province": "\u6c5f\u82cf\u7701", "city": "\u5357\u4eac\u5e02", "area": "\u5efa\u90ba\u533a", "street_id": "3685ceb9d1cb94bca0acc464", "detail": 1, "uid": "3685ceb9d1cb94bca0acc464", "detail_info": {"tag": "\u65c5\u6e38\u666f\u70b9;\u666f\u70b9", "navi_location": {"lng": 118.71812622966, "lat": 32.026045370328}, "type": "scope", "detail_url": "http://api.map.baidu.com/place/detail?uid=3685ceb9d1cb94bca0acc464&output=html&source=placeapi_v2", "overall_rating": "0.0", "children": [], "lat": 32.022598052698065, "lng": 118.70503324030538}}, {"name": "\u690d\u7269\u8ff7\u5bab", "location": {"lat": 32.0262085572482, "lng": 118.70481614979818}, "address": "\u5357\u4eac\u5e02\u5efa\u90ba\u533a\u626c\u5b50\u6c5f\u5927\u9053228\u53f7\u6ee8\u6c5f\u516c\u56ed\u5357\u4eac\u4e2d\u56fd\u7eff\u5316\u535a\u89c8\u56ed\u5185", "province": "\u6c5f\u82cf\u7701", "city": "\u5357\u4eac\u5e02", "area": "\u5efa\u90ba\u533a", "street_id": "7183d890df8d34bef503b88b", "detail": 1, "uid": "7183d890df8d34bef503b88b", "detail_info": {"tag": "\u65c5\u6e38\u666f\u70b9;\u666f\u70b9", "type": "scope", "detail_url": "http://api.map.baidu.com/place/detail?uid=7183d890df8d34bef503b88b&output=html&source=placeapi_v2", "children": [], "lat": 32.0262085572482, "lng": 118.70481614979818}}, {"name": "\u738b\u6c49\u6d32\u6545\u5c45", "location": {"lat": 32.02834308253289, "lng": 118.71691508834778}, "address": "\u6c5f\u82cf\u7701\u5357\u4eac\u5e02\u5efa\u90ba\u533a\u6cb3\u5317\u5927\u885783\u53f7", "province": "\u6c5f\u82cf\u7701", "city": "\u5357\u4eac\u5e02", "area": "\u5efa\u90ba\u533a", "detail": 1, "uid": "46cdd9762e8a5cb740e1929f", "detail_info": {"tag": "\u65c5\u6e38\u666f\u70b9;\u6587\u7269\u53e4\u8ff9", "type": "scope", "detail_url": "http://api.map.baidu.com/place/detail?uid=46cdd9762e8a5cb740e1929f&output=html&source=placeapi_v2", "overall_rating": "0.0", "children": [], "lat": 32.02834308253289, "lng": 118.71691508834778}}, {"name": "\u5185\u8499\u53e4\u56ed", "location": {"lat": 32.022015290196045, "lng": 118.70441771109803}, "address": "\u5357\u4eac\u5e02\u5efa\u90ba\u533a\u626c\u5b50\u6c5f\u5927\u9053228\u53f7\u6ee8\u6c5f\u516c\u56ed\u5357\u4eac\u4e2d\u56fd\u7eff\u5316\u535a\u89c8\u56ed\u5185", "province": "\u6c5f\u82cf\u7701", "city": "\u5357\u4eac\u5e02", "area": "\u5efa\u90ba\u533a", "street_id": "64ca3123ecec41414054d75d", "detail": 1, "uid": "64ca3123ecec41414054d75d", "detail_info": {"tag": "\u65c5\u6e38\u666f\u70b9;\u666f\u70b9", "type": "scope", "detail_url": "http://api.map.baidu.com/place/detail?uid=64ca3123ecec41414054d75d&output=html&source=placeapi_v2", "overall_rating": "3.0", "comment_num": "1", "children": [], "lat": 32.022015290196045, "lng": 118.70441771109803}}, {"name": "\u5168\u7403\u6c49\u8bd7\u5927\u4f1a", "location": {"lat": 32.0151916122506, "lng": 118.702062471037}, "address": "\u5357\u4eac\u5e02\u5efa\u90ba\u533a\u626c\u5b50\u6c5f\u5927\u9053228\u53f7\u6ee8\u6c5f\u516c\u56ed\u5185", "province": "\u6c5f\u82cf\u7701", "city": "\u5357\u4eac\u5e02", "area": "\u5efa\u90ba\u533a", "street_id": "50d954b6e58e797cbbbd6375", "detail": 1, "uid": "50d954b6e58e797cbbbd6375", "detail_info": {"tag": "\u65c5\u6e38\u666f\u70b9;\u666f\u70b9", "type": "scope", "detail_url": "http://api.map.baidu.com/place/detail?uid=50d954b6e58e797cbbbd6375&output=html&source=placeapi_v2", "overall_rating": "0.0", "children": [], "lat": 32.0151916122506, "lng": 118.702062471037}}, {"name": "\u5c0f\u871c\u8702", "location": {"lat": 32.02703225704746, "lng": 118.70508370969168}, "address": "\u5357\u4eac\u5e02\u5efa\u90ba\u533a\u626c\u5b50\u6c5f\u5927\u9053228\u53f7\u6ee8\u6c5f\u516c\u56ed\u5357\u4eac\u4e2d\u56fd\u7eff\u5316\u535a\u89c8\u56ed\u7eff\u535a\u56ed\u513f\u7ae5\u6e38\u4e50\u573a\u5185", "province": "\u6c5f\u82cf\u7701", "city": "\u5357\u4eac\u5e02", "area": "\u5efa\u90ba\u533a", "telephone": "18795983893", "detail": 1, "uid": "fe1ccdda4d929bd4c4f50d7d", "detail_info": {"tag": "\u65c5\u6e38\u666f\u70b9;\u666f\u70b9", "type": "scope", "detail_url": "http://api.map.baidu.com/place/detail?uid=fe1ccdda4d929bd4c4f50d7d&output=html&source=placeapi_v2", "overall_rating": "5.0", "comment_num": "1", "children": [], "lat": 32.02703225704746, "lng": 118.70508370969168}}, {"name": "\u5317\u4eac\u56ed", "location": {"lat": 32.023573405772105, "lng": 118.70688929617835}, "address": "\u5357\u4eac\u5e02\u5efa\u90ba\u533a\u626c\u5b50\u6c5f\u5927\u9053228\u53f7\u6ee8\u6c5f\u516c\u56ed\u5357\u4eac\u4e2d\u56fd\u7eff\u5316\u535a\u89c8\u56ed\u5185", "province": "\u6c5f\u82cf\u7701", "city": "\u5357\u4eac\u5e02", "area": "\u5efa\u90ba\u533a", "street_id": "3a6ef132f52a2b27c51e5131", "detail": 1, "uid": "3a6ef132f52a2b27c51e5131", "detail_info": {"tag": "\u65c5\u6e38\u666f\u70b9;\u666f\u70b9", "type": "scope", "detail_url": "http://api.map.baidu.com/place/detail?uid=3a6ef132f52a2b27c51e5131&output=html&source=placeapi_v2", "overall_rating": "3.0", "comment_num": "1", "children": [], "lat": 32.023573405772105, "lng": 118.70688929617835}}, {"name": "\u89c2\u5149\u5c0f\u706b\u8f66\u5730\u94c1\u5e7f\u573a\u505c\u8f66\u70b9", "location": {"lat": 32.02729232999403, "lng": 118.70779558506648}, "address": "\u5357\u4eac\u5e02\u5efa\u90ba\u533a\u626c\u5b50\u6c5f\u5927\u9053228\u53f7\u6ee8\u6c5f\u516c\u56ed\u5357\u4eac\u4e2d\u56fd\u7eff\u5316\u535a\u89c8\u56ed\u5185", "province": "\u6c5f\u82cf\u7701", "city": "\u5357\u4eac\u5e02", "area": "\u5efa\u90ba\u533a", "street_id": "e3ceaaa296fc90a0fda778bc", "detail": 1, "uid": "e3ceaaa296fc90a0fda778bc", "detail_info": {"tag": "\u65c5\u6e38\u666f\u70b9;\u666f\u70b9", "type": "scope", "detail_url": "http://api.map.baidu.com/place/detail?uid=e3ceaaa296fc90a0fda778bc&output=html&source=placeapi_v2", "overall_rating": "0.0", "children": [], "lat": 32.02729232999403, "lng": 118.70779558506648}}, {"name": "\u6fc0\u6d41\u52c7\u8fdb", "location": {"lat": 32.027152597372556, "lng": 118.7052753344454}, "address": "\u5357\u4eac\u5e02\u5efa\u90ba\u533a\u626c\u5b50\u6c5f\u5927\u9053228\u53f7\u6ee8\u6c5f\u516c\u56ed\u5357\u4eac\u4e2d\u56fd\u7eff\u5316\u535a\u89c8\u56ed\u7eff\u535a\u56ed\u513f\u7ae5\u6e38\u4e50\u573a\u5185", "province": "\u6c5f\u82cf\u7701", "city": "\u5357\u4eac\u5e02", "area": "\u5efa\u90ba\u533a", "street_id": "bf41d4752db4fc00e01103bc", "detail": 1, "uid": "bf41d4752db4fc00e01103bc", "detail_info": {"tag": "\u65c5\u6e38\u666f\u70b9;\u666f\u70b9", "navi_location": {"lng": 118.71974679436, "lat": 32.02993532652}, "type": "scope", "detail_url": "http://api.map.baidu.com/place/detail?uid=bf41d4752db4fc00e01103bc&output=html&source=placeapi_v2", "children": [], "lat": 32.027152597372556, "lng": 118.7052753344454}}, {"name": "\u829c\u6e56\u56ed", "location": {"lat": 32.023604622842925, "lng": 118.70517563847798}, "address": "\u5357\u4eac\u5e02\u5efa\u90ba\u533a\u626c\u5b50\u6c5f\u5927\u9053228\u53f7\u6ee8\u6c5f\u516c\u56ed\u5357\u4eac\u4e2d\u56fd\u7eff\u5316\u535a\u89c8\u56ed\u5185", "province": "\u6c5f\u82cf\u7701", "city": "\u5357\u4eac\u5e02", "area": "\u5efa\u90ba\u533a", "street_id": "9f4981f8bc728839128824a8", "detail": 1, "uid": "9f4981f8bc728839128824a8", "detail_info": {"tag": "\u65c5\u6e38\u666f\u70b9;\u666f\u70b9", "type": "scope", "detail_url": "http://api.map.baidu.com/place/detail?uid=9f4981f8bc728839128824a8&output=html&source=placeapi_v2", "overall_rating": "0.0", "children": [], "lat": 32.023604622842925, "lng": 118.70517563847798}}, {"name": "\u4eb2\u6c34\u5e73\u53f0", "location": {"lat": 32.022300443837274, "lng": 118.70146534105605}, "address": "\u5357\u4eac\u5e02\u5efa\u90ba\u533a\u626c\u5b50\u6c5f\u5927\u9053228\u53f7\u6ee8\u6c5f\u516c\u56ed\u5357\u4eac\u4e2d\u56fd\u7eff\u5316\u535a\u89c8\u56ed\u5185", "province": "\u6c5f\u82cf\u7701", "city": "\u5357\u4eac\u5e02", "area": "\u5efa\u90ba\u533a", "detail": 1, "uid": "fae7177cbfc23dc630621204", "detail_info": {"tag": "\u65c5\u6e38\u666f\u70b9;\u666f\u70b9", "type": "scope", "detail_url": "http://api.map.baidu.com/place/detail?uid=fae7177cbfc23dc630621204&output=html&source=placeapi_v2", "children": [], "lat": 32.022300443837274, "lng": 118.70146534105605}}, {"name": "\u300a\u5b66\u6e38\u6cf3\u300b", "location": {"lat": 32.028745671630496, "lng": 118.70723303764173}, "address": "\u5357\u4eac\u5e02\u5efa\u90ba\u533a\u626c\u5b50\u6c5f\u5927\u9053228\u53f7\u6ee8\u6c5f\u516c\u56ed\u5357\u4eac\u4e2d\u56fd\u7eff\u5316\u535a\u89c8\u56ed\u4eb2\u5b50\u6c99\u8da3\u56ed\u5185", "province": "\u6c5f\u82cf\u7701", "city": "\u5357\u4eac\u5e02", "area": "\u5efa\u90ba\u533a", "street_id": "7dc9476e9e34c8e4d718b79d", "detail": 1, "uid": "7dc9476e9e34c8e4d718b79d", "detail_info": {"tag": "\u65c5\u6e38\u666f\u70b9;\u666f\u70b9", "type": "scope", "detail_url": "http://api.map.baidu.com/place/detail?uid=7dc9476e9e34c8e4d718b79d&output=html&source=placeapi_v2", "overall_rating": "0.0", "children": [], "lat": 32.028745671630496, "lng": 118.70723303764173}}, {"name": "\u7c73\u83f2\u7684\u68ee\u6797", "location": {"lat": 32.02268331565665, "lng": 118.70331966086137}, "address": "\u5357\u4eac\u5e02\u5efa\u90ba\u533a\u626c\u5b50\u6c5f\u5927\u9053228\u53f7\u6ee8\u6c5f\u516c\u56ed\u5357\u4eac\u4e2d\u56fd\u7eff\u5316\u535a\u89c8\u56ed\u5185", "province": "\u6c5f\u82cf\u7701", "city": "\u5357\u4eac\u5e02", "area": "\u5efa\u90ba\u533a", "street_id": "2079d630e36ddd7c213bf220", "detail": 1, "uid": "2079d630e36ddd7c213bf220", "detail_info": {"tag": "\u65c5\u6e38\u666f\u70b9;\u666f\u70b9", "navi_location": {"lng": 118.715074446, "lat": 32.024396364162}, "type": "scope", "detail_url": "http://api.map.baidu.com/place/detail?uid=2079d630e36ddd7c213bf220&output=html&source=placeapi_v2", "overall_rating": "0.0", "children": [], "lat": 32.02268331565665, "lng": 118.70331966086137}}, {"name": "\u517b\u58a8\u5802\u7f8e\u672f\u9986", "location": {"lat": 32.02120195976704, "lng": 118.72163065576787}, "address": "\u5efa\u90ba\u533a\u534e\u5c71\u8def136\u53f7", "province": "\u6c5f\u82cf\u7701", "city": "\u5357\u4eac\u5e02", "area": "\u5efa\u90ba\u533a", "street_id": "dc405bbeed17fd8f7dc87632", "telephone": "(025)86630399", "detail": 1, "uid": "dc405bbeed17fd8f7dc87632", "detail_info": {"tag": "\u6587\u5316\u4f20\u5a92;\u7f8e\u672f\u9986", "navi_location": {"lng": 118.73370269539, "lat": 32.025026643499}, "type": "enterprise", "detail_url": "http://api.map.baidu.com/place/detail?uid=dc405bbeed17fd8f7dc87632&output=html&source=placeapi_v2", "overall_rating": "4.0", "comment_num": "2", "children": [], "lat": 32.02120195976704, "lng": 118.72163065576787}}, {"name": "\u5357\u4eac\u4e2d\u56fd\u7eff\u5316\u535a\u89c8\u56ed\u70e7\u70e4\u56ed", "location": {"lat": 32.02934915730423, "lng": 118.7073755716127}, "address": "\u5357\u4eac\u5e02\u5efa\u90ba\u533a\u626c\u5b50\u6c5f\u5927\u9053228\u53f7\u6ee8\u6c5f\u516c\u56ed\u5357\u4eac\u4e2d\u56fd\u7eff\u5316\u535a\u89c8\u56ed\u5317\u95e8", "province": "\u6c5f\u82cf\u7701", "city": "\u5357\u4eac\u5e02", "area": "\u5efa\u90ba\u533a", "telephone": "15195886798", "detail": 1, "uid": "b224fd5916131c517369d3f2", "detail_info": {"tag": "\u7f8e\u98df;\u5176\u4ed6", "type": "cater", "detail_url": "http://api.map.baidu.com/place/detail?uid=b224fd5916131c517369d3f2&output=html&source=placeapi_v2", "price": "84.0", "overall_rating": "4.1", "comment_num": "25", "children": [], "lat": 32.02934915730423, "lng": 118.7073755716127}}, {"name": "\u91d1\u9675\u672c\u571f\u690d\u7269\u56ed", "location": {"lat": 32.022834859039094, "lng": 118.70410033012266}, "address": "\u5357\u4eac\u5e02\u5efa\u90ba\u533a\u626c\u5b50\u6c5f\u5927\u9053228\u53f7\u6ee8\u6c5f\u516c\u56ed\u5357\u4eac\u4e2d\u56fd\u7eff\u5316\u535a\u89c8\u56ed\u5185", "province": "\u6c5f\u82cf\u7701", "city": "\u5357\u4eac\u5e02", "area": "\u5efa\u90ba\u533a", "street_id": "ab39f5a6d3f5d30b11882434", "detail": 1, "uid": "ab39f5a6d3f5d30b11882434", "detail_info": {"tag": "\u65c5\u6e38\u666f\u70b9;\u666f\u70b9", "navi_location": {"lng": 118.7145566627, "lat": 32.023766874562}, "type": "scope", "detail_url": "http://api.map.baidu.com/place/detail?uid=ab39f5a6d3f5d30b11882434&output=html&source=placeapi_v2", "overall_rating": "0.0", "children": [], "lat": 32.022834859039094, "lng": 118.70410033012266}}, {"name": "\u76fc\u5f52\u56ed", "location": {"lat": 32.021902731556644, "lng": 118.70588101872221}, "address": "\u5357\u4eac\u5e02\u5efa\u90ba\u533a\u626c\u5b50\u6c5f\u5927\u9053228\u53f7\u6ee8\u6c5f\u516c\u56ed\u5357\u4eac\u4e2d\u56fd\u7eff\u5316\u535a\u89c8\u56ed\u5185", "province": "\u6c5f\u82cf\u7701", "city": "\u5357\u4eac\u5e02", "area": "\u5efa\u90ba\u533a", "street_id": "6a09bad853454850c9fa5f03", "detail": 1, "uid": "6a09bad853454850c9fa5f03", "detail_info": {"tag": "\u65c5\u6e38\u666f\u70b9;\u666f\u70b9", "type": "scope", "detail_url": "http://api.map.baidu.com/place/detail?uid=6a09bad853454850c9fa5f03&output=html&source=placeapi_v2", "children": [], "lat": 32.021902731556644, "lng": 118.70588101872221}}, {"name": "\u6c38\u5b81\u56ed", "location": {"lat": 32.02298406697104, "lng": 118.70646945222751}, "address": "\u5357\u4eac\u5e02\u5efa\u90ba\u533a\u626c\u5b50\u6c5f\u5927\u9053228\u53f7\u6ee8\u6c5f\u516c\u56ed\u5357\u4eac\u4e2d\u56fd\u7eff\u5316\u535a\u89c8\u56ed\u5185", "province": "\u6c5f\u82cf\u7701", "city": "\u5357\u4eac\u5e02", "area": "\u5efa\u90ba\u533a", "street_id": "82d462b3d83ec22c9c09f7b4", "detail": 1, "uid": "82d462b3d83ec22c9c09f7b4", "detail_info": {"tag": "\u65c5\u6e38\u666f\u70b9;\u666f\u70b9", "type": "scope", "detail_url": "http://api.map.baidu.com/place/detail?uid=82d462b3d83ec22c9c09f7b4&output=html&source=placeapi_v2", "children": [], "lat": 32.02298406697104, "lng": 118.70646945222751}}, {"name": "\u4e2d\u56fd\u519b\u82d1", "location": {"lat": 32.02594565901593, "lng": 118.707297907817}, "address": "\u5357\u4eac\u5e02\u5efa\u90ba\u533a\u626c\u5b50\u6c5f\u5927\u9053228\u53f7\u6ee8\u6c5f\u516c\u56ed\u5357\u4eac\u4e2d\u56fd\u7eff\u5316\u535a\u89c8\u56ed\u5185", "province": "\u6c5f\u82cf\u7701", "city": "\u5357\u4eac\u5e02", "area": "\u5efa\u90ba\u533a", "street_id": "4fd3fe8cf607ebe6c4f0251f", "detail": 1, "uid": "4fd3fe8cf607ebe6c4f0251f", "detail_info": {"tag": "\u65c5\u6e38\u666f\u70b9;\u666f\u70b9", "type": "scope", "detail_url": "http://api.map.baidu.com/place/detail?uid=4fd3fe8cf607ebe6c4f0251f&output=html&source=placeapi_v2", "overall_rating": "0.0", "comment_num": "0", "children": [], "lat": 32.02594565901593, "lng": 118.707297907817}}, {"name": "\u7a7a\u4e2d\u6f2b\u6b65", "location": {"lat": 32.02797009244702, "lng": 118.70535909843115}, "address": "\u5357\u4eac\u5e02\u5efa\u90ba\u533a\u626c\u5b50\u6c5f\u5927\u9053228\u53f7\u6ee8\u6c5f\u516c\u56ed\u5357\u4eac\u4e2d\u56fd\u7eff\u5316\u535a\u89c8\u56ed\u7eff\u535a\u56ed\u513f\u7ae5\u6e38\u4e50\u573a\u5185", "province": "\u6c5f\u82cf\u7701", "city": "\u5357\u4eac\u5e02", "area": "\u5efa\u90ba\u533a", "street_id": "42e3febc3cec9cca8505bf3d", "detail": 1, "uid": "42e3febc3cec9cca8505bf3d", "detail_info": {"tag": "\u65c5\u6e38\u666f\u70b9;\u666f\u70b9", "type": "scope", "detail_url": "http://api.map.baidu.com/place/detail?uid=42e3febc3cec9cca8505bf3d&output=html&source=placeapi_v2", "children": [], "lat": 32.02797009244702, "lng": 118.70535909843115}}, {"name": "\u6d77\u5cb1\u56ed", "location": {"lat": 32.02298806376205, "lng": 118.70491677065955}, "address": "\u5357\u4eac\u5e02\u5efa\u90ba\u533a\u626c\u5b50\u6c5f\u5927\u9053228\u53f7\u6ee8\u6c5f\u516c\u56ed\u5357\u4eac\u4e2d\u56fd\u7eff\u5316\u535a\u89c8\u56ed\u5185", "province": "\u6c5f\u82cf\u7701", "city": "\u5357\u4eac\u5e02", "area": "\u5efa\u90ba\u533a", "street_id": "a79c3cc226c58b0c3a13fd35", "detail": 1, "uid": "a79c3cc226c58b0c3a13fd35", "detail_info": {"tag": "\u65c5\u6e38\u666f\u70b9;\u666f\u70b9", "type": "scope", "detail_url": "http://api.map.baidu.com/place/detail?uid=a79c3cc226c58b0c3a13fd35&output=html&source=placeapi_v2", "overall_rating": "0.0", "children": [], "lat": 32.02298806376205, "lng": 118.70491677065955}}, {"name": "\u6c34\u4e0a\u6311\u6218\u8005", "location": {"lat": 32.02687716236123, "lng": 118.70502125152548}, "address": "\u5357\u4eac\u5e02\u5efa\u90ba\u533a\u626c\u5b50\u6c5f\u5927\u9053228\u53f7\u6ee8\u6c5f\u516c\u56ed\u5357\u4eac\u4e2d\u56fd\u7eff\u5316\u535a\u89c8\u56ed\u7eff\u535a\u56ed\u513f\u7ae5\u6e38\u4e50\u573a\u5185", "province": "\u6c5f\u82cf\u7701", "city": "\u5357\u4eac\u5e02", "area": "\u5efa\u90ba\u533a", "street_id": "0bffa3dd220704fff8dc857a", "detail": 1, "uid": "0bffa3dd220704fff8dc857a", "detail_info": {"tag": "\u65c5\u6e38\u666f\u70b9;\u666f\u70b9", "type": "scope", "detail_url": "http://api.map.baidu.com/place/detail?uid=0bffa3dd220704fff8dc857a&output=html&source=placeapi_v2", "overall_rating": "0.0", "children": [], "lat": 32.02687716236123, "lng": 118.70502125152548}}, {"name": "\u6fc0\u6218\u9ca8\u9c7c", "location": {"lat": 32.02755351934628, "lng": 118.70515480831745}, "address": "\u5357\u4eac\u5e02\u5efa\u90ba\u533a\u626c\u5b50\u6c5f\u5927\u9053228\u53f7\u6ee8\u6c5f\u516c\u56ed\u5357\u4eac\u4e2d\u56fd\u7eff\u5316\u535a\u89c8\u56ed\u7eff\u535a\u56ed\u513f\u7ae5\u6e38\u4e50\u573a\u5185", "province": "\u6c5f\u82cf\u7701", "city": "\u5357\u4eac\u5e02", "area": "\u5efa\u90ba\u533a", "detail": 1, "uid": "c3845db1ec85e914f2193791", "detail_info": {"tag": "\u65c5\u6e38\u666f\u70b9;\u666f\u70b9", "type": "scope", "detail_url": "http://api.map.baidu.com/place/detail?uid=c3845db1ec85e914f2193791&output=html&source=placeapi_v2", "children": [], "lat": 32.02755351934628, "lng": 118.70515480831745}}, {"name": "\u6469\u5929\u73af\u8f66", "location": {"lat": 32.02754754152162, "lng": 118.70527103855783}, "address": "\u5357\u4eac\u5e02\u5efa\u90ba\u533a\u626c\u5b50\u6c5f\u5927\u9053228\u53f7\u6ee8\u6c5f\u516c\u56ed\u5357\u4eac\u4e2d\u56fd\u7eff\u5316\u535a\u89c8\u56ed\u7eff\u535a\u56ed\u513f\u7ae5\u6e38\u4e50\u573a\u5185", "province": "\u6c5f\u82cf\u7701", "city": "\u5357\u4eac\u5e02", "area": "\u5efa\u90ba\u533a", "street_id": "40fccc9fd7e52a8b276e9834", "detail": 1, "uid": "40fccc9fd7e52a8b276e9834", "detail_info": {"tag": "\u65c5\u6e38\u666f\u70b9;\u666f\u70b9", "type": "scope", "detail_url": "http://api.map.baidu.com/place/detail?uid=40fccc9fd7e52a8b276e9834&output=html&source=placeapi_v2", "children": [], "lat": 32.02754754152162, "lng": 118.70527103855783}}, {"name": "\u590f\u65e5\u5c0f\u6eaa", "location": {"lat": 32.026763855208785, "lng": 118.7060385743026}, "address": "\u5357\u4eac\u5e02\u5efa\u90ba\u533a\u626c\u5b50\u6c5f\u5927\u9053228\u53f7\u6ee8\u6c5f\u516c\u56ed\u5357\u4eac\u4e2d\u56fd\u7eff\u5316\u535a\u89c8\u56ed\u5185", "province": "\u6c5f\u82cf\u7701", "city": "\u5357\u4eac\u5e02", "area": "\u5efa\u90ba\u533a", "street_id": "a23b386959c076be32169be5", "detail": 1, "uid": "a23b386959c076be32169be5", "detail_info": {"tag": "\u65c5\u6e38\u666f\u70b9;\u666f\u70b9", "type": "scope", "detail_url": "http://api.map.baidu.com/place/detail?uid=a23b386959c076be32169be5&output=html&source=placeapi_v2", "children": [], "lat": 32.026763855208785, "lng": 118.7060385743026}}, {"name": "\u6447\u5934\u98de\u6905", "location": {"lat": 32.02668707132178, "lng": 118.70547637061195}, "address": "\u5357\u4eac\u5e02\u5efa\u90ba\u533a\u626c\u5b50\u6c5f\u5927\u9053228\u53f7\u6ee8\u6c5f\u516c\u56ed\u5357\u4eac\u4e2d\u56fd\u7eff\u5316\u535a\u89c8\u56ed\u7eff\u535a\u56ed\u513f\u7ae5\u6e38\u4e50\u573a\u5185", "province": "\u6c5f\u82cf\u7701", "city": "\u5357\u4eac\u5e02", "area": "\u5efa\u90ba\u533a", "street_id": "b11a2655020411f2c809f0ad", "detail": 1, "uid": "b11a2655020411f2c809f0ad", "detail_info": {"tag": "\u65c5\u6e38\u666f\u70b9;\u666f\u70b9", "type": "scope", "detail_url": "http://api.map.baidu.com/place/detail?uid=b11a2655020411f2c809f0ad&output=html&source=placeapi_v2", "children": [], "lat": 32.02668707132178, "lng": 118.70547637061195}}, {"name": "\u9633\u5149\u6e29\u5ba4", "location": {"lat": 32.025204349558905, "lng": 118.70342522528128}, "address": "\u5357\u4eac\u5e02\u5efa\u90ba\u533a\u626c\u5b50\u6c5f\u5927\u9053228\u53f7\u6ee8\u6c5f\u516c\u56ed\u5357\u4eac\u4e2d\u56fd\u7eff\u5316\u535a\u89c8\u56ed\u5185", "province": "\u6c5f\u82cf\u7701", "city": "\u5357\u4eac\u5e02", "area": "\u5efa\u90ba\u533a", "street_id": "6264a95527e4798b40e192d5", "detail": 1, "uid": "6264a95527e4798b40e192d5", "detail_info": {"tag": "\u65c5\u6e38\u666f\u70b9;\u666f\u70b9", "type": "scope", "detail_url": "http://api.map.baidu.com/place/detail?uid=6264a95527e4798b40e192d5&output=html&source=placeapi_v2", "children": [], "lat": 32.025204349558905, "lng": 118.70342522528128}}, {"name": "\u81ea\u63a7\u98de\u673a", "location": {"lat": 32.02808864875035, "lng": 118.70579311154957}, "address": "\u6c5f\u82cf\u7701\u5357\u4eac\u5e02\u5efa\u90ba\u533a\u626c\u5b50\u6c5f\u5927\u9053228", "province": "\u6c5f\u82cf\u7701", "city": "\u5357\u4eac\u5e02", "area": "\u5efa\u90ba\u533a", "street_id": "78cf32e63124692c15a19059", "detail": 1, "uid": "78cf32e63124692c15a19059", "detail_info": {"tag": "\u65c5\u6e38\u666f\u70b9;\u666f\u70b9", "type": "scope", "detail_url": "http://api.map.baidu.com/place/detail?uid=78cf32e63124692c15a19059&output=html&source=placeapi_v2", "children": [], "lat": 32.02808864875035, "lng": 118.70579311154957}}, {"name": "\u89c2\u5149\u5c0f\u706b\u8f66\u7eff\u8272\u4eba\u5c45\u505c\u9760\u70b9", "location": {"lat": 32.0236069477236, "lng": 118.70352468450874}, "address": "\u5357\u4eac\u5e02\u5efa\u90ba\u533a\u626c\u5b50\u6c5f\u5927\u9053228\u53f7\u6ee8\u6c5f\u516c\u56ed\u5357\u4eac\u4e2d\u56fd\u7eff\u5316\u535a\u89c8\u56ed\u5185", "province": "\u6c5f\u82cf\u7701", "city": "\u5357\u4eac\u5e02", "area": "\u5efa\u90ba\u533a", "street_id": "a498e4f0b0e2e3950a1cc76c", "detail": 1, "uid": "a498e4f0b0e2e3950a1cc76c", "detail_info": {"tag": "\u65c5\u6e38\u666f\u70b9;\u666f\u70b9", "type": "scope", "detail_url": "http://api.map.baidu.com/place/detail?uid=a498e4f0b0e2e3950a1cc76c&output=html&source=placeapi_v2", "children": [], "lat": 32.0236069477236, "lng": 118.70352468450874}}, {"name": "\u8863\u820d", "location": {"lat": 32.020631475160904, "lng": 118.7018884633193}, "address": "\u626c\u5b50\u6c5f\u5927\u9053228", "province": "\u6c5f\u82cf\u7701", "city": "\u5357\u4eac\u5e02", "area": "\u5efa\u90ba\u533a", "street_id": "61d8910637818ac2b42655e6", "detail": 1, "uid": "61d8910637818ac2b42655e6", "detail_info": {"tag": "\u65c5\u6e38\u666f\u70b9;\u666f\u70b9", "type": "scope", "detail_url": "http://api.map.baidu.com/place/detail?uid=61d8910637818ac2b42655e6&output=html&source=placeapi_v2", "children": [], "lat": 32.020631475160904, "lng": 118.7018884633193}}, {"name": "\u90c1\u91d1\u9999\u82b1\u56ed", "location": {"lat": 32.020124060675236, "lng": 118.70186786691198}, "address": "\u5357\u4eac\u5e02\u5efa\u90ba\u533a\u626c\u5b50\u6c5f\u5927\u9053228\u53f7\u6ee8\u6c5f\u516c\u56ed\u5357\u4eac\u4e2d\u56fd\u7eff\u5316\u535a\u89c8\u56ed\u8377\u5170\u56ed\u5185", "province": "\u6c5f\u82cf\u7701", "city": "\u5357\u4eac\u5e02", "area": "\u5efa\u90ba\u533a", "street_id": "9f899e35d33b12d349fd3f36", "detail": 1, "uid": "9f899e35d33b12d349fd3f36", "detail_info": {"tag": "\u65c5\u6e38\u666f\u70b9;\u666f\u70b9", "navi_location": {"lng": 118.71412903425, "lat": 32.023591558367}, "type": "scope", "detail_url": "http://api.map.baidu.com/place/detail?uid=9f899e35d33b12d349fd3f36&output=html&source=placeapi_v2", "overall_rating": "0.0", "children": [], "lat": 32.020124060675236, "lng": 118.70186786691198}}, {"name": "\u671d\u6656\u56ed", "location": {"lat": 32.02257373444655, "lng": 118.70570478171167}, "address": "\u5357\u4eac\u5e02\u5efa\u90ba\u533a\u626c\u5b50\u6c5f\u5927\u9053228\u53f7\u6ee8\u6c5f\u516c\u56ed\u5357\u4eac\u4e2d\u56fd\u7eff\u5316\u535a\u89c8\u56ed\u5185", "province": "\u6c5f\u82cf\u7701", "city": "\u5357\u4eac\u5e02", "area": "\u5efa\u90ba\u533a", "street_id": "5837fb7e92adfde9a4c756af", "detail": 1, "uid": "5837fb7e92adfde9a4c756af", "detail_info": {"tag": "\u65c5\u6e38\u666f\u70b9;\u666f\u70b9", "type": "scope", "detail_url": "http://api.map.baidu.com/place/detail?uid=5837fb7e92adfde9a4c756af&output=html&source=placeapi_v2", "overall_rating": "0.0", "children": [], "lat": 32.02257373444655, "lng": 118.70570478171167}}, {"name": "\u71d5\u8d75\u9b42", "location": {"lat": 32.02154039951533, "lng": 118.70442692852983}, "address": "\u5357\u4eac\u5e02\u5efa\u90ba\u533a\u626c\u5b50\u6c5f\u5927\u9053228\u53f7\u6ee8\u6c5f\u516c\u56ed\u5357\u4eac\u4e2d\u56fd\u7eff\u5316\u535a\u89c8\u56ed\u5185", "province": "\u6c5f\u82cf\u7701", "city": "\u5357\u4eac\u5e02", "area": "\u5efa\u90ba\u533a", "street_id": "d48d6483f07dbc5ac9291509", "detail": 1, "uid": "d48d6483f07dbc5ac9291509", "detail_info": {"tag": "\u65c5\u6e38\u666f\u70b9;\u666f\u70b9", "type": "scope", "detail_url": "http://api.map.baidu.com/place/detail?uid=d48d6483f07dbc5ac9291509&output=html&source=placeapi_v2", "overall_rating": "0.0", "children": [], "lat": 32.02154039951533, "lng": 118.70442692852983}}, {"name": "\u592a\u7a7a\u98de\u789f", "location": {"lat": 32.02694118699138, "lng": 118.70513742504797}, "address": "\u5357\u4eac\u5e02\u5efa\u90ba\u533a\u626c\u5b50\u6c5f\u5927\u9053228\u53f7\u6ee8\u6c5f\u516c\u56ed\u5357\u4eac\u4e2d\u56fd\u7eff\u5316\u535a\u89c8\u56ed\u7eff\u535a\u56ed\u513f\u7ae5\u6e38\u4e50\u573a\u5185", "province": "\u6c5f\u82cf\u7701", "city": "\u5357\u4eac\u5e02", "area": "\u5efa\u90ba\u533a", "street_id": "3fc5ed9a93f6b763bbbd6351", "detail": 1, "uid": "3fc5ed9a93f6b763bbbd6351", "detail_info": {"tag": "\u65c5\u6e38\u666f\u70b9;\u666f\u70b9", "type": "scope", "detail_url": "http://api.map.baidu.com/place/detail?uid=3fc5ed9a93f6b763bbbd6351&output=html&source=placeapi_v2", "children": [], "lat": 32.02694118699138, "lng": 118.70513742504797}}, {"name": "\u85cf\u4e61\u60c5", "location": {"lat": 32.02123910076963, "lng": 118.7051592066791}, "address": "\u5357\u4eac\u5e02\u5efa\u90ba\u533a\u626c\u5b50\u6c5f\u5927\u9053228\u53f7\u6ee8\u6c5f\u516c\u56ed\u5357\u4eac\u4e2d\u56fd\u7eff\u5316\u535a\u89c8\u56ed\u5185", "province": "\u6c5f\u82cf\u7701", "city": "\u5357\u4eac\u5e02", "area": "\u5efa\u90ba\u533a", "street_id": "54d7f802e209348a4054d722", "detail": 1, "uid": "54d7f802e209348a4054d722", "detail_info": {"tag": "\u65c5\u6e38\u666f\u70b9;\u666f\u70b9", "navi_location": {"lng": 118.71619301602, "lat": 32.024194621831}, "type": "scope", "detail_url": "http://api.map.baidu.com/place/detail?uid=54d7f802e209348a4054d722&output=html&source=placeapi_v2", "children": [], "lat": 32.02123910076963, "lng": 118.7051592066791}}, {"name": "\u58a8\u897f\u54e5\u56ed", "location": {"lat": 32.02025145610914, "lng": 118.70466901290212}, "address": "\u5357\u4eac\u5e02\u5efa\u90ba\u533a\u626c\u5b50\u6c5f\u5927\u9053228\u53f7\u6ee8\u6c5f\u516c\u56ed\u5357\u4eac\u4e2d\u56fd\u7eff\u5316\u535a\u89c8\u56ed\u5185", "province": "\u6c5f\u82cf\u7701", "city": "\u5357\u4eac\u5e02", "area": "\u5efa\u90ba\u533a", "street_id": "8e407110825f8249ae080f6a", "detail": 1, "uid": "8e407110825f8249ae080f6a", "detail_info": {"tag": "\u65c5\u6e38\u666f\u70b9;\u666f\u70b9", "type": "scope", "detail_url": "http://api.map.baidu.com/place/detail?uid=8e407110825f8249ae080f6a&output=html&source=placeapi_v2", "overall_rating": "0.0", "children": [], "lat": 32.02025145610914, "lng": 118.70466901290212}}, {"name": "\u7eff\u6ee1\u9e4f\u57ce", "location": {"lat": 32.02768520951428, "lng": 118.70790355692388}, "address": "\u5357\u4eac\u5e02\u5efa\u90ba\u533a\u626c\u5b50\u6c5f\u5927\u9053228\u53f7\u6ee8\u6c5f\u516c\u56ed\u5357\u4eac\u4e2d\u56fd\u7eff\u5316\u535a\u89c8\u56ed\u5185", "province": "\u6c5f\u82cf\u7701", "city": "\u5357\u4eac\u5e02", "area": "\u5efa\u90ba\u533a", "street_id": "0fff8e2ac78577130e0a701b", "detail": 1, "uid": "0fff8e2ac78577130e0a701b", "detail_info": {"tag": "\u65c5\u6e38\u666f\u70b9;\u666f\u70b9", "type": "scope", "detail_url": "http://api.map.baidu.com/place/detail?uid=0fff8e2ac78577130e0a701b&output=html&source=placeapi_v2", "children": [], "lat": 32.02768520951428, "lng": 118.70790355692388}}, {"name": "\u7acb\u73af\u8dd1\u8f66", "location": {"lat": 32.02781755484885, "lng": 118.70538604733191}, "address": "\u5357\u4eac\u5e02\u5efa\u90ba\u533a\u626c\u5b50\u6c5f\u5927\u9053228\u53f7\u6ee8\u6c5f\u516c\u56ed\u5357\u4eac\u4e2d\u56fd\u7eff\u5316\u535a\u89c8\u56ed\u7eff\u535a\u56ed\u513f\u7ae5\u6e38\u4e50\u573a\u5185", "province": "\u6c5f\u82cf\u7701", "city": "\u5357\u4eac\u5e02", "area": "\u5efa\u90ba\u533a", "street_id": "e651703e359cc5d38505bf2a", "detail": 1, "uid": "e651703e359cc5d38505bf2a", "detail_info": {"tag": "\u65c5\u6e38\u666f\u70b9;\u666f\u70b9", "type": "scope", "detail_url": "http://api.map.baidu.com/place/detail?uid=e651703e359cc5d38505bf2a&output=html&source=placeapi_v2", "children": [], "lat": 32.02781755484885, "lng": 118.70538604733191}}, {"name": "\u695a\u82d1", "location": {"lat": 32.02661146240312, "lng": 118.7073420989237}, "address": "\u5357\u4eac\u5e02\u5efa\u90ba\u533a\u626c\u5b50\u6c5f\u5927\u9053228\u53f7\u6ee8\u6c5f\u516c\u56ed\u5357\u4eac\u4e2d\u56fd\u7eff\u5316\u535a\u89c8\u56ed\u5185", "province": "\u6c5f\u82cf\u7701", "city": "\u5357\u4eac\u5e02", "area": "\u5efa\u90ba\u533a", "street_id": "4c0d4a70b989afdb97ec8454", "detail": 1, "uid": "4c0d4a70b989afdb97ec8454", "detail_info": {"tag": "\u65c5\u6e38\u666f\u70b9;\u666f\u70b9", "type": "scope", "detail_url": "http://api.map.baidu.com/place/detail?uid=4c0d4a70b989afdb97ec8454&output=html&source=placeapi_v2", "overall_rating": "0.0", "children": [], "lat": 32.02661146240312, "lng": 118.7073420989237}}, {"name": "\u89c2\u5149\u5c0f\u706b\u8f66\u6c5f\u5824\u5e7f\u573a(\u9633\u5149\u8349\u576a)\u505c\u9760\u70b9", "location": {"lat": 32.02540820853732, "lng": 118.70416610784524}, "address": "\u6c5f\u82cf\u7701\u5357\u4eac\u5e02\u5efa\u90ba\u533a\u626c\u5b50\u6c5f\u5927\u9053228\u53f7\u6ee8\u6c5f\u516c\u56ed\u5357\u4eac\u4e2d\u56fd\u7eff\u5316\u535a\u89c8\u56ed\u5185", "province": "\u6c5f\u82cf\u7701", "city": "\u5357\u4eac\u5e02", "area": "\u5efa\u90ba\u533a", "street_id": "8a8cf2ee39cb8612d8d89198", "detail": 1, "uid": "8a8cf2ee39cb8612d8d89198", "detail_info": {"tag": "\u65c5\u6e38\u666f\u70b9;\u666f\u70b9", "type": "scope", "detail_url": "http://api.map.baidu.com/place/detail?uid=8a8cf2ee39cb8612d8d89198&output=html&source=placeapi_v2", "children": [], "lat": 32.02540820853732, "lng": 118.70416610784524}}, {"name": "\u82b1\u56ed\u5c0f\u5c4b", "location": {"lat": 32.02347584713623, "lng": 118.70328835761465}, "address": "\u5357\u4eac\u5e02\u5efa\u90ba\u533a\u626c\u5b50\u6c5f\u5927\u9053228\u53f7\u6ee8\u6c5f\u516c\u56ed\u5357\u4eac\u4e2d\u56fd\u7eff\u5316\u535a\u89c8\u56ed\u5185", "province": "\u6c5f\u82cf\u7701", "city": "\u5357\u4eac\u5e02", "area": "\u5efa\u90ba\u533a", "street_id": "7d5df14042951303acb22ac2", "detail": 1, "uid": "7d5df14042951303acb22ac2", "detail_info": {"tag": "\u65c5\u6e38\u666f\u70b9;\u666f\u70b9", "type": "scope", "detail_url": "http://api.map.baidu.com/place/detail?uid=7d5df14042951303acb22ac2&output=html&source=placeapi_v2", "overall_rating": "0.0", "children": [], "lat": 32.02347584713623, "lng": 118.70328835761465}}, {"name": "\u56fd\u9645\u53cb\u597d\u6797", "location": {"lat": 32.02143329914886, "lng": 118.7048819474718}, "address": "\u5357\u4eac\u5e02\u5efa\u90ba\u533a\u626c\u5b50\u6c5f\u5927\u9053228\u53f7\u6ee8\u6c5f\u516c\u56ed\u5357\u4eac\u4e2d\u56fd\u7eff\u5316\u535a\u89c8\u56ed\u5185", "province": "\u6c5f\u82cf\u7701", "city": "\u5357\u4eac\u5e02", "area": "\u5efa\u90ba\u533a", "street_id": "f85547e159157ffff02d8380", "detail": 1, "uid": "f85547e159157ffff02d8380", "detail_info": {"tag": "\u65c5\u6e38\u666f\u70b9;\u666f\u70b9", "type": "scope", "detail_url": "http://api.map.baidu.com/place/detail?uid=f85547e159157ffff02d8380&output=html&source=placeapi_v2", "overall_rating": "0.0", "children": [], "lat": 32.02143329914886, "lng": 118.7048819474718}}, {"name": "\u6c5f\u82cf\u5927\u5267\u9662\u7f8e\u672f\u9986", "location": {"lat": 32.01536822127456, "lng": 118.7099791695792}, "address": "\u68a6\u90fd\u5927\u8857181\u53f7\u6c5f\u82cf\u5927\u5267\u9662\u5185", "province": "\u6c5f\u82cf\u7701", "city": "\u5357\u4eac\u5e02", "area": "\u5efa\u90ba\u533a", "street_id": "ffc7687f5c6607dcf72310af", "telephone": "(025)85775600,(025)85437777", "detail": 1, "uid": "ffc7687f5c6607dcf72310af", "detail_info": {"tag": "\u6587\u5316\u4f20\u5a92;\u7f8e\u672f\u9986", "type": "enterprise", "detail_url": "http://api.map.baidu.com/place/detail?uid=ffc7687f5c6607dcf72310af&output=html&source=placeapi_v2", "overall_rating": "4.8", "comment_num": "13", "children": [], "lat": 32.01536822127456, "lng": 118.7099791695792}}, {"name": "\u5357\u4eac\u4e2d\u56fd\u7eff\u5316\u535a\u89c8\u56ed-\u91d1\u9675\u77f3\u97f5", "location": {"lat": 32.02620540860303, "lng": 118.7069360845456}, "address": "\u5357\u4eac\u5e02\u5efa\u90ba\u533a\u626c\u5b50\u6c5f\u5927\u9053228\u53f7\u6ee8\u6c5f\u516c\u56ed\u5357\u4eac\u4e2d\u56fd\u7eff\u5316\u535a\u89c8\u56ed\u5185", "province": "\u6c5f\u82cf\u7701", "city": "\u5357\u4eac\u5e02", "area": "\u5efa\u90ba\u533a", "street_id": "da0dac77c656f589246e9832", "detail": 1, "uid": "da0dac77c656f589246e9832", "detail_info": {"tag": "\u65c5\u6e38\u666f\u70b9;\u666f\u70b9", "type": "scope", "detail_url": "http://api.map.baidu.com/place/detail?uid=da0dac77c656f589246e9832&output=html&source=placeapi_v2", "children": [], "lat": 32.02620540860303, "lng": 118.7069360845456}}, {"name": "\u4f01\u4e1a\u56ed", "location": {"lat": 32.02201803740833, "lng": 118.70463326740696}, "address": "\u5357\u4eac\u5e02\u5efa\u90ba\u533a\u626c\u5b50\u6c5f\u5927\u9053228\u53f7\u6ee8\u6c5f\u516c\u56ed\u5357\u4eac\u4e2d\u56fd\u7eff\u5316\u535a\u89c8\u56ed\u5185", "province": "\u6c5f\u82cf\u7701", "city": "\u5357\u4eac\u5e02", "area": "\u5efa\u90ba\u533a", "street_id": "edb0f8d9d0f544ab58f6bedb", "detail": 1, "uid": "edb0f8d9d0f544ab58f6bedb", "detail_info": {"tag": "\u65c5\u6e38\u666f\u70b9;\u666f\u70b9", "type": "scope", "detail_url": "http://api.map.baidu.com/place/detail?uid=edb0f8d9d0f544ab58f6bedb&output=html&source=placeapi_v2", "children": [], "lat": 32.02201803740833, "lng": 118.70463326740696}}, {"name": "\u513f\u7ae5\u8ffd\u9010\u8f66", "location": {"lat": 32.02765577217041, "lng": 118.70534147935825}, "address": "\u5357\u4eac\u5e02\u5efa\u90ba\u533a\u626c\u5b50\u6c5f\u5927\u9053228\u53f7\u6ee8\u6c5f\u516c\u56ed\u5357\u4eac\u4e2d\u56fd\u7eff\u5316\u535a\u89c8\u56ed\u7eff\u535a\u56ed\u513f\u7ae5\u6e38\u4e50\u573a\u5185", "province": "\u6c5f\u82cf\u7701", "city": "\u5357\u4eac\u5e02", "area": "\u5efa\u90ba\u533a", "street_id": "617ef4abcebc1a12e5e9659e", "detail": 1, "uid": "617ef4abcebc1a12e5e9659e", "detail_info": {"tag": "\u65c5\u6e38\u666f\u70b9;\u666f\u70b9", "type": "scope", "detail_url": "http://api.map.baidu.com/place/detail?uid=617ef4abcebc1a12e5e9659e&output=html&source=placeapi_v2", "overall_rating": "0.0", "children": [], "lat": 32.02765577217041, "lng": 118.70534147935825}}, {"name": "\u53cc\u4eba\u98de\u5929", "location": {"lat": 32.028027827638965, "lng": 118.70557362188538}, "address": "\u5357\u4eac\u5e02\u5efa\u90ba\u533a\u626c\u5b50\u6c5f\u5927\u9053228\u53f7\u6ee8\u6c5f\u516c\u56ed\u5357\u4eac\u4e2d\u56fd\u7eff\u5316\u535a\u89c8\u56ed\u7eff\u535a\u56ed\u513f\u7ae5\u6e38\u4e50\u573a\u5185", "province": "\u6c5f\u82cf\u7701", "city": "\u5357\u4eac\u5e02", "area": "\u5efa\u90ba\u533a", "detail": 1, "uid": "64d19d39d6d3b049fa42b222", "detail_info": {"tag": "\u65c5\u6e38\u666f\u70b9;\u666f\u70b9", "type": "scope", "detail_url": "http://api.map.baidu.com/place/detail?uid=64d19d39d6d3b049fa42b222&output=html&source=placeapi_v2", "overall_rating": "0.0", "children": [], "lat": 32.028027827638965, "lng": 118.70557362188538}}, {"name": "\u78b0\u78b0\u8f66", "location": {"lat": 32.02699883889102, "lng": 118.7054045981998}, "address": "\u5357\u4eac\u5e02\u5efa\u90ba\u533a\u626c\u5b50\u6c5f\u5927\u9053228\u53f7\u6ee8\u6c5f\u516c\u56ed\u5357\u4eac\u4e2d\u56fd\u7eff\u5316\u535a\u89c8\u56ed\u7eff\u535a\u56ed\u513f\u7ae5\u6e38\u4e50\u573a\u5185", "province": "\u6c5f\u82cf\u7701", "city": "\u5357\u4eac\u5e02", "area": "\u5efa\u90ba\u533a", "street_id": "ba316afb161777cf03294fae", "detail": 1, "uid": "ba316afb161777cf03294fae", "detail_info": {"tag": "\u65c5\u6e38\u666f\u70b9;\u666f\u70b9", "type": "scope", "detail_url": "http://api.map.baidu.com/place/detail?uid=ba316afb161777cf03294fae&output=html&source=placeapi_v2", "overall_rating": "0.0", "children": [], "lat": 32.02699883889102, "lng": 118.7054045981998}}, {"name": "\u5357\u7ca4\u548c\u56ed", "location": {"lat": 32.02800274240071, "lng": 118.7081079607727}, "address": "\u5357\u4eac\u5e02\u5efa\u90ba\u533a\u626c\u5b50\u6c5f\u5927\u9053228\u53f7\u6ee8\u6c5f\u516c\u56ed\u5357\u4eac\u4e2d\u56fd\u7eff\u5316\u535a\u89c8\u56ed\u5185", "province": "\u6c5f\u82cf\u7701", "city": "\u5357\u4eac\u5e02", "area": "\u5efa\u90ba\u533a", "street_id": "469d1e50b562f18df7eafcf5", "detail": 1, "uid": "469d1e50b562f18df7eafcf5", "detail_info": {"tag": "\u65c5\u6e38\u666f\u70b9;\u666f\u70b9", "type": "scope", "detail_url": "http://api.map.baidu.com/place/detail?uid=469d1e50b562f18df7eafcf5&output=html&source=placeapi_v2", "overall_rating": "0.0", "children": [], "lat": 32.02800274240071, "lng": 118.7081079607727}}, {"name": "\u65cb\u56ed", "location": {"lat": 32.022943650277995, "lng": 118.70679135308829}, "address": "\u5357\u4eac\u5e02\u5efa\u90ba\u533a\u626c\u5b50\u6c5f\u5927\u9053228\u53f7\u6ee8\u6c5f\u516c\u56ed\u5357\u4eac\u4e2d\u56fd\u7eff\u5316\u535a\u89c8\u56ed\u5185", "province": "\u6c5f\u82cf\u7701", "city": "\u5357\u4eac\u5e02", "area": "\u5efa\u90ba\u533a", "street_id": "7dc2cc9480714e4dc036446e", "detail": 1, "uid": "7dc2cc9480714e4dc036446e", "detail_info": {"tag": "\u65c5\u6e38\u666f\u70b9;\u666f\u70b9", "navi_location": {"lng": 118.71842817979, "lat": 32.026257561417}, "type": "scope", "detail_url": "http://api.map.baidu.com/place/detail?uid=7dc2cc9480714e4dc036446e&output=html&source=placeapi_v2", "overall_rating": "0.0", "children": [], "lat": 32.022943650277995, "lng": 118.70679135308829}}, {"name": "\u4f53\u80fd\u4e50\u56ed", "location": {"lat": 32.028150453108076, "lng": 118.7056092807109}, "address": "\u5357\u4eac\u5e02\u5efa\u90ba\u533a\u626c\u5b50\u6c5f\u5927\u9053228\u53f7\u6ee8\u6c5f\u516c\u56ed\u5357\u4eac\u4e2d\u56fd\u7eff\u5316\u535a\u89c8\u56ed\u7eff\u535a\u56ed\u513f\u7ae5\u6e38\u4e50\u573a\u5185", "province": "\u6c5f\u82cf\u7701", "city": "\u5357\u4eac\u5e02", "area": "\u5efa\u90ba\u533a", "street_id": "a8fbd8adf7e930ea80a00c7f", "detail": 1, "uid": "a8fbd8adf7e930ea80a00c7f", "detail_info": {"tag": "\u65c5\u6e38\u666f\u70b9;\u666f\u70b9", "type": "scope", "detail_url": "http://api.map.baidu.com/place/detail?uid=a8fbd8adf7e930ea80a00c7f&output=html&source=placeapi_v2", "overall_rating": "0.0", "children": [], "lat": 32.028150453108076, "lng": 118.7056092807109}}, {"name": "\u91d1\u9675\u6c5f\u6ee8\u9152\u5e97-\u4f1a\u8bae\u697c", "location": {"lat": 32.013708253175096, "lng": 118.70345246199241}, "address": "\u626c\u5b50\u6c5f\u5927\u9053\u4e07\u666f\u56ed\u8def8\u53f7\u91d1\u9675\u6c5f\u6ee8\u9152\u5e97", "province": "\u6c5f\u82cf\u7701", "city": "\u5357\u4eac\u5e02", "area": "\u5efa\u90ba\u533a", "street_id": "ade639def5769b16ad0457f4", "telephone": "(025)51872888", "detail": 1, "uid": "ade639def5769b16ad0457f4", "detail_info": {"tag": "\u6559\u80b2\u57f9\u8bad;\u5176\u4ed6", "navi_location": {"lng": 118.71550185976, "lat": 32.017712989789}, "type": "enterprise", "detail_url": "http://api.map.baidu.com/place/detail?uid=ade639def5769b16ad0457f4&output=html&source=placeapi_v2", "children": [], "lat": 32.013708253175096, "lng": 118.70345246199241}}, {"name": "\u795d\u56ed", "location": {"lat": 32.020230170167935, "lng": 118.70436505769031}, "address": "\u5357\u4eac\u5e02\u5efa\u90ba\u533a\u626c\u5b50\u6c5f\u5927\u9053228\u53f7\u6ee8\u6c5f\u516c\u56ed\u5357\u4eac\u4e2d\u56fd\u7eff\u5316\u535a\u89c8\u56ed\u5185", "province": "\u6c5f\u82cf\u7701", "city": "\u5357\u4eac\u5e02", "area": "\u5efa\u90ba\u533a", "street_id": "2e4de7f4b69b0529343a71e9", "detail": 1, "uid": "2e4de7f4b69b0529343a71e9", "detail_info": {"tag": "\u65c5\u6e38\u666f\u70b9;\u666f\u70b9", "type": "scope", "detail_url": "http://api.map.baidu.com/place/detail?uid=2e4de7f4b69b0529343a71e9&output=html&source=placeapi_v2", "children": [], "lat": 32.020230170167935, "lng": 118.70436505769031}}, {"name": "\u89c2\u5149\u5c0f\u706b\u8f66\u4eb2\u5b50\u6c99\u8da3\u56ed(\u513f\u7ae5\u6e38\u4e50\u533a)\u505c\u9760\u70b9", "location": {"lat": 32.027464891692325, "lng": 118.70667181646682}, "address": "\u6c5f\u82cf\u7701\u5357\u4eac\u5e02\u5efa\u90ba\u533a\u626c\u5b50\u6c5f\u5927\u9053228\u53f7\u6ee8\u6c5f\u516c\u56ed\u5357\u4eac\u4e2d\u56fd\u7eff\u5316\u535a\u89c8\u56ed\u5185", "province": "\u6c5f\u82cf\u7701", "city": "\u5357\u4eac\u5e02", "area": "\u5efa\u90ba\u533a", "street_id": "7aa8d98902ebc8d2cbfa5f17", "detail": 1, "uid": "7aa8d98902ebc8d2cbfa5f17", "detail_info": {"tag": "\u65c5\u6e38\u666f\u70b9;\u666f\u70b9", "type": "scope", "detail_url": "http://api.map.baidu.com/place/detail?uid=7aa8d98902ebc8d2cbfa5f17&output=html&source=placeapi_v2", "overall_rating": "0.0", "children": [], "lat": 32.027464891692325, "lng": 118.70667181646682}}, {"name": "9\u529b\u7ae5\u771f\u63a2\u7d22\u4e50\u56ed", "location": {"lat": 32.02442049883812, "lng": 118.70694832660237}, "address": "\u5357\u4eac\u5e02\u5efa\u90ba\u533a\u626c\u5b50\u6c5f\u5927\u9053\u4e0e\u5174\u9686\u5927\u8857\u4ea4\u53c9\u8def\u53e3\u5f80\u897f\u7ea6150\u7c73(\u5357\u4eac\u4e2d\u56fd\u7eff\u5316\u535a\u89c8\u56ed)", "province": "\u6c5f\u82cf\u7701", "city": "\u5357\u4eac\u5e02", "area": "\u5efa\u90ba\u533a", "detail": 1, "uid": "be080707e08de4a582288acb", "detail_info": {"tag": "\u65c5\u6e38\u666f\u70b9;\u6e38\u4e50\u56ed", "type": "scope", "detail_url": "http://api.map.baidu.com/place/detail?uid=be080707e08de4a582288acb&output=html&source=placeapi_v2", "overall_rating": "0.0", "comment_num": "1", "children": [], "lat": 32.02442049883812, "lng": 118.70694832660237}}, {"name": "\u89c2\u5149\u5c0f\u706b\u8f66\u8377\u5170\u56ed\u505c\u9760\u70b9", "location": {"lat": 32.02091125169251, "lng": 118.70128634806542}, "address": "\u5357\u4eac\u5e02\u5efa\u90ba\u533a\u626c\u5b50\u6c5f\u5927\u9053228\u53f7\u6ee8\u6c5f\u516c\u56ed\u5357\u4eac\u4e2d\u56fd\u7eff\u5316\u535a\u89c8\u56ed\u5185", "province": "\u6c5f\u82cf\u7701", "city": "\u5357\u4eac\u5e02", "area": "\u5efa\u90ba\u533a", "street_id": "473e2017c8f0c9633ce23119", "detail": 1, "uid": "473e2017c8f0c9633ce23119", "detail_info": {"tag": "\u65c5\u6e38\u666f\u70b9;\u666f\u70b9", "type": "scope", "detail_url": "http://api.map.baidu.com/place/detail?uid=473e2017c8f0c9633ce23119&output=html&source=placeapi_v2", "overall_rating": "0.0", "children": [], "lat": 32.02091125169251, "lng": 118.70128634806542}}, {"name": "\u6c99\u8da3\u6e38\u4e50\u533a", "location": {"lat": 32.02676906953143, "lng": 118.70576339653928}, "address": "\u6c5f\u82cf\u7701\u5357\u4eac\u5e02\u5efa\u90ba\u533a\u626c\u5b50\u6c5f\u5927\u9053228", "province": "\u6c5f\u82cf\u7701", "city": "\u5357\u4eac\u5e02", "area": "\u5efa\u90ba\u533a", "detail": 1, "uid": "2a3987f99f2afef7a4c75683", "detail_info": {"tag": "\u65c5\u6e38\u666f\u70b9;\u6e38\u4e50\u56ed", "type": "scope", "detail_url": "http://api.map.baidu.com/place/detail?uid=2a3987f99f2afef7a4c75683&output=html&source=placeapi_v2", "overall_rating": "4.3", "comment_num": "6", "children": [], "lat": 32.02676906953143, "lng": 118.70576339653928}}, {"name": "\u6c5f\u6c49\u4f1a\u9986\u65e7\u5740", "location": {"lat": 32.02187143242287, "lng": 118.70981640847819}, "address": "\u677e\u82b1\u6c5f\u897f\u8857\u4e0e\u87ba\u4e1d\u6865\u5927\u8857\u4ea4\u53c9\u53e3\u897f\u5317200\u7c73", "province": "\u6c5f\u82cf\u7701", "city": "\u5357\u4eac\u5e02", "area": "\u5efa\u90ba\u533a", "detail": 1, "uid": "3b5dd80b8c760d7831f71de7", "detail_info": {"tag": "\u65c5\u6e38\u666f\u70b9;\u6587\u7269\u53e4\u8ff9", "type": "life", "detail_url": "http://api.map.baidu.com/place/detail?uid=3b5dd80b8c760d7831f71de7&output=html&source=placeapi_v2", "image_num": "1", "children": [], "lat": 32.02187143242287, "lng": 118.70981640847819}}, {"name": "\u690d\u7269\u5de5\u574a", "location": {"lat": 32.02352261871496, "lng": 118.70315919321978}, "address": "\u5357\u4eac\u5e02\u5efa\u90ba\u533a\u626c\u5b50\u6c5f\u5927\u9053228\u53f7\u6ee8\u6c5f\u516c\u56ed\u5357\u4eac\u4e2d\u56fd\u7eff\u5316\u535a\u89c8\u56ed\u5185", "province": "\u6c5f\u82cf\u7701", "city": "\u5357\u4eac\u5e02", "area": "\u5efa\u90ba\u533a", "detail": 1, "uid": "f25a64d102f2aa629f09f761", "detail_info": {"tag": "\u65c5\u6e38\u666f\u70b9;\u666f\u70b9", "type": "scope", "detail_url": "http://api.map.baidu.com/place/detail?uid=f25a64d102f2aa629f09f761&output=html&source=placeapi_v2", "children": [], "lat": 32.02352261871496, "lng": 118.70315919321978}}, {"name": "\u5ba3\u548c\u7f8e\u672f\u9986", "location": {"lat": 32.01110662516667, "lng": 118.72271319555934}, "address": "\u5357\u4eac\u5e02\u5efa\u90ba\u533a\u68a6\u90fd\u5927\u8857\u4e0e\u71d5\u5c71\u8def\u4ea4\u53c9\u8def\u53e3\u5f80\u5357\u7ea6200\u7c73(\u5357\u4eac\u5965\u6797\u5339\u514b\u4f53\u80b2\u4e2d\u5fc3)", "province": "\u6c5f\u82cf\u7701", "city": "\u5357\u4eac\u5e02", "area": "\u5efa\u90ba\u533a", "detail": 1, "uid": "5f6cb323ab7b4273d4851fec", "detail_info": {"tag": "\u6587\u5316\u4f20\u5a92;\u7f8e\u672f\u9986", "type": "enterprise", "detail_url": "http://api.map.baidu.com/place/detail?uid=5f6cb323ab7b4273d4851fec&output=html&source=placeapi_v2", "children": [], "lat": 32.01110662516667, "lng": 118.72271319555934}}, {"name": "\u5b81\u6ce2\u56ed", "location": {"lat": 32.0224986815072, "lng": 118.70673798510698}, "address": "\u5357\u4eac\u5e02\u5efa\u90ba\u533a\u626c\u5b50\u6c5f\u5927\u9053228\u53f7\u6ee8\u6c5f\u516c\u56ed\u5357\u4eac\u4e2d\u56fd\u7eff\u5316\u535a\u89c8\u56ed\u5185", "province": "\u6c5f\u82cf\u7701", "city": "\u5357\u4eac\u5e02", "area": "\u5efa\u90ba\u533a", "street_id": "b8b5971bf208fe676ca3cc09", "detail": 1, "uid": "b8b5971bf208fe676ca3cc09", "detail_info": {"tag": "\u65c5\u6e38\u666f\u70b9;\u666f\u70b9", "type": "scope", "detail_url": "http://api.map.baidu.com/place/detail?uid=b8b5971bf208fe676ca3cc09&output=html&source=placeapi_v2", "overall_rating": "0.0", "children": [], "lat": 32.0224986815072, "lng": 118.70673798510698}}, {"name": "\u6c5f\u5fc3\u6d32\u5c55\u89c8\u9986", "location": {"lat": 32.00841245039398, "lng": 118.69581620303241}, "address": "\u5357\u4eac\u5e02\u5efa\u90ba\u533a\u6d32\u79e6\u8def\u4e0e\u6c11\u5b89\u8def\u4ea4\u53c9\u8def\u53e3\u5f80\u5357\u7ea6150\u7c73(\u6c5f\u5fc3\u6d32\u5e02\u6c11\u5e7f\u573a\u897f\u5357\u4fa7)", "province": "\u6c5f\u82cf\u7701", "city": "\u5357\u4eac\u5e02", "area": "\u5efa\u90ba\u533a", "street_id": "fbd709f0cd066257a6da39ca", "detail": 1, "uid": "fbd709f0cd066257a6da39ca", "detail_info": {"tag": "\u6587\u5316\u4f20\u5a92;\u5c55\u89c8\u9986", "navi_location": {"lng": 118.70771346116, "lat": 32.012512317663}, "type": "enterprise", "detail_url": "http://api.map.baidu.com/place/detail?uid=fbd709f0cd066257a6da39ca&output=html&source=placeapi_v2", "children": [], "lat": 32.00841245039398, "lng": 118.69581620303241}}, {"name": "\u827a\u5170\u658b\u7f8e\u672f\u9986", "location": {"lat": 32.01074848502784, "lng": 118.70999571924318}, "address": "\u6c5f\u82cf\u7701\u5357\u4eac\u5e02\u5efa\u90ba\u533a\u6c5f\u82cf\u5927\u5267\u9662\u535770\u7c73(\u5965\u4f53\u5927\u8857\u5317)", "province": "\u6c5f\u82cf\u7701", "city": "\u5357\u4eac\u5e02", "area": "\u5efa\u90ba\u533a", "street_id": "7e7735093553c0c2b54f54bc", "detail": 1, "uid": "7e7735093553c0c2b54f54bc", "detail_info": {"tag": "\u6587\u5316\u4f20\u5a92;\u7f8e\u672f\u9986", "type": "enterprise", "detail_url": "http://api.map.baidu.com/place/detail?uid=7e7735093553c0c2b54f54bc&output=html&source=placeapi_v2", "overall_rating": "3.0", "comment_num": "2", "children": [], "lat": 32.01074848502784, "lng": 118.70999571924318}}, {"name": "\u6d77\u53e3\u56ed", "location": {"lat": 32.02013511167969, "lng": 118.70505251020137}, "address": "\u5357\u4eac\u5e02\u5efa\u90ba\u533a\u626c\u5b50\u6c5f\u5927\u9053228\u53f7\u6ee8\u6c5f\u516c\u56ed\u5357\u4eac\u4e2d\u56fd\u7eff\u5316\u535a\u89c8\u56ed\u5185", "province": "\u6c5f\u82cf\u7701", "city": "\u5357\u4eac\u5e02", "area": "\u5efa\u90ba\u533a", "street_id": "7d86cfdbbdf0f96c02ec0147", "detail": 1, "uid": "7d86cfdbbdf0f96c02ec0147", "detail_info": {"tag": "\u65c5\u6e38\u666f\u70b9;\u666f\u70b9", "type": "scope", "detail_url": "http://api.map.baidu.com/place/detail?uid=7d86cfdbbdf0f96c02ec0147&output=html&source=placeapi_v2", "children": [], "lat": 32.02013511167969, "lng": 118.70505251020137}}, {"name": "\u6cb3\u897f\u4e2d\u592e\u5546\u52a1\u533a\u56fd\u9645\u9752\u5e74\u4f1a\u8bae\u4e2d\u5fc3", "location": {"lat": 32.01101092857651, "lng": 118.71721657965902}, "address": "\u5357\u4eac\u5e02\u5efa\u90ba\u533a\u4e50\u5c71\u8def(\u5357\u4eac\u5965\u6797\u5339\u514b\u4f53\u80b2\u4e2d\u5fc3)", "province": "\u6c5f\u82cf\u7701", "city": "\u5357\u4eac\u5e02", "area": "\u5efa\u90ba\u533a", "detail": 1, "uid": "cdb51c87d71fa26788db73fe", "detail_info": {"tag": "\u6587\u5316\u4f20\u5a92;\u5c55\u89c8\u9986", "type": "enterprise", "detail_url": "http://api.map.baidu.com/place/detail?uid=cdb51c87d71fa26788db73fe&output=html&source=placeapi_v2", "children": [], "lat": 32.01101092857651, "lng": 118.71721657965902}}, {"name": "\u7cbe\u7075\u738b\u56fd\u68a6\u5e7b\u4e50\u56ed(\u4e2d\u592e\u5546\u573a\u5e97)", "location": {"lat": 32.00922468033113, "lng": 118.72688393763843}, "address": "\u5357\u4eac\u5e02\u5efa\u90ba\u533a\u6c5f\u4e1c\u4e2d\u8def270\u53f7\u4e2d\u592e\u5546\u573aF3", "province": "\u6c5f\u82cf\u7701", "city": "\u5357\u4eac\u5e02", "area": "\u5efa\u90ba\u533a", "street_id": "825e7a20ce126830bfa822e4", "telephone": "13951673469", "detail": 1, "uid": "825e7a20ce126830bfa822e4", "detail_info": {"tag": "\u4f11\u95f2\u5a31\u4e50;\u6e38\u620f\u573a\u6240", "indoor_floor": "F3", "type": "life", "detail_url": "http://api.map.baidu.com/place/detail?uid=825e7a20ce126830bfa822e4&output=html&source=placeapi_v2", "price": "96", "overall_rating": "4.3", "comment_num": "33", "children": [], "lat": 32.00922468033113, "lng": 118.72688393763843}}, {"name": "\u5c0f\u6559\u5802", "location": {"lat": 32.02100108958258, "lng": 118.70168760932643}, "address": "\u5357\u4eac\u5e02\u5efa\u90ba\u533a\u626c\u5b50\u6c5f\u5927\u9053228\u53f7\u6ee8\u6c5f\u516c\u56ed\u5357\u4eac\u4e2d\u56fd\u7eff\u5316\u535a\u89c8\u56ed\u8377\u5170\u56ed\u5185", "province": "\u6c5f\u82cf\u7701", "city": "\u5357\u4eac\u5e02", "area": "\u5efa\u90ba\u533a", "street_id": "260e466d5c5dacf114948e8a", "detail": 1, "uid": "260e466d5c5dacf114948e8a", "detail_info": {"tag": "\u65c5\u6e38\u666f\u70b9;\u6559\u5802", "type": "scope", "detail_url": "http://api.map.baidu.com/place/detail?uid=260e466d5c5dacf114948e8a&output=html&source=placeapi_v2", "overall_rating": "3.0", "comment_num": "1", "children": [], "lat": 32.02100108958258, "lng": 118.70168760932643}}, {"name": "\u5404\u7701\u5e02\u5c55\u793a\u56ed", "location": {"lat": 32.0223714681041, "lng": 118.7059780914588}, "address": "\u5357\u4eac\u5e02\u5efa\u90ba\u533a\u626c\u5b50\u6c5f\u5927\u9053228\u53f7\u6ee8\u6c5f\u516c\u56ed\u5357\u4eac\u4e2d\u56fd\u7eff\u5316\u535a\u89c8\u56ed\u5185", "province": "\u6c5f\u82cf\u7701", "city": "\u5357\u4eac\u5e02", "area": "\u5efa\u90ba\u533a", "street_id": "575227507cf6c9b5c056aced", "detail": 1, "uid": "575227507cf6c9b5c056aced", "detail_info": {"tag": "\u6587\u5316\u4f20\u5a92;\u5c55\u89c8\u9986", "type": "enterprise", "detail_url": "http://api.map.baidu.com/place/detail?uid=575227507cf6c9b5c056aced&output=html&source=placeapi_v2", "overall_rating": "5.0", "comment_num": "1", "children": [], "lat": 32.0223714681041, "lng": 118.7059780914588}}, {"name": "\u5404\u7701\u5e02\u5c55\u793a\u56ed-\u5357\u533a", "location": {"lat": 32.020537651890415, "lng": 118.70531057982106}, "address": "\u5357\u4eac\u5e02\u5efa\u90ba\u533a\u626c\u5b50\u6c5f\u5927\u9053228\u53f7\u6ee8\u6c5f\u516c\u56ed\u5357\u4eac\u4e2d\u56fd\u7eff\u5316\u535a\u89c8\u56ed\u5404\u7701\u5e02\u5c55\u793a\u56ed\u5185", "province": "\u6c5f\u82cf\u7701", "city": "\u5357\u4eac\u5e02", "area": "\u5efa\u90ba\u533a", "street_id": "40f840e0e94ed1f017948e76", "detail": 1, "uid": "40f840e0e94ed1f017948e76", "detail_info": {"tag": "\u6587\u5316\u4f20\u5a92;\u5c55\u89c8\u9986", "type": "enterprise", "detail_url": "http://api.map.baidu.com/place/detail?uid=40f840e0e94ed1f017948e76&output=html&source=placeapi_v2", "children": [], "lat": 32.020537651890415, "lng": 118.70531057982106}}, {"name": "\u4e1c\u65b9\u9b45\u529b(\u4e2d\u592e\u5546\u573a\u5e97)", "location": {"lat": 32.0093391410579, "lng": 118.72725092426445}, "address": "\u5357\u4eac\u5e02\u5efa\u90ba\u533a\u6c5f\u4e1c\u4e2d\u8def235\u53f7\u4e2d\u592e\u5546\u573aF4", "province": "\u6c5f\u82cf\u7701", "city": "\u5357\u4eac\u5e02", "area": "\u5efa\u90ba\u533a", "street_id": "ea83e1e7b382f1f9774ff18b", "detail": 1, "uid": "ea83e1e7b382f1f9774ff18b", "detail_info": {"tag": "\u65c5\u6e38\u666f\u70b9;\u6e38\u4e50\u56ed", "indoor_floor": "F4", "type": "scope", "detail_url": "http://api.map.baidu.com/place/detail?uid=ea83e1e7b382f1f9774ff18b&output=html&source=placeapi_v2", "children": [], "lat": 32.0093391410579, "lng": 118.72725092426445}}, {"name": "\u5404\u7701\u5e02\u5c55\u793a\u56ed-\u5317\u533a", "location": {"lat": 32.02391282235269, "lng": 118.70708478091183}, "address": "\u5357\u4eac\u5e02\u5efa\u90ba\u533a\u626c\u5b50\u6c5f\u5927\u9053228\u53f7\u6ee8\u6c5f\u516c\u56ed\u5357\u4eac\u4e2d\u56fd\u7eff\u5316\u535a\u89c8\u56ed\u5404\u7701\u5e02\u5c55\u793a\u56ed\u5185", "province": "\u6c5f\u82cf\u7701", "city": "\u5357\u4eac\u5e02", "area": "\u5efa\u90ba\u533a", "street_id": "9354b32c9ef7aa9bc2f1cfd0", "detail": 1, "uid": "9354b32c9ef7aa9bc2f1cfd0", "detail_info": {"tag": "\u6587\u5316\u4f20\u5a92;\u5c55\u89c8\u9986", "type": "enterprise", "detail_url": "http://api.map.baidu.com/place/detail?uid=9354b32c9ef7aa9bc2f1cfd0&output=html&source=placeapi_v2", "children": [], "lat": 32.02391282235269, "lng": 118.70708478091183}}, {"name": "\u4ec1\u6052\u8f89\u76db\u9601\u9152\u5e97\u516c\u5bd3-\u4f1a\u8bae\u5385", "location": {"lat": 32.00788253683671, "lng": 118.72786614978554}, "address": "\u5e90\u5c71\u8def116\u53f7", "province": "\u6c5f\u82cf\u7701", "city": "\u5357\u4eac\u5e02", "area": "\u5efa\u90ba\u533a", "street_id": "41ca1c290b680731c42ba1fd", "telephone": "(025)86268888", "detail": 1, "uid": "41ca1c290b680731c42ba1fd", "detail_info": {"tag": "\u6587\u5316\u4f20\u5a92;\u5c55\u89c8\u9986", "type": "enterprise", "detail_url": "http://api.map.baidu.com/place/detail?uid=41ca1c290b680731c42ba1fd&output=html&source=placeapi_v2", "children": [], "lat": 32.00788253683671, "lng": 118.72786614978554}}, {"name": "\u91d1\u5965\u7f8e\u5b66\u827a\u672f\u9986", "location": {"lat": 32.01099589721526, "lng": 118.71721459046125}, "address": "\u6cb3\u897f\u4e2d\u592e\u5546\u52a1\u533a\u91d1\u5965\u7f8e\u5b66\u827a\u672f\u9986", "province": "\u6c5f\u82cf\u7701", "city": "\u5357\u4eac\u5e02", "area": "\u5efa\u90ba\u533a", "detail": 1, "uid": "df38b8f199abfcbbfbdc853a", "detail_info": {"tag": "\u6587\u5316\u4f20\u5a92;\u7f8e\u672f\u9986", "type": "enterprise", "detail_url": "http://api.map.baidu.com/place/detail?uid=df38b8f199abfcbbfbdc853a&output=html&source=placeapi_v2", "children": [], "lat": 32.01099589721526, "lng": 118.71721459046125}}, {"name": "\u9e3f\u5eb7\u827a\u672f\u9986", "location": {"lat": 32.01800107911299, "lng": 118.71979035835956}, "address": "\u677e\u82b1\u6c5f\u897f\u885728-2\u53f7", "province": "\u6c5f\u82cf\u7701", "city": "\u5357\u4eac\u5e02", "area": "\u5efa\u90ba\u533a", "street_id": "86e9bf77804bc6074251c071", "detail": 1, "uid": "86e9bf77804bc6074251c071", "detail_info": {"tag": "\u6587\u5316\u4f20\u5a92;\u7f8e\u672f\u9986", "navi_location": {"lng": 118.7315364622, "lat": 32.021606368365}, "type": "enterprise", "detail_url": "http://api.map.baidu.com/place/detail?uid=86e9bf77804bc6074251c071&output=html&source=placeapi_v2", "children": [], "lat": 32.01800107911299, "lng": 118.71979035835956}}, {"name": "\u4e5d\u751f\u5802\u7f8e\u672f\u9986", "location": {"lat": 32.010207879035846, "lng": 118.70937666383577}, "address": "\u5965\u4f53\u5927\u8857119\u53f7\u9644\u8fd1", "province": "\u6c5f\u82cf\u7701", "city": "\u5357\u4eac\u5e02", "area": "\u5efa\u90ba\u533a", "detail": 1, "uid": "335524cade5904bed92f28af", "detail_info": {"tag": "\u6587\u5316\u4f20\u5a92;\u7f8e\u672f\u9986", "type": "enterprise", "detail_url": "http://api.map.baidu.com/place/detail?uid=335524cade5904bed92f28af&output=html&source=placeapi_v2", "children": [], "lat": 32.010207879035846, "lng": 118.70937666383577}}, {"name": "\u4e2d\u65c5\u6c5f\u82cf\u516c\u53f8\u5546\u52a1\u4f1a\u5c55\u4e2d\u5fc3", "location": {"lat": 32.01484207397444, "lng": 118.72182234210584}, "address": "\u68a6\u90fd\u5927\u8857150\u53f7\u5efa\u7b51\u5e08\u5de5\u793e410\u4e2d\u65c5\u6c5f\u82cf\u516c\u53f8\u5546\u52a1\u4f1a\u5c55\u4e2d\u5fc3", "province": "\u6c5f\u82cf\u7701", "city": "\u5357\u4eac\u5e02", "area": "\u5efa\u90ba\u533a", "detail": 1, "uid": "57ab945138b283532cb17ee7", "detail_info": {"tag": "\u6587\u5316\u4f20\u5a92;\u5c55\u89c8\u9986", "type": "enterprise", "detail_url": "http://api.map.baidu.com/place/detail?uid=57ab945138b283532cb17ee7&output=html&source=placeapi_v2", "children": [], "lat": 32.01484207397444, "lng": 118.72182234210584}}, {"name": "\u4e07\u666f\u56ed", "location": {"lat": 32.036189349131476, "lng": 118.71145882046689}, "address": "\u6c5f\u82cf\u7701\u5357\u4eac\u5e02\u5efa\u90ba\u533a\u626c\u5b50\u6c5f\u5927\u9053228\u53f7\u6ee8\u6c5f\u516c\u56ed\u5185", "province": "\u6c5f\u82cf\u7701", "city": "\u5357\u4eac\u5e02", "area": "\u5efa\u90ba\u533a", "street_id": "bbcb3d6b37d4e85ca3acc4bc", "detail": 1, "uid": "bbcb3d6b37d4e85ca3acc4bc", "detail_info": {"tag": "\u65c5\u6e38\u666f\u70b9;\u516c\u56ed", "navi_location": {"lng": 118.72241367298, "lat": 32.037174065172}, "type": "scope", "detail_url": "http://api.map.baidu.com/place/detail?uid=bbcb3d6b37d4e85ca3acc4bc&output=html&source=placeapi_v2", "overall_rating": "4.7", "comment_num": "22", "children": [], "lat": 32.036189349131476, "lng": 118.71145882046689}}, {"name": "\u5347\u9f99\u516c\u56ed\u9053\u699b\u56ed", "location": {"lat": 32.04710853635859, "lng": 118.70886420526725}, "address": "\u6c5f\u82cf\u7701\u5357\u4eac\u5e02\u5efa\u90ba\u533a\u5347\u9f99\u516c\u56ed\u9053(\u4e2d\u65b0\u5927\u9053\u4e1c)", "province": "\u6c5f\u82cf\u7701", "city": "\u5357\u4eac\u5e02", "area": "\u5efa\u90ba\u533a", "detail": 1, "uid": "72163f9cef50cad6f72310e2", "detail_info": {"tag": "\u65c5\u6e38\u666f\u70b9;\u666f\u70b9", "type": "scope", "detail_url": "http://api.map.baidu.com/place/detail?uid=72163f9cef50cad6f72310e2&output=html&source=placeapi_v2", "overall_rating": "0.0", "children": [], "lat": 32.04710853635859, "lng": 118.70886420526725}}, {"name": "\u4e07\u666f\u56ed-\u5c0f\u6559\u5802", "location": {"lat": 32.04021590127039, "lng": 118.71400026082647}, "address": "\u5357\u4eac\u5e02\u5efa\u90ba\u533a\u4e07\u666f\u56ed\u5185", "province": "\u6c5f\u82cf\u7701", "city": "\u5357\u4eac\u5e02", "area": "\u5efa\u90ba\u533a", "street_id": "bda0e7905dc5e78117948ed4", "telephone": "13913841208", "detail": 1, "uid": "bda0e7905dc5e78117948ed4", "detail_info": {"tag": "\u65c5\u6e38\u666f\u70b9;\u6559\u5802", "type": "scope", "detail_url": "http://api.map.baidu.com/place/detail?uid=bda0e7905dc5e78117948ed4&output=html&source=placeapi_v2", "overall_rating": "4.5", "comment_num": "19", "children": [], "lat": 32.04021590127039, "lng": 118.71400026082647}}, {"name": "\u5b9d\u8239\u535a\u89c8\u82d1", "location": {"lat": 32.05542120142785, "lng": 118.7235910240177}, "address": "\u626c\u5b50\u6c5f\u5927\u9053\u4e0e\u94f6\u57ce\u8857\u4ea4\u53c9\u53e3\u897f100\u7c73", "province": "\u6c5f\u82cf\u7701", "city": "\u5357\u4eac\u5e02", "area": "\u9f13\u697c\u533a", "street_id": "e98d70e7c386d1f99f82eadc", "detail": 1, "uid": "e98d70e7c386d1f99f82eadc", "detail_info": {"tag": "\u65c5\u6e38\u666f\u70b9;\u666f\u70b9", "type": "scope", "detail_url": "http://api.map.baidu.com/place/detail?uid=e98d70e7c386d1f99f82eadc&output=html&source=placeapi_v2", "children": [], "lat": 32.05542120142785, "lng": 118.7235910240177}}, {"name": "\u9752\u5965\u4e4b\u5bb6", "location": {"lat": 32.03421720727437, "lng": 118.71163181360255}, "address": "\u626c\u5b50\u6c5f\u5927\u9053222\u53f7\u4e07\u666f\u56ed\u518511\u680b\u6021\u56ed", "province": "\u6c5f\u82cf\u7701", "city": "\u5357\u4eac\u5e02", "area": "\u5efa\u90ba\u533a", "street_id": "f3b55fc114b1025a00ff2d61", "telephone": "(025)86271552", "detail": 1, "uid": "f3b55fc114b1025a00ff2d61", "detail_info": {"tag": "\u65c5\u6e38\u666f\u70b9;\u98ce\u666f\u533a", "type": "scope", "detail_url": "http://api.map.baidu.com/place/detail?uid=f3b55fc114b1025a00ff2d61&output=html&source=placeapi_v2", "overall_rating": "4.5", "image_num": "1", "comment_num": "4", "children": [], "lat": 32.03421720727437, "lng": 118.71163181360255}}, {"name": "\u89c2\u6c5f\u98ce\u60c5\u533a", "location": {"lat": 32.0398734148969, "lng": 118.71320230587732}, "address": "\u5357\u4eac\u5e02\u5efa\u90ba\u533a\u626c\u5b50\u6c5f\u5927\u9053228\u53f7\u6ee8\u6c5f\u516c\u56ed\u4e07\u666f\u56ed\u5185", "province": "\u6c5f\u82cf\u7701", "city": "\u5357\u4eac\u5e02", "area": "\u5efa\u90ba\u533a", "street_id": "f5d79a2dda60b80b83a00cf2", "detail": 1, "uid": "f5d79a2dda60b80b83a00cf2", "detail_info": {"tag": "\u65c5\u6e38\u666f\u70b9;\u666f\u70b9", "type": "scope", "detail_url": "http://api.map.baidu.com/place/detail?uid=f5d79a2dda60b80b83a00cf2&output=html&source=placeapi_v2", "overall_rating": "0.0", "children": [], "lat": 32.0398734148969, "lng": 118.71320230587732}}, {"name": "\u6cd5\u5f0f\u4e61\u6751\u98ce\u60c5\u533a", "location": {"lat": 32.03614152372698, "lng": 118.71098480095088}, "address": "\u626c\u5b50\u6c5f\u5927\u9053222\u53f7", "province": "\u6c5f\u82cf\u7701", "city": "\u5357\u4eac\u5e02", "area": "\u5efa\u90ba\u533a", "detail": 1, "uid": "8acd77817b2ff9e915c90566", "detail_info": {"tag": "\u65c5\u6e38\u666f\u70b9;\u666f\u70b9", "type": "scope", "detail_url": "http://api.map.baidu.com/place/detail?uid=8acd77817b2ff9e915c90566&output=html&source=placeapi_v2", "overall_rating": "0.0", "children": [], "lat": 32.03614152372698, "lng": 118.71098480095088}}, {"name": "\u4e7e\u9686\u4e66\u753b", "location": {"lat": 32.049049706551706, "lng": 118.7269831389593}, "address": "\u6c5f\u82cf\u7701\u5357\u4eac\u5e02\u9f13\u697c\u533a\u6e05\u51c9\u95e8\u5927\u8857296\u53f7\u9644\u8fd1", "province": "\u6c5f\u82cf\u7701", "city": "\u5357\u4eac\u5e02", "area": "\u9f13\u697c\u533a", "detail": 1, "uid": "a8ab6d899705d2b076e5b65d", "detail_info": {"tag": "\u65c5\u6e38\u666f\u70b9", "type": "scope", "detail_url": "http://api.map.baidu.com/place/detail?uid=a8ab6d899705d2b076e5b65d&output=html&source=placeapi_v2", "children": [], "lat": 32.049049706551706, "lng": 118.7269831389593}}, {"name": "\u897f\u4e9a\u6811\u6797", "location": {"lat": 32.04148062347407, "lng": 118.71516622636923}, "address": "\u5357\u4eac\u5e02\u5efa\u90ba\u533a\u626c\u5b50\u6c5f\u5927\u9053228\u53f7\u6ee8\u6c5f\u516c\u56ed\u4e07\u666f\u56ed\u5185", "province": "\u6c5f\u82cf\u7701", "city": "\u5357\u4eac\u5e02", "area": "\u5efa\u90ba\u533a", "street_id": "8dd65ecb3add2b9b43ab9a9b", "detail": 1, "uid": "8dd65ecb3add2b9b43ab9a9b", "detail_info": {"tag": "\u65c5\u6e38\u666f\u70b9;\u666f\u70b9", "navi_location": {"lng": 118.72701795674, "lat": 32.045727394505}, "type": "scope", "detail_url": "http://api.map.baidu.com/place/detail?uid=8dd65ecb3add2b9b43ab9a9b&output=html&source=placeapi_v2", "overall_rating": "0.0", "children": [], "lat": 32.04148062347407, "lng": 118.71516622636923}}, {"name": "\u82cf\u5b81\u777f\u57ce\u8425\u9500\u5c55\u793a\u4e2d\u5fc3", "location": {"lat": 32.033552416328085, "lng": 118.71863048319751}, "address": "\u6c5f\u82cf\u7701\u5357\u4eac\u5e02\u9f13\u697c\u533a\u96c6\u5e86\u95e8\u5927\u8857268\u53f7\u82cf\u5b81\u6167\u8c37", "province": "\u6c5f\u82cf\u7701", "city": "\u5357\u4eac\u5e02", "area": "\u9f13\u697c\u533a", "street_id": "5b3159302b47da1db05c6ad0", "detail": 1, "uid": "5b3159302b47da1db05c6ad0", "detail_info": {"tag": "\u6587\u5316\u4f20\u5a92;\u5c55\u89c8\u9986", "navi_location": {"lng": 118.72954186734, "lat": 32.037977863028}, "type": "enterprise", "detail_url": "http://api.map.baidu.com/place/detail?uid=5b3159302b47da1db05c6ad0&output=html&source=placeapi_v2", "children": [], "lat": 32.033552416328085, "lng": 118.71863048319751}}, {"name": "\u6b27\u6d32\u6cb9\u753b\u5c55\u89c8\u9986", "location": {"lat": 32.03681915026112, "lng": 118.71311812701173}, "address": "\u96c6\u5e86\u95e8\u5927\u8857\u4e0e\u626c\u5b50\u6c5f\u5927\u9053\u4ea4\u53c9\u53e3\u5317200\u7c73", "province": "\u6c5f\u82cf\u7701", "city": "\u5357\u4eac\u5e02", "area": "\u5efa\u90ba\u533a", "street_id": "deb84440c7b525ef4afd3f82", "detail": 1, "uid": "deb84440c7b525ef4afd3f82", "detail_info": {"tag": "\u6587\u5316\u4f20\u5a92;\u5c55\u89c8\u9986", "type": "enterprise", "detail_url": "http://api.map.baidu.com/place/detail?uid=deb84440c7b525ef4afd3f82&output=html&source=placeapi_v2", "children": [], "lat": 32.03681915026112, "lng": 118.71311812701173}}, {"name": "\u4e07\u666f\u56ed\u827a\u672f\u535a\u7269\u9986", "location": {"lat": 32.03473762924423, "lng": 118.71190262333543}, "address": "\u626c\u5b50\u6c5f\u5927\u9053\u4e0e\u626c\u5b50\u6c5f\u5927\u9053\u7acb\u4ea4\u4ea4\u53c9\u53e3\u5317150\u7c73", "province": "\u6c5f\u82cf\u7701", "city": "\u5357\u4eac\u5e02", "area": "\u5efa\u90ba\u533a", "detail": 1, "uid": "96c5b7e3539ddf47e507384c", "detail_info": {"tag": "\u65c5\u6e38\u666f\u70b9;\u535a\u7269\u9986", "type": "scope", "detail_url": "http://api.map.baidu.com/place/detail?uid=96c5b7e3539ddf47e507384c&output=html&source=placeapi_v2", "overall_rating": "5.0", "comment_num": "1", "children": [], "lat": 32.03473762924423, "lng": 118.71190262333543}}, {"name": "\u5347\u9f99\u516c\u56ed\u9053\u6866\u56ed", "location": {"lat": 32.04825441391126, "lng": 118.70821617017405}, "address": "\u6c5f\u82cf\u7701\u5357\u4eac\u5e02\u5efa\u90ba\u533a\u6587\u6b66\u885727\u53f7", "province": "\u6c5f\u82cf\u7701", "city": "\u5357\u4eac\u5e02", "area": "\u5efa\u90ba\u533a", "street_id": "c96b20794a0e9b23b5f42ffb", "detail": 1, "uid": "c96b20794a0e9b23b5f42ffb", "detail_info": {"tag": "\u623f\u5730\u4ea7;\u4f4f\u5b85\u533a", "navi_location": {"lng": 118.719011249, "lat": 32.051715212479}, "type": "house", "detail_url": "http://api.map.baidu.com/place/detail?uid=c96b20794a0e9b23b5f42ffb&output=html&source=placeapi_v2", "children": [], "lat": 32.04825441391126, "lng": 118.70821617017405}}, {"name": "\u5347\u9f99\u516c\u56ed\u9053\u6842\u56ed", "location": {"lat": 32.045280863868214, "lng": 118.70818060769733}, "address": "\u4e2d\u65b0\u5927\u9053\u4e0e\u8461\u56ed\u8def\u4ea4\u53c9\u53e3\u4e1c\u5317100\u7c73", "province": "\u6c5f\u82cf\u7701", "city": "\u5357\u4eac\u5e02", "area": "\u5efa\u90ba\u533a", "street_id": "9126737713700c0af33cba40", "detail": 1, "uid": "9126737713700c0af33cba40", "detail_info": {"tag": "\u623f\u5730\u4ea7;\u4f4f\u5b85\u533a", "navi_location": {"lng": 118.7196990638, "lat": 32.049052839591}, "type": "house", "detail_url": "http://api.map.baidu.com/place/detail?uid=9126737713700c0af33cba40&output=html&source=placeapi_v2", "children": [], "lat": 32.045280863868214, "lng": 118.70818060769733}}, {"name": "\u5347\u9f99\u516c\u56ed\u9053\u6995\u56ed", "location": {"lat": 32.046825696435604, "lng": 118.7070721681261}, "address": "\u6c5f\u82cf\u7701\u5357\u4eac\u5e02\u5efa\u90ba\u533a\u5347\u9f99\u516c\u56ed\u9053(\u4e2d\u65b0\u5927\u9053\u897f100\u7c73)", "province": "\u6c5f\u82cf\u7701", "city": "\u5357\u4eac\u5e02", "area": "\u5efa\u90ba\u533a", "street_id": "277597d1488338aadeee8b8d", "detail": 1, "uid": "277597d1488338aadeee8b8d", "detail_info": {"tag": "\u623f\u5730\u4ea7;\u4f4f\u5b85\u533a", "navi_location": {"lng": 118.71893062632, "lat": 32.051590060769}, "type": "house", "detail_url": "http://api.map.baidu.com/place/detail?uid=277597d1488338aadeee8b8d&output=html&source=placeapi_v2", "children": [], "lat": 32.046825696435604, "lng": 118.7070721681261}}, {"name": "\u56fd\u6c11\u653f\u5e9c\u4e2d\u592e\u5e7f\u64ad\u7535\u53f0\u65e7\u5740", "location": {"lat": 32.038806381985886, "lng": 118.72673404075417}, "address": "\u6c5f\u82cf\u7701\u5357\u4eac\u5e02\u9f13\u697c\u533a\u6c5f\u4e1c\u95e8\u5317\u8857165\u53f7", "province": "\u6c5f\u82cf\u7701", "city": "\u5357\u4eac\u5e02", "area": "\u9f13\u697c\u533a", "detail": 1, "uid": "f3abbf1521152a53ab175aa5", "detail_info": {"tag": "\u6587\u5316\u4f20\u5a92;\u5e7f\u64ad\u7535\u89c6", "type": "enterprise", "detail_url": "http://api.map.baidu.com/place/detail?uid=f3abbf1521152a53ab175aa5&output=html&source=placeapi_v2", "overall_rating": "3.0", "comment_num": "2", "children": [], "lat": 32.038806381985886, "lng": 118.72673404075417}}, {"name": "\u5347\u9f99\u516c\u56ed\u9053\u897f\u533a", "location": {"lat": 32.048309440501455, "lng": 118.70757926035475}, "address": "\u6c5f\u82cf\u7701\u5357\u4eac\u5e02\u5efa\u90ba\u533a\u5347\u9f99\u516c\u56ed\u9053(\u6587\u6b66\u8857\u531750\u7c73)", "province": "\u6c5f\u82cf\u7701", "city": "\u5357\u4eac\u5e02", "area": "\u5efa\u90ba\u533a", "detail": 1, "uid": "45a786897d047fa00c0a70f3", "detail_info": {"tag": "\u623f\u5730\u4ea7;\u4f4f\u5b85\u533a", "type": "house", "detail_url": "http://api.map.baidu.com/place/detail?uid=45a786897d047fa00c0a70f3&output=html&source=placeapi_v2", "children": [], "lat": 32.048309440501455, "lng": 118.70757926035475}}, {"name": "\u9ea6\u82ac\u7279\u7f8e\u672f\u9986(\u9f99\u6c5f\u5e97)", "location": {"lat": 32.05184337987829, "lng": 118.72569811812112}, "address": "\u6c5f\u82cf\u7701\u5357\u4eac\u5e02\u9f13\u697c\u533a\u6e58\u6c5f\u8def32\u53f7J52\u6559\u80b2\u5e7f\u573a3\u697c", "province": "\u6c5f\u82cf\u7701", "city": "\u5357\u4eac\u5e02", "area": "\u9f13\u697c\u533a", "detail": 1, "uid": "60937e6c41186a8c744ff10b", "detail_info": {"tag": "\u6587\u5316\u4f20\u5a92;\u7f8e\u672f\u9986", "navi_location": {"lng": 118.7374440004, "lat": 32.055418020703}, "type": "enterprise", "detail_url": "http://api.map.baidu.com/place/detail?uid=60937e6c41186a8c744ff10b&output=html&source=placeapi_v2", "overall_rating": "5.0", "comment_num": "2", "children": [], "lat": 32.05184337987829, "lng": 118.72569811812112}}, {"name": "\u54c1\u6da6\u827a\u672f\u9986", "location": {"lat": 32.03396644443077, "lng": 118.72285435201542}, "address": "\u5357\u4eac\u5e02\u9f13\u697c\u533a\u6e05\u6c5f\u5357\u8def7\u53f7\u8d8a\u6d0b\u56fd\u9645218\u5ba4", "province": "\u6c5f\u82cf\u7701", "city": "\u5357\u4eac\u5e02", "area": "\u9f13\u697c\u533a", "street_id": "3a6142177bb44faf3ce231df", "telephone": "(025)85652515", "detail": 1, "uid": "3a6142177bb44faf3ce231df", "detail_info": {"tag": "\u6587\u5316\u4f20\u5a92;\u7f8e\u672f\u9986", "type": "enterprise", "detail_url": "http://api.map.baidu.com/place/detail?uid=3a6142177bb44faf3ce231df&output=html&source=placeapi_v2", "children": [], "lat": 32.03396644443077, "lng": 118.72285435201542}}, {"name": "\u957f\u6c5f\u5357\u4eac\u6bb5\u5c55\u793a\u9986", "location": {"lat": 32.03948060429949, "lng": 118.71489495948707}, "address": "\u626c\u5b50\u6c5f\u5927\u9053222\u53f7", "province": "\u6c5f\u82cf\u7701", "city": "\u5357\u4eac\u5e02", "area": "\u5efa\u90ba\u533a", "street_id": "000ae5bcbfb92828f4e73b04", "detail": 1, "uid": "000ae5bcbfb92828f4e73b04", "detail_info": {"tag": "\u6587\u5316\u4f20\u5a92;\u5c55\u89c8\u9986", "type": "enterprise", "detail_url": "http://api.map.baidu.com/place/detail?uid=000ae5bcbfb92828f4e73b04&output=html&source=placeapi_v2", "children": [], "lat": 32.03948060429949, "lng": 118.71489495948707}}, {"name": "\u6e21\u6c5f\u80dc\u5229\u7eaa\u5ff5\u9986", "location": {"lat": 32.07579274424094, "lng": 118.72618151792074}, "address": "\u5357\u4eac\u5e02\u9f13\u697c\u533a\u6e21\u6c5f\u8def1\u53f7", "province": "\u6c5f\u82cf\u7701", "city": "\u5357\u4eac\u5e02", "area": "\u9f13\u697c\u533a", "street_id": "869aea264d899daa88b98875", "telephone": "(025)58719423,(025)84649423", "detail": 1, "uid": "869aea264d899daa88b98875", "detail_info": {"tag": "\u65c5\u6e38\u666f\u70b9;\u6587\u7269\u53e4\u8ff9", "navi_location": {"lng": 118.73880336211, "lat": 32.078710303359}, "type": "scope", "detail_url": "http://api.map.baidu.com/place/detail?uid=869aea264d899daa88b98875&output=html&source=placeapi_v2", "overall_rating": "4.7", "comment_num": "131", "children": [], "lat": 32.07579274424094, "lng": 118.72618151792074}}, {"name": "\u5929\u5983\u53e4\u5e99", "location": {"lat": 32.06142609153886, "lng": 118.72562339440458}, "address": "\u6f13\u6c5f\u8def57", "province": "\u6c5f\u82cf\u7701", "city": "\u5357\u4eac\u5e02", "area": "\u9f13\u697c\u533a", "street_id": "e5609be4b4fa2970f11937b4", "detail": 1, "uid": "e5609be4b4fa2970f11937b4", "detail_info": {"tag": "\u65c5\u6e38\u666f\u70b9;\u666f\u70b9", "navi_location": {"lng": 118.74284191911, "lat": 32.067565484458}, "type": "scope", "detail_url": "http://api.map.baidu.com/place/detail?uid=e5609be4b4fa2970f11937b4&output=html&source=placeapi_v2", "overall_rating": "3.0", "comment_num": "1", "children": [], "lat": 32.06142609153886, "lng": 118.72562339440458}}, {"name": "\u822a\u6d77\u65f6\u5149", "location": {"lat": 32.060719905608245, "lng": 118.72452053179025},